{"cities":[{"name":"Avgariá","state":"Central Greece","territory":"","country":"Greece","latitude":38.94791565,"longitude":23.19118939,"population":95,"stateCapital":false,"nationalCapital":false,"pk":null,"quiz":"europe","code":null,"archived":false,"percentageOfSessions":null}, {"name":"Ávoros","state":"Central Greece","territory":"","country":"Greece","latitude":38.49894015,"longitude":22.13077537,"population":61,"stateCapital":false,"nationalCapital":false,"pk":null,"quiz":"europe","code":null,"archived":false,"percentageOfSessions":null}, {"name":"Agathón","state":"Central Greece","territory":"","country":"Greece","latitude":38.13158269,"longitude":24.49657494,"population":38,"stateCapital":false,"nationalCapital":false,"pk":null,"quiz":"europe","code":null,"archived":false,"percentageOfSessions":null}, {"name":"Agdhíne","state":"Central Greece","territory":"","country":"Greece","latitude":38.95729225,"longitude":23.29345451,"population":164,"stateCapital":false,"nationalCapital":false,"pk":null,"quiz":"europe","code":null,"archived":false,"percentageOfSessions":null}, {"name":"Agía Ekateríni","state":"Central Greece","territory":"","country":"Greece","latitude":38.74524425,"longitude":22.94037549,"population":33,"stateCapital":false,"nationalCapital":false,"pk":null,"quiz":"europe","code":null,"archived":false,"percentageOfSessions":null}, {"name":"Agía Ekateríni","state":"Central Greece","territory":"","country":"Greece","latitude":38.74524425,"longitude":22.94037549,"population":159,"stateCapital":false,"nationalCapital":false,"pk":null,"quiz":"europe","code":null,"archived":false,"percentageOfSessions":null}, {"name":"Agía Ánna","state":"Central Greece","territory":"","country":"Greece","latitude":38.31378298,"longitude":22.90222416,"population":242,"stateCapital":false,"nationalCapital":false,"pk":null,"quiz":"europe","code":null,"archived":false,"percentageOfSessions":null}, {"name":"Agía Ánna","state":"Central Greece","territory":"","country":"Greece","latitude":38.85670238,"longitude":23.39826428,"population":711,"stateCapital":false,"nationalCapital":false,"pk":null,"quiz":"europe","code":null,"archived":false,"percentageOfSessions":null}, {"name":"Agía Vlahérna","state":"Central Greece","territory":"","country":"Greece","latitude":38.84843364,"longitude":21.63822813,"population":71,"stateCapital":false,"nationalCapital":false,"pk":null,"quiz":"europe","code":null,"archived":false,"percentageOfSessions":null}, {"name":"Agía Iríni","state":"Central Greece","territory":"","country":"Greece","latitude":38.65555014,"longitude":23.87533608,"population":23,"stateCapital":false,"nationalCapital":false,"pk":null,"quiz":"europe","code":null,"archived":false,"percentageOfSessions":null}, {"name":"Agía Iríni","state":"Central Greece","territory":"","country":"Greece","latitude":38.33987143,"longitude":22.16767348,"population":17,"stateCapital":false,"nationalCapital":false,"pk":null,"quiz":"europe","code":null,"archived":false,"percentageOfSessions":null}, {"name":"Agía Efthimía","state":"Central Greece","territory":"","country":"Greece","latitude":38.47843935,"longitude":22.35624879,"population":454,"stateCapital":false,"nationalCapital":false,"pk":null,"quiz":"europe","code":null,"archived":false,"percentageOfSessions":null}, {"name":"Agía Thékla","state":"Central Greece","territory":"","country":"Greece","latitude":38.50968737,"longitude":24.09377479,"population":35,"stateCapital":false,"nationalCapital":false,"pk":null,"quiz":"europe","code":null,"archived":false,"percentageOfSessions":null}, {"name":"Agía Marína","state":"Central Greece","territory":"","country":"Greece","latitude":38.56622425,"longitude":22.70483546,"population":228,"stateCapital":false,"nationalCapital":false,"pk":null,"quiz":"europe","code":null,"archived":false,"percentageOfSessions":null}, {"name":"Agía Marína","state":"Central Greece","territory":"","country":"Greece","latitude":38.56622425,"longitude":22.70483546,"population":338,"stateCapital":false,"nationalCapital":false,"pk":null,"quiz":"europe","code":null,"archived":false,"percentageOfSessions":null}, {"name":"Agía Marína","state":"Central Greece","territory":"","country":"Greece","latitude":38.03274608,"longitude":24.32062764,"population":20,"stateCapital":false,"nationalCapital":false,"pk":null,"quiz":"europe","code":null,"archived":false,"percentageOfSessions":null}, {"name":"Agía Marína","state":"Central Greece","territory":"","country":"Greece","latitude":38.03274608,"longitude":24.32062764,"population":4,"stateCapital":false,"nationalCapital":false,"pk":null,"quiz":"europe","code":null,"archived":false,"percentageOfSessions":null}, {"name":"Agía Paraskeví","state":"Central Greece","territory":"","country":"Greece","latitude":38.5808415,"longitude":22.74168451,"population":176,"stateCapital":false,"nationalCapital":false,"pk":null,"quiz":"europe","code":null,"archived":false,"percentageOfSessions":null}, {"name":"Agía Paraskeví","state":"Central Greece","territory":"","country":"Greece","latitude":38.5808415,"longitude":22.74168451,"population":916,"stateCapital":false,"nationalCapital":false,"pk":null,"quiz":"europe","code":null,"archived":false,"percentageOfSessions":null}, {"name":"Agía Paraskeví","state":"Central Greece","territory":"","country":"Greece","latitude":38.39174811,"longitude":22.98181193,"population":160,"stateCapital":false,"nationalCapital":false,"pk":null,"quiz":"europe","code":null,"archived":false,"percentageOfSessions":null}, {"name":"Agía Paraskeví","state":"Central Greece","territory":"","country":"Greece","latitude":39.00225827,"longitude":21.79690271,"population":49,"stateCapital":false,"nationalCapital":false,"pk":null,"quiz":"europe","code":null,"archived":false,"percentageOfSessions":null}, {"name":"Agía Sofía","state":"Central Greece","territory":"","country":"Greece","latitude":38.68524903,"longitude":23.72147825,"population":68,"stateCapital":false,"nationalCapital":false,"pk":null,"quiz":"europe","code":null,"archived":false,"percentageOfSessions":null}, {"name":"Agía Triádha","state":"Central Greece","territory":"","country":"Greece","latitude":38.97871974,"longitude":21.60183975,"population":35,"stateCapital":false,"nationalCapital":false,"pk":null,"quiz":"europe","code":null,"archived":false,"percentageOfSessions":null}, {"name":"Agía Triás","state":"Central Greece","territory":"","country":"Greece","latitude":38.81375214,"longitude":22.59865534,"population":283,"stateCapital":false,"nationalCapital":false,"pk":null,"quiz":"europe","code":null,"archived":false,"percentageOfSessions":null}, {"name":"Agía Triás","state":"Central Greece","territory":"","country":"Greece","latitude":38.35384649,"longitude":22.90700572,"population":648,"stateCapital":false,"nationalCapital":false,"pk":null,"quiz":"europe","code":null,"archived":false,"percentageOfSessions":null}, {"name":"Agía Triás","state":"Central Greece","territory":"","country":"Greece","latitude":38.98458988,"longitude":21.81766735,"population":302,"stateCapital":false,"nationalCapital":false,"pk":null,"quiz":"europe","code":null,"archived":false,"percentageOfSessions":null}, {"name":"Ágii","state":"Central Greece","territory":"","country":"Greece","latitude":37.94870173,"longitude":24.50732009,"population":4,"stateCapital":false,"nationalCapital":false,"pk":null,"quiz":"europe","code":null,"archived":false,"percentageOfSessions":null}, {"name":"Ágii Apóstoli","state":"Central Greece","territory":"","country":"Greece","latitude":38.40959228,"longitude":24.19417334,"population":630,"stateCapital":false,"nationalCapital":false,"pk":null,"quiz":"europe","code":null,"archived":false,"percentageOfSessions":null}, {"name":"Ágii Apóstoli","state":"Central Greece","territory":"","country":"Greece","latitude":38.40959228,"longitude":24.19417334,"population":118,"stateCapital":false,"nationalCapital":false,"pk":null,"quiz":"europe","code":null,"archived":false,"percentageOfSessions":null}, {"name":"Ágii Pándes","state":"Central Greece","territory":"","country":"Greece","latitude":38.36573885,"longitude":22.29342882,"population":156,"stateCapital":false,"nationalCapital":false,"pk":null,"quiz":"europe","code":null,"archived":false,"percentageOfSessions":null}, {"name":"Agiókambos","state":"Central Greece","territory":"","country":"Greece","latitude":38.92985888,"longitude":23.03476904,"population":86,"stateCapital":false,"nationalCapital":false,"pk":null,"quiz":"europe","code":null,"archived":false,"percentageOfSessions":null}, {"name":"Ágios","state":"Central Greece","territory":"","country":"Greece","latitude":38.65262293,"longitude":23.55749047,"population":4,"stateCapital":false,"nationalCapital":false,"pk":null,"quiz":"europe","code":null,"archived":false,"percentageOfSessions":null}, {"name":"Ágios","state":"Central Greece","territory":"","country":"Greece","latitude":38.65262293,"longitude":23.55749047,"population":792,"stateCapital":false,"nationalCapital":false,"pk":null,"quiz":"europe","code":null,"archived":false,"percentageOfSessions":null}, {"name":"Ágios Athanásios","state":"Central Greece","territory":"","country":"Greece","latitude":38.32447671,"longitude":22.73437925,"population":100,"stateCapital":false,"nationalCapital":false,"pk":null,"quiz":"europe","code":null,"archived":false,"percentageOfSessions":null}, {"name":"Ágios Athanásios","state":"Central Greece","territory":"","country":"Greece","latitude":38.32447671,"longitude":22.73437925,"population":11,"stateCapital":false,"nationalCapital":false,"pk":null,"quiz":"europe","code":null,"archived":false,"percentageOfSessions":null}, {"name":"Ágios Athanásios","state":"Central Greece","territory":"","country":"Greece","latitude":38.60317974,"longitude":23.77785738,"population":321,"stateCapital":false,"nationalCapital":false,"pk":null,"quiz":"europe","code":null,"archived":false,"percentageOfSessions":null}, {"name":"Ágios Athanásios","state":"Central Greece","territory":"","country":"Greece","latitude":39.22213515,"longitude":21.59931704,"population":114,"stateCapital":false,"nationalCapital":false,"pk":null,"quiz":"europe","code":null,"archived":false,"percentageOfSessions":null}, {"name":"Ágios Andhréas","state":"Central Greece","territory":"","country":"Greece","latitude":38.4694996,"longitude":22.95160086,"population":66,"stateCapital":false,"nationalCapital":false,"pk":null,"quiz":"europe","code":null,"archived":false,"percentageOfSessions":null}, {"name":"Ágios Andhréas","state":"Central Greece","territory":"","country":"Greece","latitude":38.87240219,"longitude":21.7868101,"population":38,"stateCapital":false,"nationalCapital":false,"pk":null,"quiz":"europe","code":null,"archived":false,"percentageOfSessions":null}, {"name":"Ágios Andhréas","state":"Central Greece","territory":"","country":"Greece","latitude":38.30227568,"longitude":22.58553356,"population":21,"stateCapital":false,"nationalCapital":false,"pk":null,"quiz":"europe","code":null,"archived":false,"percentageOfSessions":null}, {"name":"Ágios Vasílios","state":"Central Greece","territory":"","country":"Greece","latitude":38.17867715,"longitude":23.14208495,"population":98,"stateCapital":false,"nationalCapital":false,"pk":null,"quiz":"europe","code":null,"archived":false,"percentageOfSessions":null}, {"name":"Ágios Vlásios","state":"Central Greece","territory":"","country":"Greece","latitude":38.49738908,"longitude":22.79727228,"population":223,"stateCapital":false,"nationalCapital":false,"pk":null,"quiz":"europe","code":null,"archived":false,"percentageOfSessions":null}, {"name":"Ágios Vlásios","state":"Central Greece","territory":"","country":"Greece","latitude":38.56837648,"longitude":24.04631707,"population":306,"stateCapital":false,"nationalCapital":false,"pk":null,"quiz":"europe","code":null,"archived":false,"percentageOfSessions":null}, {"name":"Ágios Vlásios","state":"Central Greece","territory":"","country":"Greece","latitude":39.1204252,"longitude":21.46353573,"population":233,"stateCapital":false,"nationalCapital":false,"pk":null,"quiz":"europe","code":null,"archived":false,"percentageOfSessions":null}, {"name":"Ágios Geórgios","state":"Central Greece","territory":"","country":"Greece","latitude":38.94325905,"longitude":21.95679068,"population":350,"stateCapital":false,"nationalCapital":false,"pk":null,"quiz":"europe","code":null,"archived":false,"percentageOfSessions":null}, {"name":"Ágios Geórgios","state":"Central Greece","territory":"","country":"Greece","latitude":38.94325905,"longitude":21.95679068,"population":429,"stateCapital":false,"nationalCapital":false,"pk":null,"quiz":"europe","code":null,"archived":false,"percentageOfSessions":null}, {"name":"Ágios Geórgios","state":"Central Greece","territory":"","country":"Greece","latitude":38.39068468,"longitude":22.92840992,"population":1732,"stateCapital":false,"nationalCapital":false,"pk":null,"quiz":"europe","code":null,"archived":false,"percentageOfSessions":null}, {"name":"Ágios Geórgios","state":"Central Greece","territory":"","country":"Greece","latitude":38.49248076,"longitude":24.07547412,"population":391,"stateCapital":false,"nationalCapital":false,"pk":null,"quiz":"europe","code":null,"archived":false,"percentageOfSessions":null}, {"name":"Ágios Geórgios","state":"Central Greece","territory":"","country":"Greece","latitude":38.49248076,"longitude":24.07547412,"population":882,"stateCapital":false,"nationalCapital":false,"pk":null,"quiz":"europe","code":null,"archived":false,"percentageOfSessions":null}, {"name":"Ágios Geórgios","state":"Central Greece","territory":"","country":"Greece","latitude":38.49248076,"longitude":24.07547412,"population":286,"stateCapital":false,"nationalCapital":false,"pk":null,"quiz":"europe","code":null,"archived":false,"percentageOfSessions":null}, {"name":"Ágios Geórgios","state":"Central Greece","territory":"","country":"Greece","latitude":38.90099365,"longitude":21.5996255,"population":167,"stateCapital":false,"nationalCapital":false,"pk":null,"quiz":"europe","code":null,"archived":false,"percentageOfSessions":null}, {"name":"Ágios Geórgios","state":"Central Greece","territory":"","country":"Greece","latitude":38.50548421,"longitude":22.38451295,"population":110,"stateCapital":false,"nationalCapital":false,"pk":null,"quiz":"europe","code":null,"archived":false,"percentageOfSessions":null}, {"name":"Ágios Geórgios Giáltron","state":"Central Greece","territory":"","country":"Greece","latitude":38.86856294,"longitude":22.97530437,"population":25,"stateCapital":false,"nationalCapital":false,"pk":null,"quiz":"europe","code":null,"archived":false,"percentageOfSessions":null}, {"name":"Ágios Dhimítrios","state":"Central Greece","territory":"","country":"Greece","latitude":38.44710849,"longitude":22.99568512,"population":797,"stateCapital":false,"nationalCapital":false,"pk":null,"quiz":"europe","code":null,"archived":false,"percentageOfSessions":null}, {"name":"Ágios Dhimítrios","state":"Central Greece","territory":"","country":"Greece","latitude":38.10596068,"longitude":24.43915359,"population":160,"stateCapital":false,"nationalCapital":false,"pk":null,"quiz":"europe","code":null,"archived":false,"percentageOfSessions":null}, {"name":"Ágios Dhimítrios","state":"Central Greece","territory":"","country":"Greece","latitude":38.10596068,"longitude":24.43915359,"population":67,"stateCapital":false,"nationalCapital":false,"pk":null,"quiz":"europe","code":null,"archived":false,"percentageOfSessions":null}, {"name":"Ágios Dhimítrios","state":"Central Greece","territory":"","country":"Greece","latitude":39.05620064,"longitude":21.67900615,"population":85,"stateCapital":false,"nationalCapital":false,"pk":null,"quiz":"europe","code":null,"archived":false,"percentageOfSessions":null}, {"name":"Ágios Thomás","state":"Central Greece","territory":"","country":"Greece","latitude":38.27509793,"longitude":23.58680132,"population":1290,"stateCapital":false,"nationalCapital":false,"pk":null,"quiz":"europe","code":null,"archived":false,"percentageOfSessions":null}, {"name":"Ágios Isídhoros","state":"Central Greece","territory":"","country":"Greece","latitude":38.36059198,"longitude":22.61472796,"population":91,"stateCapital":false,"nationalCapital":false,"pk":null,"quiz":"europe","code":null,"archived":false,"percentageOfSessions":null}, {"name":"Ágios Ioánnis","state":"Central Greece","territory":"","country":"Greece","latitude":38.49340998,"longitude":23.26493094,"population":169,"stateCapital":false,"nationalCapital":false,"pk":null,"quiz":"europe","code":null,"archived":false,"percentageOfSessions":null}, {"name":"Ágios Ioánnis","state":"Central Greece","territory":"","country":"Greece","latitude":38.44510877,"longitude":24.00337862,"population":874,"stateCapital":false,"nationalCapital":false,"pk":null,"quiz":"europe","code":null,"archived":false,"percentageOfSessions":null}, {"name":"Ágios Ioánnis Pródhromos","state":"Central Greece","territory":"","country":"Greece","latitude":39.18139393,"longitude":21.46365952,"population":79,"stateCapital":false,"nationalCapital":false,"pk":null,"quiz":"europe","code":null,"archived":false,"percentageOfSessions":null}, {"name":"Ágios Konstandínos","state":"Central Greece","territory":"","country":"Greece","latitude":38.75676975,"longitude":22.85639796,"population":2444,"stateCapital":false,"nationalCapital":false,"pk":null,"quiz":"europe","code":null,"archived":false,"percentageOfSessions":null}, {"name":"Ágios Konstandínos","state":"Central Greece","territory":"","country":"Greece","latitude":38.05550469,"longitude":24.32064605,"population":62,"stateCapital":false,"nationalCapital":false,"pk":null,"quiz":"europe","code":null,"archived":false,"percentageOfSessions":null}, {"name":"Ágios Konstandínos","state":"Central Greece","territory":"","country":"Greece","latitude":39.0139642,"longitude":21.68345644,"population":16,"stateCapital":false,"nationalCapital":false,"pk":null,"quiz":"europe","code":null,"archived":false,"percentageOfSessions":null}, {"name":"Ágios Konstandínos","state":"Central Greece","territory":"","country":"Greece","latitude":38.4976938,"longitude":22.3912528,"population":59,"stateCapital":false,"nationalCapital":false,"pk":null,"quiz":"europe","code":null,"archived":false,"percentageOfSessions":null}, {"name":"Ágios Lukás","state":"Central Greece","territory":"","country":"Greece","latitude":38.44007216,"longitude":24.02206462,"population":890,"stateCapital":false,"nationalCapital":false,"pk":null,"quiz":"europe","code":null,"archived":false,"percentageOfSessions":null}, {"name":"Ágios Merkúrios","state":"Central Greece","territory":"","country":"Greece","latitude":38.54760641,"longitude":24.18414002,"population":39,"stateCapital":false,"nationalCapital":false,"pk":null,"quiz":"europe","code":null,"archived":false,"percentageOfSessions":null}, {"name":"Ágios Nikólaos","state":"Central Greece","territory":"","country":"Greece","latitude":38.74403849,"longitude":22.95357251,"population":63,"stateCapital":false,"nationalCapital":false,"pk":null,"quiz":"europe","code":null,"archived":false,"percentageOfSessions":null}, {"name":"Ágios Nikólaos","state":"Central Greece","territory":"","country":"Greece","latitude":38.37409122,"longitude":22.67451318,"population":43,"stateCapital":false,"nationalCapital":false,"pk":null,"quiz":"europe","code":null,"archived":false,"percentageOfSessions":null}, {"name":"Ágios Nikólaos","state":"Central Greece","territory":"","country":"Greece","latitude":38.37409122,"longitude":22.67451318,"population":24,"stateCapital":false,"nationalCapital":false,"pk":null,"quiz":"europe","code":null,"archived":false,"percentageOfSessions":null}, {"name":"Ágios Nikólaos","state":"Central Greece","territory":"","country":"Greece","latitude":38.37409122,"longitude":22.67451318,"population":31,"stateCapital":false,"nationalCapital":false,"pk":null,"quiz":"europe","code":null,"archived":false,"percentageOfSessions":null}, {"name":"Ágios Nikólaos","state":"Central Greece","territory":"","country":"Greece","latitude":38.41804191,"longitude":23.64420024,"population":64,"stateCapital":false,"nationalCapital":false,"pk":null,"quiz":"europe","code":null,"archived":false,"percentageOfSessions":null}, {"name":"Ágios Nikólaos","state":"Central Greece","territory":"","country":"Greece","latitude":38.41804191,"longitude":23.64420024,"population":3419,"stateCapital":false,"nationalCapital":false,"pk":null,"quiz":"europe","code":null,"archived":false,"percentageOfSessions":null}, {"name":"Ágios Nikólaos","state":"Central Greece","territory":"","country":"Greece","latitude":38.89255757,"longitude":21.86211426,"population":277,"stateCapital":false,"nationalCapital":false,"pk":null,"quiz":"europe","code":null,"archived":false,"percentageOfSessions":null}, {"name":"Ágios Nikólaos","state":"Central Greece","territory":"","country":"Greece","latitude":38.34664603,"longitude":22.15723946,"population":5,"stateCapital":false,"nationalCapital":false,"pk":null,"quiz":"europe","code":null,"archived":false,"percentageOfSessions":null}, {"name":"Ágios Nikólaos","state":"Central Greece","territory":"","country":"Greece","latitude":38.34664603,"longitude":22.15723946,"population":107,"stateCapital":false,"nationalCapital":false,"pk":null,"quiz":"europe","code":null,"archived":false,"percentageOfSessions":null}, {"name":"Ágios Políkarpos","state":"Central Greece","territory":"","country":"Greece","latitude":38.39261201,"longitude":21.8788506,"population":282,"stateCapital":false,"nationalCapital":false,"pk":null,"quiz":"europe","code":null,"archived":false,"percentageOfSessions":null}, {"name":"Ágios Prokópios","state":"Central Greece","territory":"","country":"Greece","latitude":39.01548344,"longitude":21.55547959,"population":373,"stateCapital":false,"nationalCapital":false,"pk":null,"quiz":"europe","code":null,"archived":false,"percentageOfSessions":null}, {"name":"Ágios Serafím","state":"Central Greece","territory":"","country":"Greece","latitude":38.79864869,"longitude":22.70349056,"population":721,"stateCapital":false,"nationalCapital":false,"pk":null,"quiz":"europe","code":null,"archived":false,"percentageOfSessions":null}, {"name":"Ágios Spirídhon","state":"Central Greece","territory":"","country":"Greece","latitude":38.45893764,"longitude":22.9552837,"population":258,"stateCapital":false,"nationalCapital":false,"pk":null,"quiz":"europe","code":null,"archived":false,"percentageOfSessions":null}, {"name":"Ágios Spirídhon","state":"Central Greece","territory":"","country":"Greece","latitude":38.36520583,"longitude":22.12333653,"population":179,"stateCapital":false,"nationalCapital":false,"pk":null,"quiz":"europe","code":null,"archived":false,"percentageOfSessions":null}, {"name":"Ágios Stéfanos","state":"Central Greece","territory":"","country":"Greece","latitude":39.02132826,"longitude":22.25154462,"population":313,"stateCapital":false,"nationalCapital":false,"pk":null,"quiz":"europe","code":null,"archived":false,"percentageOfSessions":null}, {"name":"Ágios Sóstis","state":"Central Greece","territory":"","country":"Greece","latitude":38.8931015,"longitude":22.16376861,"population":239,"stateCapital":false,"nationalCapital":false,"pk":null,"quiz":"europe","code":null,"archived":false,"percentageOfSessions":null}, {"name":"Ágios Harálambos","state":"Central Greece","territory":"","country":"Greece","latitude":38.76502388,"longitude":22.65583051,"population":38,"stateCapital":false,"nationalCapital":false,"pk":null,"quiz":"europe","code":null,"archived":false,"percentageOfSessions":null}, {"name":"Ágios Harálambos","state":"Central Greece","territory":"","country":"Greece","latitude":38.99089784,"longitude":21.8431772,"population":7,"stateCapital":false,"nationalCapital":false,"pk":null,"quiz":"europe","code":null,"archived":false,"percentageOfSessions":null}, {"name":"Ágios Harálambos","state":"Central Greece","territory":"","country":"Greece","latitude":38.99089784,"longitude":21.8431772,"population":101,"stateCapital":false,"nationalCapital":false,"pk":null,"quiz":"europe","code":null,"archived":false,"percentageOfSessions":null}, {"name":"Anġáli","state":"Central Greece","territory":"","country":"Greece","latitude":38.87338589,"longitude":23.43372193,"population":191,"stateCapital":false,"nationalCapital":false,"pk":null,"quiz":"europe","code":null,"archived":false,"percentageOfSessions":null}, {"name":"Ágnandi","state":"Central Greece","territory":"","country":"Greece","latitude":38.71054461,"longitude":22.87760091,"population":230,"stateCapital":false,"nationalCapital":false,"pk":null,"quiz":"europe","code":null,"archived":false,"percentageOfSessions":null}, {"name":"Agrapidhiá","state":"Central Greece","territory":"","country":"Greece","latitude":39.18962339,"longitude":22.32742629,"population":160,"stateCapital":false,"nationalCapital":false,"pk":null,"quiz":"europe","code":null,"archived":false,"percentageOfSessions":null}, {"name":"Ágrafa","state":"Central Greece","territory":"","country":"Greece","latitude":39.13513595,"longitude":21.64799349,"population":605,"stateCapital":false,"nationalCapital":false,"pk":null,"quiz":"europe","code":null,"archived":false,"percentageOfSessions":null}, {"name":"Agriliá","state":"Central Greece","territory":"","country":"Greece","latitude":38.92981888,"longitude":22.38452174,"population":342,"stateCapital":false,"nationalCapital":false,"pk":null,"quiz":"europe","code":null,"archived":false,"percentageOfSessions":null}, {"name":"Agriovótanon","state":"Central Greece","territory":"","country":"Greece","latitude":39.01985142,"longitude":23.30121805,"population":190,"stateCapital":false,"nationalCapital":false,"pk":null,"quiz":"europe","code":null,"archived":false,"percentageOfSessions":null}, {"name":"Agriosikéa","state":"Central Greece","territory":"","country":"Greece","latitude":38.66435936,"longitude":23.78980194,"population":47,"stateCapital":false,"nationalCapital":false,"pk":null,"quiz":"europe","code":null,"archived":false,"percentageOfSessions":null}, {"name":"Aetós","state":"Central Greece","territory":"","country":"Greece","latitude":38.01047758,"longitude":24.43842551,"population":403,"stateCapital":false,"nationalCapital":false,"pk":null,"quiz":"europe","code":null,"archived":false,"percentageOfSessions":null}, {"name":"Athanásios Dhiákos","state":"Central Greece","territory":"","country":"Greece","latitude":38.69690292,"longitude":22.17742214,"population":556,"stateCapital":false,"nationalCapital":false,"pk":null,"quiz":"europe","code":null,"archived":false,"percentageOfSessions":null}, {"name":"Egítion","state":"Central Greece","territory":"","country":"Greece","latitude":38.48776149,"longitude":22.16787646,"population":3,"stateCapital":false,"nationalCapital":false,"pk":null,"quiz":"europe","code":null,"archived":false,"percentageOfSessions":null}, {"name":"Edhipsós","state":"Central Greece","territory":"","country":"Greece","latitude":38.87597011,"longitude":23.04632066,"population":1220,"stateCapital":false,"nationalCapital":false,"pk":null,"quiz":"europe","code":null,"archived":false,"percentageOfSessions":null}, {"name":"Akóndion","state":"Central Greece","territory":"","country":"Greece","latitude":38.50454137,"longitude":22.88128024,"population":127,"stateCapital":false,"nationalCapital":false,"pk":null,"quiz":"europe","code":null,"archived":false,"percentageOfSessions":null}, {"name":"Ákre","state":"Central Greece","territory":"","country":"Greece","latitude":38.64142004,"longitude":23.58191736,"population":14,"stateCapital":false,"nationalCapital":false,"pk":null,"quiz":"europe","code":null,"archived":false,"percentageOfSessions":null}, {"name":"Akréfnion","state":"Central Greece","territory":"","country":"Greece","latitude":38.45362886,"longitude":23.2190387,"population":1052,"stateCapital":false,"nationalCapital":false,"pk":null,"quiz":"europe","code":null,"archived":false,"percentageOfSessions":null}, {"name":"Akrotíri","state":"Central Greece","territory":"","country":"Greece","latitude":37.98166839,"longitude":24.46985163,"population":6,"stateCapital":false,"nationalCapital":false,"pk":null,"quiz":"europe","code":null,"archived":false,"percentageOfSessions":null}, {"name":"Aktéon","state":"Central Greece","territory":"","country":"Greece","latitude":38.14641903,"longitude":24.35903614,"population":47,"stateCapital":false,"nationalCapital":false,"pk":null,"quiz":"europe","code":null,"archived":false,"percentageOfSessions":null}, {"name":"Aktí","state":"Central Greece","territory":"","country":"Greece","latitude":38.75585386,"longitude":22.92104564,"population":87,"stateCapital":false,"nationalCapital":false,"pk":null,"quiz":"europe","code":null,"archived":false,"percentageOfSessions":null}, {"name":"Aktí Niréos","state":"Central Greece","territory":"","country":"Greece","latitude":38.4035736,"longitude":23.99394799,"population":462,"stateCapital":false,"nationalCapital":false,"pk":null,"quiz":"europe","code":null,"archived":false,"percentageOfSessions":null}, {"name":"Alalkomené","state":"Central Greece","territory":"","country":"Greece","latitude":38.40753716,"longitude":22.98395294,"population":83,"stateCapital":false,"nationalCapital":false,"pk":null,"quiz":"europe","code":null,"archived":false,"percentageOfSessions":null}, {"name":"Alatariés","state":"Central Greece","territory":"","country":"Greece","latitude":38.59164369,"longitude":22.50296075,"population":12,"stateCapital":false,"nationalCapital":false,"pk":null,"quiz":"europe","code":null,"archived":false,"percentageOfSessions":null}, {"name":"Aléksis","state":"Central Greece","territory":"","country":"Greece","latitude":38.08018549,"longitude":24.34178194,"population":44,"stateCapital":false,"nationalCapital":false,"pk":null,"quiz":"europe","code":null,"archived":false,"percentageOfSessions":null}, {"name":"Aléstia","state":"Central Greece","territory":"","country":"Greece","latitude":38.83010197,"longitude":21.58105469,"population":117,"stateCapital":false,"nationalCapital":false,"pk":null,"quiz":"europe","code":null,"archived":false,"percentageOfSessions":null}, {"name":"Alíartos","state":"Central Greece","territory":"","country":"Greece","latitude":38.37903929,"longitude":23.11336879,"population":4270,"stateCapital":false,"nationalCapital":false,"pk":null,"quiz":"europe","code":null,"archived":false,"percentageOfSessions":null}, {"name":"Alivérion","state":"Central Greece","territory":"","country":"Greece","latitude":38.40723952,"longitude":24.03595834,"population":4762,"stateCapital":false,"nationalCapital":false,"pk":null,"quiz":"europe","code":null,"archived":false,"percentageOfSessions":null}, {"name":"Almiropótamos","state":"Central Greece","territory":"","country":"Greece","latitude":38.26853221,"longitude":24.18752584,"population":114,"stateCapital":false,"nationalCapital":false,"pk":null,"quiz":"europe","code":null,"archived":false,"percentageOfSessions":null}, {"name":"Alpohórion","state":"Central Greece","territory":"","country":"Greece","latitude":38.56695518,"longitude":22.02280485,"population":98,"stateCapital":false,"nationalCapital":false,"pk":null,"quiz":"europe","code":null,"archived":false,"percentageOfSessions":null}, {"name":"Alikí","state":"Central Greece","territory":"","country":"Greece","latitude":38.19337776,"longitude":23.05046926,"population":277,"stateCapital":false,"nationalCapital":false,"pk":null,"quiz":"europe","code":null,"archived":false,"percentageOfSessions":null}, {"name":"Alónia","state":"Central Greece","territory":"","country":"Greece","latitude":38.37058837,"longitude":24.17966224,"population":92,"stateCapital":false,"nationalCapital":false,"pk":null,"quiz":"europe","code":null,"archived":false,"percentageOfSessions":null}, {"name":"Amalóta","state":"Central Greece","territory":"","country":"Greece","latitude":38.87620676,"longitude":22.21641122,"population":59,"stateCapital":false,"nationalCapital":false,"pk":null,"quiz":"europe","code":null,"archived":false,"percentageOfSessions":null}, {"name":"Amárinthos","state":"Central Greece","territory":"","country":"Greece","latitude":38.39031322,"longitude":23.88158463,"population":3643,"stateCapital":false,"nationalCapital":false,"pk":null,"quiz":"europe","code":null,"archived":false,"percentageOfSessions":null}, {"name":"Amélande","state":"Central Greece","territory":"","country":"Greece","latitude":38.87108837,"longitude":23.35979574,"population":22,"stateCapital":false,"nationalCapital":false,"pk":null,"quiz":"europe","code":null,"archived":false,"percentageOfSessions":null}, {"name":"Amíriani","state":"Central Greece","territory":"","country":"Greece","latitude":38.95065412,"longitude":21.64142967,"population":12,"stateCapital":false,"nationalCapital":false,"pk":null,"quiz":"europe","code":null,"archived":false,"percentageOfSessions":null}, {"name":"Amúrion","state":"Central Greece","territory":"","country":"Greece","latitude":38.8972934,"longitude":22.33171009,"population":275,"stateCapital":false,"nationalCapital":false,"pk":null,"quiz":"europe","code":null,"archived":false,"percentageOfSessions":null}, {"name":"Ambáres","state":"Central Greece","territory":"","country":"Greece","latitude":38.99976184,"longitude":21.56628558,"population":31,"stateCapital":false,"nationalCapital":false,"pk":null,"quiz":"europe","code":null,"archived":false,"percentageOfSessions":null}, {"name":"Ambélia","state":"Central Greece","territory":"","country":"Greece","latitude":38.83546576,"longitude":21.6264958,"population":181,"stateCapital":false,"nationalCapital":false,"pk":null,"quiz":"europe","code":null,"archived":false,"percentageOfSessions":null}, {"name":"Ambelohórion","state":"Central Greece","territory":"","country":"Greece","latitude":38.29863646,"longitude":23.26434231,"population":319,"stateCapital":false,"nationalCapital":false,"pk":null,"quiz":"europe","code":null,"archived":false,"percentageOfSessions":null}, {"name":"Ámbliani","state":"Central Greece","territory":"","country":"Greece","latitude":38.75394805,"longitude":21.90630672,"population":195,"stateCapital":false,"nationalCapital":false,"pk":null,"quiz":"europe","code":null,"archived":false,"percentageOfSessions":null}, {"name":"Amigdhaléa","state":"Central Greece","territory":"","country":"Greece","latitude":38.11836364,"longitude":24.57284964,"population":81,"stateCapital":false,"nationalCapital":false,"pk":null,"quiz":"europe","code":null,"archived":false,"percentageOfSessions":null}, {"name":"Amigdhaliá","state":"Central Greece","territory":"","country":"Greece","latitude":38.4147773,"longitude":22.22156762,"population":395,"stateCapital":false,"nationalCapital":false,"pk":null,"quiz":"europe","code":null,"archived":false,"percentageOfSessions":null}, {"name":"Amfithéa","state":"Central Greece","territory":"","country":"Greece","latitude":38.5442785,"longitude":23.78293064,"population":259,"stateCapital":false,"nationalCapital":false,"pk":null,"quiz":"europe","code":null,"archived":false,"percentageOfSessions":null}, {"name":"Amfíklia","state":"Central Greece","territory":"","country":"Greece","latitude":38.63444871,"longitude":22.58864956,"population":3154,"stateCapital":false,"nationalCapital":false,"pk":null,"quiz":"europe","code":null,"archived":false,"percentageOfSessions":null}, {"name":"Ámfissa","state":"Central Greece","territory":"","country":"Greece","latitude":38.52675611,"longitude":22.3750843,"population":6855,"stateCapital":false,"nationalCapital":false,"pk":null,"quiz":"europe","code":null,"archived":false,"percentageOfSessions":null}, {"name":"Anávra","state":"Central Greece","territory":"","country":"Greece","latitude":38.77366027,"longitude":22.58439634,"population":119,"stateCapital":false,"nationalCapital":false,"pk":null,"quiz":"europe","code":null,"archived":false,"percentageOfSessions":null}, {"name":"Análipsis","state":"Central Greece","territory":"","country":"Greece","latitude":38.40685945,"longitude":22.83050452,"population":167,"stateCapital":false,"nationalCapital":false,"pk":null,"quiz":"europe","code":null,"archived":false,"percentageOfSessions":null}, {"name":"Anatolí","state":"Central Greece","territory":"","country":"Greece","latitude":38.76792037,"longitude":22.12404238,"population":165,"stateCapital":false,"nationalCapital":false,"pk":null,"quiz":"europe","code":null,"archived":false,"percentageOfSessions":null}, {"name":"Anatolikí Franġísta","state":"Central Greece","territory":"","country":"Greece","latitude":38.95435916,"longitude":21.61417084,"population":427,"stateCapital":false,"nationalCapital":false,"pk":null,"quiz":"europe","code":null,"archived":false,"percentageOfSessions":null}, {"name":"Andhroniáni","state":"Central Greece","territory":"","country":"Greece","latitude":38.61406533,"longitude":24.05654708,"population":388,"stateCapital":false,"nationalCapital":false,"pk":null,"quiz":"europe","code":null,"archived":false,"percentageOfSessions":null}, {"name":"Anifóra","state":"Central Greece","territory":"","country":"Greece","latitude":39.11353091,"longitude":21.58738034,"population":14,"stateCapital":false,"nationalCapital":false,"pk":null,"quiz":"europe","code":null,"archived":false,"percentageOfSessions":null}, {"name":"Anthidhóna","state":"Central Greece","territory":"","country":"Greece","latitude":38.49272895,"longitude":23.46419085,"population":140,"stateCapital":false,"nationalCapital":false,"pk":null,"quiz":"europe","code":null,"archived":false,"percentageOfSessions":null}, {"name":"Anthíli","state":"Central Greece","territory":"","country":"Greece","latitude":38.84745994,"longitude":22.4791727,"population":1665,"stateCapital":false,"nationalCapital":false,"pk":null,"quiz":"europe","code":null,"archived":false,"percentageOfSessions":null}, {"name":"Anthúpoli","state":"Central Greece","territory":"","country":"Greece","latitude":38.3857688,"longitude":24.05248358,"population":76,"stateCapital":false,"nationalCapital":false,"pk":null,"quiz":"europe","code":null,"archived":false,"percentageOfSessions":null}, {"name":"Anthohórion","state":"Central Greece","territory":"","country":"Greece","latitude":38.55051861,"longitude":22.82714364,"population":206,"stateCapital":false,"nationalCapital":false,"pk":null,"quiz":"europe","code":null,"archived":false,"percentageOfSessions":null}, {"name":"Aniádha","state":"Central Greece","territory":"","country":"Greece","latitude":38.81755014,"longitude":21.78764479,"population":76,"stateCapital":false,"nationalCapital":false,"pk":null,"quiz":"europe","code":null,"archived":false,"percentageOfSessions":null}, {"name":"Anígmata","state":"Central Greece","territory":"","country":"Greece","latitude":38.90582542,"longitude":22.11237105,"population":38,"stateCapital":false,"nationalCapital":false,"pk":null,"quiz":"europe","code":null,"archived":false,"percentageOfSessions":null}, {"name":"Andiás","state":"Central Greece","territory":"","country":"Greece","latitude":38.05248247,"longitude":24.53596669,"population":57,"stateCapital":false,"nationalCapital":false,"pk":null,"quiz":"europe","code":null,"archived":false,"percentageOfSessions":null}, {"name":"Andikíra","state":"Central Greece","territory":"","country":"Greece","latitude":38.37545547,"longitude":22.62844213,"population":1505,"stateCapital":false,"nationalCapital":false,"pk":null,"quiz":"europe","code":null,"archived":false,"percentageOfSessions":null}, {"name":"Ánidhron","state":"Central Greece","territory":"","country":"Greece","latitude":38.92106372,"longitude":22.7007395,"population":151,"stateCapital":false,"nationalCapital":false,"pk":null,"quiz":"europe","code":null,"archived":false,"percentageOfSessions":null}, {"name":"Áno Agóriani","state":"Central Greece","territory":"","country":"Greece","latitude":39.11791631,"longitude":22.20691114,"population":115,"stateCapital":false,"nationalCapital":false,"pk":null,"quiz":"europe","code":null,"archived":false,"percentageOfSessions":null}, {"name":"Áno Váthia","state":"Central Greece","territory":"","country":"Greece","latitude":38.40346215,"longitude":23.90957475,"population":365,"stateCapital":false,"nationalCapital":false,"pk":null,"quiz":"europe","code":null,"archived":false,"percentageOfSessions":null}, {"name":"Áno Vardháte","state":"Central Greece","territory":"","country":"Greece","latitude":38.8070525,"longitude":22.41134243,"population":246,"stateCapital":false,"nationalCapital":false,"pk":null,"quiz":"europe","code":null,"archived":false,"percentageOfSessions":null}, {"name":"Áno Dhamásta","state":"Central Greece","territory":"","country":"Greece","latitude":38.79632283,"longitude":22.47721566,"population":148,"stateCapital":false,"nationalCapital":false,"pk":null,"quiz":"europe","code":null,"archived":false,"percentageOfSessions":null}, {"name":"Áno Esohória","state":"Central Greece","territory":"","country":"Greece","latitude":38.74283038,"longitude":21.62252627,"population":83,"stateCapital":false,"nationalCapital":false,"pk":null,"quiz":"europe","code":null,"archived":false,"percentageOfSessions":null}, {"name":"Áno Kalesménon","state":"Central Greece","territory":"","country":"Greece","latitude":38.9087694,"longitude":21.72039154,"population":5,"stateCapital":false,"nationalCapital":false,"pk":null,"quiz":"europe","code":null,"archived":false,"percentageOfSessions":null}, {"name":"Áno Kallithéa","state":"Central Greece","territory":"","country":"Greece","latitude":38.876452,"longitude":22.10523499,"population":50,"stateCapital":false,"nationalCapital":false,"pk":null,"quiz":"europe","code":null,"archived":false,"percentageOfSessions":null}, {"name":"Áno Kalívia","state":"Central Greece","territory":"","country":"Greece","latitude":38.65751043,"longitude":22.56508673,"population":121,"stateCapital":false,"nationalCapital":false,"pk":null,"quiz":"europe","code":null,"archived":false,"percentageOfSessions":null}, {"name":"Áno Kambiá","state":"Central Greece","territory":"","country":"Greece","latitude":38.86701593,"longitude":22.03989648,"population":5,"stateCapital":false,"nationalCapital":false,"pk":null,"quiz":"europe","code":null,"archived":false,"percentageOfSessions":null}, {"name":"Áno Kurúnion","state":"Central Greece","territory":"","country":"Greece","latitude":38.57951992,"longitude":24.07619573,"population":70,"stateCapital":false,"nationalCapital":false,"pk":null,"quiz":"europe","code":null,"archived":false,"percentageOfSessions":null}, {"name":"Áno Brálos","state":"Central Greece","territory":"","country":"Greece","latitude":38.72948564,"longitude":22.45472284,"population":113,"stateCapital":false,"nationalCapital":false,"pk":null,"quiz":"europe","code":null,"archived":false,"percentageOfSessions":null}, {"name":"Áno Polídhrosos","state":"Central Greece","territory":"","country":"Greece","latitude":38.61259731,"longitude":22.55187223,"population":40,"stateCapital":false,"nationalCapital":false,"pk":null,"quiz":"europe","code":null,"archived":false,"percentageOfSessions":null}, {"name":"Áno Potamiá","state":"Central Greece","territory":"","country":"Greece","latitude":38.59557001,"longitude":24.10428478,"population":113,"stateCapital":false,"nationalCapital":false,"pk":null,"quiz":"europe","code":null,"archived":false,"percentageOfSessions":null}, {"name":"Áno Potamiá","state":"Central Greece","territory":"","country":"Greece","latitude":39.10545357,"longitude":21.52158018,"population":45,"stateCapital":false,"nationalCapital":false,"pk":null,"quiz":"europe","code":null,"archived":false,"percentageOfSessions":null}, {"name":"Áno Ftéri","state":"Central Greece","territory":"","country":"Greece","latitude":38.88146803,"longitude":22.05029004,"population":38,"stateCapital":false,"nationalCapital":false,"pk":null,"quiz":"europe","code":null,"archived":false,"percentageOfSessions":null}, {"name":"Apostoliás","state":"Central Greece","territory":"","country":"Greece","latitude":38.71394372,"longitude":22.40408249,"population":55,"stateCapital":false,"nationalCapital":false,"pk":null,"quiz":"europe","code":null,"archived":false,"percentageOfSessions":null}, {"name":"Aráhova","state":"Central Greece","territory":"","country":"Greece","latitude":38.47830111,"longitude":22.58273899,"population":2717,"stateCapital":false,"nationalCapital":false,"pk":null,"quiz":"europe","code":null,"archived":false,"percentageOfSessions":null}, {"name":"Argíria","state":"Central Greece","territory":"","country":"Greece","latitude":38.79358967,"longitude":22.05350255,"population":303,"stateCapital":false,"nationalCapital":false,"pk":null,"quiz":"europe","code":null,"archived":false,"percentageOfSessions":null}, {"name":"Argirón","state":"Central Greece","territory":"","country":"Greece","latitude":38.30547802,"longitude":24.14486422,"population":260,"stateCapital":false,"nationalCapital":false,"pk":null,"quiz":"europe","code":null,"archived":false,"percentageOfSessions":null}, {"name":"Argirohórion","state":"Central Greece","territory":"","country":"Greece","latitude":38.87357407,"longitude":22.25071279,"population":244,"stateCapital":false,"nationalCapital":false,"pk":null,"quiz":"europe","code":null,"archived":false,"percentageOfSessions":null}, {"name":"Arkítsa","state":"Central Greece","territory":"","country":"Greece","latitude":38.74128512,"longitude":23.03061378,"population":864,"stateCapital":false,"nationalCapital":false,"pk":null,"quiz":"europe","code":null,"archived":false,"percentageOfSessions":null}, {"name":"Árma","state":"Central Greece","territory":"","country":"Greece","latitude":38.34916004,"longitude":23.48454522,"population":1059,"stateCapital":false,"nationalCapital":false,"pk":null,"quiz":"europe","code":null,"archived":false,"percentageOfSessions":null}, {"name":"Armámbela","state":"Central Greece","territory":"","country":"Greece","latitude":39.08610501,"longitude":21.5062917,"population":51,"stateCapital":false,"nationalCapital":false,"pk":null,"quiz":"europe","code":null,"archived":false,"percentageOfSessions":null}, {"name":"Artemísion","state":"Central Greece","territory":"","country":"Greece","latitude":39.00640086,"longitude":23.22571568,"population":394,"stateCapital":false,"nationalCapital":false,"pk":null,"quiz":"europe","code":null,"archived":false,"percentageOfSessions":null}, {"name":"Artotína","state":"Central Greece","territory":"","country":"Greece","latitude":38.69767328,"longitude":22.03271756,"population":479,"stateCapital":false,"nationalCapital":false,"pk":null,"quiz":"europe","code":null,"archived":false,"percentageOfSessions":null}, {"name":"Arhánion","state":"Central Greece","territory":"","country":"Greece","latitude":38.96907803,"longitude":22.16481715,"population":362,"stateCapital":false,"nationalCapital":false,"pk":null,"quiz":"europe","code":null,"archived":false,"percentageOfSessions":null}, {"name":"Aroniádha","state":"Central Greece","territory":"","country":"Greece","latitude":38.95199987,"longitude":21.69665904,"population":1,"stateCapital":false,"nationalCapital":false,"pk":null,"quiz":"europe","code":null,"archived":false,"percentageOfSessions":null}, {"name":"Asvéstion","state":"Central Greece","territory":"","country":"Greece","latitude":39.01115638,"longitude":22.12918472,"population":71,"stateCapital":false,"nationalCapital":false,"pk":null,"quiz":"europe","code":null,"archived":false,"percentageOfSessions":null}, {"name":"Áskri","state":"Central Greece","territory":"","country":"Greece","latitude":38.31124266,"longitude":23.10839762,"population":616,"stateCapital":false,"nationalCapital":false,"pk":null,"quiz":"europe","code":null,"archived":false,"percentageOfSessions":null}, {"name":"Asmínion","state":"Central Greece","territory":"","country":"Greece","latitude":39.00015448,"longitude":23.19646491,"population":639,"stateCapital":false,"nationalCapital":false,"pk":null,"quiz":"europe","code":null,"archived":false,"percentageOfSessions":null}, {"name":"Aspús","state":"Central Greece","territory":"","country":"Greece","latitude":38.87493095,"longitude":24.56603277,"population":103,"stateCapital":false,"nationalCapital":false,"pk":null,"quiz":"europe","code":null,"archived":false,"percentageOfSessions":null}, {"name":"Asprókambos","state":"Central Greece","territory":"","country":"Greece","latitude":38.96533797,"longitude":21.95237543,"population":15,"stateCapital":false,"nationalCapital":false,"pk":null,"quiz":"europe","code":null,"archived":false,"percentageOfSessions":null}, {"name":"Aspronéri","state":"Central Greece","territory":"","country":"Greece","latitude":38.77909442,"longitude":22.81286774,"population":32,"stateCapital":false,"nationalCapital":false,"pk":null,"quiz":"europe","code":null,"archived":false,"percentageOfSessions":null}, {"name":"Asprópirgos","state":"Central Greece","territory":"","country":"Greece","latitude":38.78448916,"longitude":21.63619325,"population":200,"stateCapital":false,"nationalCapital":false,"pk":null,"quiz":"europe","code":null,"archived":false,"percentageOfSessions":null}, {"name":"Asprórrevma","state":"Central Greece","territory":"","country":"Greece","latitude":39.19057585,"longitude":21.5577291,"population":14,"stateCapital":false,"nationalCapital":false,"pk":null,"quiz":"europe","code":null,"archived":false,"percentageOfSessions":null}, {"name":"Asopía","state":"Central Greece","territory":"","country":"Greece","latitude":38.29508658,"longitude":23.50073767,"population":879,"stateCapital":false,"nationalCapital":false,"pk":null,"quiz":"europe","code":null,"archived":false,"percentageOfSessions":null}, {"name":"Atalándi","state":"Central Greece","territory":"","country":"Greece","latitude":38.65157025,"longitude":22.99281491,"population":4917,"stateCapital":false,"nationalCapital":false,"pk":null,"quiz":"europe","code":null,"archived":false,"percentageOfSessions":null}, {"name":"Atsítsa","state":"Central Greece","territory":"","country":"Greece","latitude":38.91028309,"longitude":24.4656839,"population":11,"stateCapital":false,"nationalCapital":false,"pk":null,"quiz":"europe","code":null,"archived":false,"percentageOfSessions":null}, {"name":"Áttali","state":"Central Greece","territory":"","country":"Greece","latitude":38.61725233,"longitude":23.73465045,"population":365,"stateCapital":false,"nationalCapital":false,"pk":null,"quiz":"europe","code":null,"archived":false,"percentageOfSessions":null}, {"name":"Avlákion","state":"Central Greece","territory":"","country":"Greece","latitude":38.90636262,"longitude":22.55640777,"population":473,"stateCapital":false,"nationalCapital":false,"pk":null,"quiz":"europe","code":null,"archived":false,"percentageOfSessions":null}, {"name":"Avlonárion","state":"Central Greece","territory":"","country":"Greece","latitude":38.50014695,"longitude":24.12199457,"population":632,"stateCapital":false,"nationalCapital":false,"pk":null,"quiz":"europe","code":null,"archived":false,"percentageOfSessions":null}, {"name":"Afrátion","state":"Central Greece","territory":"","country":"Greece","latitude":38.45035557,"longitude":23.6842046,"population":1359,"stateCapital":false,"nationalCapital":false,"pk":null,"quiz":"europe","code":null,"archived":false,"percentageOfSessions":null}, {"name":"Aherúnes","state":"Central Greece","territory":"","country":"Greece","latitude":38.8482012,"longitude":24.5360396,"population":63,"stateCapital":false,"nationalCapital":false,"pk":null,"quiz":"europe","code":null,"archived":false,"percentageOfSessions":null}, {"name":"Ahílli","state":"Central Greece","territory":"","country":"Greece","latitude":38.86189531,"longitude":24.57243736,"population":53,"stateCapital":false,"nationalCapital":false,"pk":null,"quiz":"europe","code":null,"archived":false,"percentageOfSessions":null}, {"name":"Ahinós","state":"Central Greece","territory":"","country":"Greece","latitude":38.89039545,"longitude":22.72115281,"population":744,"stateCapital":false,"nationalCapital":false,"pk":null,"quiz":"europe","code":null,"archived":false,"percentageOfSessions":null}, {"name":"Ahladhéa","state":"Central Greece","territory":"","country":"Greece","latitude":39.17040816,"longitude":22.40878696,"population":55,"stateCapital":false,"nationalCapital":false,"pk":null,"quiz":"europe","code":null,"archived":false,"percentageOfSessions":null}, {"name":"Ahladherí","state":"Central Greece","territory":"","country":"Greece","latitude":38.47222913,"longitude":24.16883509,"population":155,"stateCapital":false,"nationalCapital":false,"pk":null,"quiz":"europe","code":null,"archived":false,"percentageOfSessions":null}, {"name":"Ahládhion","state":"Central Greece","territory":"","country":"Greece","latitude":38.88562733,"longitude":22.80631338,"population":421,"stateCapital":false,"nationalCapital":false,"pk":null,"quiz":"europe","code":null,"archived":false,"percentageOfSessions":null}, {"name":"Ahládhion","state":"Central Greece","territory":"","country":"Greece","latitude":38.89544477,"longitude":23.39871697,"population":254,"stateCapital":false,"nationalCapital":false,"pk":null,"quiz":"europe","code":null,"archived":false,"percentageOfSessions":null}, {"name":"Vágia","state":"Central Greece","territory":"","country":"Greece","latitude":38.31472065,"longitude":23.17599774,"population":3226,"stateCapital":false,"nationalCapital":false,"pk":null,"quiz":"europe","code":null,"archived":false,"percentageOfSessions":null}, {"name":"Vathí","state":"Central Greece","territory":"","country":"Greece","latitude":38.40441379,"longitude":23.60236155,"population":2342,"stateCapital":false,"nationalCapital":false,"pk":null,"quiz":"europe","code":null,"archived":false,"percentageOfSessions":null}, {"name":"Vathíkilon","state":"Central Greece","territory":"","country":"Greece","latitude":38.94773203,"longitude":22.90989417,"population":210,"stateCapital":false,"nationalCapital":false,"pk":null,"quiz":"europe","code":null,"archived":false,"percentageOfSessions":null}, {"name":"Vathírema","state":"Central Greece","territory":"","country":"Greece","latitude":38.16265636,"longitude":24.31154785,"population":1,"stateCapital":false,"nationalCapital":false,"pk":null,"quiz":"europe","code":null,"archived":false,"percentageOfSessions":null}, {"name":"Valárion","state":"Central Greece","territory":"","country":"Greece","latitude":39.18246455,"longitude":21.64352434,"population":61,"stateCapital":false,"nationalCapital":false,"pk":null,"quiz":"europe","code":null,"archived":false,"percentageOfSessions":null}, {"name":"Valaóra","state":"Central Greece","territory":"","country":"Greece","latitude":39.0365478,"longitude":21.44577542,"population":274,"stateCapital":false,"nationalCapital":false,"pk":null,"quiz":"europe","code":null,"archived":false,"percentageOfSessions":null}, {"name":"Váltos","state":"Central Greece","territory":"","country":"Greece","latitude":38.35172735,"longitude":22.59428522,"population":15,"stateCapital":false,"nationalCapital":false,"pk":null,"quiz":"europe","code":null,"archived":false,"percentageOfSessions":null}, {"name":"Vamvakié","state":"Central Greece","territory":"","country":"Greece","latitude":38.84767565,"longitude":21.63258309,"population":58,"stateCapital":false,"nationalCapital":false,"pk":null,"quiz":"europe","code":null,"archived":false,"percentageOfSessions":null}, {"name":"Varvára","state":"Central Greece","territory":"","country":"Greece","latitude":38.89687799,"longitude":23.04779903,"population":65,"stateCapital":false,"nationalCapital":false,"pk":null,"quiz":"europe","code":null,"archived":false,"percentageOfSessions":null}, {"name":"Várgiani","state":"Central Greece","territory":"","country":"Greece","latitude":38.63948126,"longitude":22.42309714,"population":38,"stateCapital":false,"nationalCapital":false,"pk":null,"quiz":"europe","code":null,"archived":false,"percentageOfSessions":null}, {"name":"Vardhalí","state":"Central Greece","territory":"","country":"Greece","latitude":39.19923739,"longitude":22.3126661,"population":283,"stateCapital":false,"nationalCapital":false,"pk":null,"quiz":"europe","code":null,"archived":false,"percentageOfSessions":null}, {"name":"Varelléi","state":"Central Greece","territory":"","country":"Greece","latitude":38.15111429,"longitude":24.3134236,"population":13,"stateCapital":false,"nationalCapital":false,"pk":null,"quiz":"europe","code":null,"archived":false,"percentageOfSessions":null}, {"name":"Varká","state":"Central Greece","territory":"","country":"Greece","latitude":38.88567999,"longitude":22.26289566,"population":44,"stateCapital":false,"nationalCapital":false,"pk":null,"quiz":"europe","code":null,"archived":false,"percentageOfSessions":null}, {"name":"Varká","state":"Central Greece","territory":"","country":"Greece","latitude":39.11545602,"longitude":21.47840152,"population":18,"stateCapital":false,"nationalCapital":false,"pk":null,"quiz":"europe","code":null,"archived":false,"percentageOfSessions":null}, {"name":"Vasilésion","state":"Central Greece","territory":"","country":"Greece","latitude":39.17566183,"longitude":21.50952776,"population":112,"stateCapital":false,"nationalCapital":false,"pk":null,"quiz":"europe","code":null,"archived":false,"percentageOfSessions":null}, {"name":"Vasiliká","state":"Central Greece","territory":"","country":"Greece","latitude":38.89287151,"longitude":22.21127021,"population":179,"stateCapital":false,"nationalCapital":false,"pk":null,"quiz":"europe","code":null,"archived":false,"percentageOfSessions":null}, {"name":"Vasiliká","state":"Central Greece","territory":"","country":"Greece","latitude":38.56870616,"longitude":22.78243147,"population":36,"stateCapital":false,"nationalCapital":false,"pk":null,"quiz":"europe","code":null,"archived":false,"percentageOfSessions":null}, {"name":"Vasiliká","state":"Central Greece","territory":"","country":"Greece","latitude":38.96434752,"longitude":23.35483391,"population":405,"stateCapital":false,"nationalCapital":false,"pk":null,"quiz":"europe","code":null,"archived":false,"percentageOfSessions":null}, {"name":"Vasilikí","state":"Central Greece","territory":"","country":"Greece","latitude":38.90395924,"longitude":22.59762262,"population":34,"stateCapital":false,"nationalCapital":false,"pk":null,"quiz":"europe","code":null,"archived":false,"percentageOfSessions":null}, {"name":"Vasilikón","state":"Central Greece","territory":"","country":"Greece","latitude":38.42726556,"longitude":23.6672209,"population":6438,"stateCapital":false,"nationalCapital":false,"pk":null,"quiz":"europe","code":null,"archived":false,"percentageOfSessions":null}, {"name":"Vasilína","state":"Central Greece","territory":"","country":"Greece","latitude":38.86729697,"longitude":22.84885725,"population":24,"stateCapital":false,"nationalCapital":false,"pk":null,"quiz":"europe","code":null,"archived":false,"percentageOfSessions":null}, {"name":"Vatísion","state":"Central Greece","territory":"","country":"Greece","latitude":38.0967578,"longitude":24.32581104,"population":33,"stateCapital":false,"nationalCapital":false,"pk":null,"quiz":"europe","code":null,"archived":false,"percentageOfSessions":null}, {"name":"Velesióte","state":"Central Greece","territory":"","country":"Greece","latitude":39.14753375,"longitude":22.24522698,"population":226,"stateCapital":false,"nationalCapital":false,"pk":null,"quiz":"europe","code":null,"archived":false,"percentageOfSessions":null}, {"name":"Vélos","state":"Central Greece","territory":"","country":"Greece","latitude":38.38541584,"longitude":24.08935756,"population":599,"stateCapital":false,"nationalCapital":false,"pk":null,"quiz":"europe","code":null,"archived":false,"percentageOfSessions":null}, {"name":"Velúhi","state":"Central Greece","territory":"","country":"Greece","latitude":38.944853,"longitude":21.80647291,"population":11,"stateCapital":false,"nationalCapital":false,"pk":null,"quiz":"europe","code":null,"archived":false,"percentageOfSessions":null}, {"name":"Velotá","state":"Central Greece","territory":"","country":"Greece","latitude":38.79652664,"longitude":21.62581551,"population":105,"stateCapital":false,"nationalCapital":false,"pk":null,"quiz":"europe","code":null,"archived":false,"percentageOfSessions":null}, {"name":"Vérnikon","state":"Central Greece","territory":"","country":"Greece","latitude":39.04702801,"longitude":21.45097282,"population":34,"stateCapital":false,"nationalCapital":false,"pk":null,"quiz":"europe","code":null,"archived":false,"percentageOfSessions":null}, {"name":"Vígla","state":"Central Greece","territory":"","country":"Greece","latitude":38.90405456,"longitude":23.04122579,"population":1,"stateCapital":false,"nationalCapital":false,"pk":null,"quiz":"europe","code":null,"archived":false,"percentageOfSessions":null}, {"name":"Víniani","state":"Central Greece","territory":"","country":"Greece","latitude":38.98674662,"longitude":21.68509499,"population":3,"stateCapital":false,"nationalCapital":false,"pk":null,"quiz":"europe","code":null,"archived":false,"percentageOfSessions":null}, {"name":"Víniani","state":"Central Greece","territory":"","country":"Greece","latitude":38.5929019,"longitude":22.35665964,"population":85,"stateCapital":false,"nationalCapital":false,"pk":null,"quiz":"europe","code":null,"archived":false,"percentageOfSessions":null}, {"name":"Vítala","state":"Central Greece","territory":"","country":"Greece","latitude":38.62972955,"longitude":24.0568392,"population":474,"stateCapital":false,"nationalCapital":false,"pk":null,"quiz":"europe","code":null,"archived":false,"percentageOfSessions":null}, {"name":"Vítoli","state":"Central Greece","territory":"","country":"Greece","latitude":38.93516139,"longitude":22.03244272,"population":254,"stateCapital":false,"nationalCapital":false,"pk":null,"quiz":"europe","code":null,"archived":false,"percentageOfSessions":null}, {"name":"Vlahiá","state":"Central Greece","territory":"","country":"Greece","latitude":38.74132289,"longitude":23.66389445,"population":138,"stateCapital":false,"nationalCapital":false,"pk":null,"quiz":"europe","code":null,"archived":false,"percentageOfSessions":null}, {"name":"Vláhikos","state":"Central Greece","territory":"","country":"Greece","latitude":38.85506371,"longitude":21.9208413,"population":27,"stateCapital":false,"nationalCapital":false,"pk":null,"quiz":"europe","code":null,"archived":false,"percentageOfSessions":null}, {"name":"Vúzion","state":"Central Greece","territory":"","country":"Greece","latitude":39.13701383,"longitude":22.37666389,"population":128,"stateCapital":false,"nationalCapital":false,"pk":null,"quiz":"europe","code":null,"archived":false,"percentageOfSessions":null}, {"name":"Vúlpi","state":"Central Greece","territory":"","country":"Greece","latitude":39.03960698,"longitude":21.53738366,"population":362,"stateCapital":false,"nationalCapital":false,"pk":null,"quiz":"europe","code":null,"archived":false,"percentageOfSessions":null}, {"name":"Vunihóra","state":"Central Greece","territory":"","country":"Greece","latitude":38.44608785,"longitude":22.30392795,"population":415,"stateCapital":false,"nationalCapital":false,"pk":null,"quiz":"europe","code":null,"archived":false,"percentageOfSessions":null}, {"name":"Vúni","state":"Central Greece","territory":"","country":"Greece","latitude":38.55899542,"longitude":23.80614873,"population":161,"stateCapital":false,"nationalCapital":false,"pk":null,"quiz":"europe","code":null,"archived":false,"percentageOfSessions":null}, {"name":"Vutás","state":"Central Greece","territory":"","country":"Greece","latitude":38.91005877,"longitude":23.21600952,"population":193,"stateCapital":false,"nationalCapital":false,"pk":null,"quiz":"europe","code":null,"archived":false,"percentageOfSessions":null}, {"name":"Vútiron","state":"Central Greece","territory":"","country":"Greece","latitude":38.87849791,"longitude":21.74223151,"population":94,"stateCapital":false,"nationalCapital":false,"pk":null,"quiz":"europe","code":null,"archived":false,"percentageOfSessions":null}, {"name":"Vranġianá","state":"Central Greece","territory":"","country":"Greece","latitude":39.20580562,"longitude":21.64136539,"population":228,"stateCapital":false,"nationalCapital":false,"pk":null,"quiz":"europe","code":null,"archived":false,"percentageOfSessions":null}, {"name":"Vraíla","state":"Central Greece","territory":"","country":"Greece","latitude":38.45731197,"longitude":22.18736187,"population":20,"stateCapital":false,"nationalCapital":false,"pk":null,"quiz":"europe","code":null,"archived":false,"percentageOfSessions":null}, {"name":"Vráha","state":"Central Greece","territory":"","country":"Greece","latitude":39.06381801,"longitude":21.79908078,"population":146,"stateCapital":false,"nationalCapital":false,"pk":null,"quiz":"europe","code":null,"archived":false,"percentageOfSessions":null}, {"name":"Vráhos","state":"Central Greece","territory":"","country":"Greece","latitude":38.10666201,"longitude":24.48815127,"population":5,"stateCapital":false,"nationalCapital":false,"pk":null,"quiz":"europe","code":null,"archived":false,"percentageOfSessions":null}, {"name":"Vrekéika","state":"Central Greece","territory":"","country":"Greece","latitude":38.93786686,"longitude":21.51883143,"population":42,"stateCapital":false,"nationalCapital":false,"pk":null,"quiz":"europe","code":null,"archived":false,"percentageOfSessions":null}, {"name":"Vrísi","state":"Central Greece","territory":"","country":"Greece","latitude":38.54576928,"longitude":24.05144352,"population":240,"stateCapital":false,"nationalCapital":false,"pk":null,"quiz":"europe","code":null,"archived":false,"percentageOfSessions":null}, {"name":"Vrisúla","state":"Central Greece","territory":"","country":"Greece","latitude":38.78769155,"longitude":21.64248381,"population":15,"stateCapital":false,"nationalCapital":false,"pk":null,"quiz":"europe","code":null,"archived":false,"percentageOfSessions":null}, {"name":"Víthisma","state":"Central Greece","territory":"","country":"Greece","latitude":38.79068328,"longitude":21.80294059,"population":38,"stateCapital":false,"nationalCapital":false,"pk":null,"quiz":"europe","code":null,"archived":false,"percentageOfSessions":null}, {"name":"Gavalás","state":"Central Greece","territory":"","country":"Greece","latitude":38.44996713,"longitude":24.08389854,"population":264,"stateCapital":false,"nationalCapital":false,"pk":null,"quiz":"europe","code":null,"archived":false,"percentageOfSessions":null}, {"name":"Gavrákia","state":"Central Greece","territory":"","country":"Greece","latitude":39.15979126,"longitude":22.17317079,"population":215,"stateCapital":false,"nationalCapital":false,"pk":null,"quiz":"europe","code":null,"archived":false,"percentageOfSessions":null}, {"name":"Gávrina","state":"Central Greece","territory":"","country":"Greece","latitude":39.0727054,"longitude":21.6854362,"population":61,"stateCapital":false,"nationalCapital":false,"pk":null,"quiz":"europe","code":null,"archived":false,"percentageOfSessions":null}, {"name":"Gavrolisiádha","state":"Central Greece","territory":"","country":"Greece","latitude":39.12509293,"longitude":21.67853391,"population":33,"stateCapital":false,"nationalCapital":false,"pk":null,"quiz":"europe","code":null,"archived":false,"percentageOfSessions":null}, {"name":"Gávros","state":"Central Greece","territory":"","country":"Greece","latitude":38.82830786,"longitude":21.7371072,"population":35,"stateCapital":false,"nationalCapital":false,"pk":null,"quiz":"europe","code":null,"archived":false,"percentageOfSessions":null}, {"name":"Gáia","state":"Central Greece","territory":"","country":"Greece","latitude":38.53178233,"longitude":24.04078928,"population":50,"stateCapital":false,"nationalCapital":false,"pk":null,"quiz":"europe","code":null,"archived":false,"percentageOfSessions":null}, {"name":"Galázia Nerá","state":"Central Greece","territory":"","country":"Greece","latitude":38.38420264,"longitude":23.91240564,"population":164,"stateCapital":false,"nationalCapital":false,"pk":null,"quiz":"europe","code":null,"archived":false,"percentageOfSessions":null}, {"name":"Galaksídhion","state":"Central Greece","territory":"","country":"Greece","latitude":38.37400921,"longitude":22.38167082,"population":2149,"stateCapital":false,"nationalCapital":false,"pk":null,"quiz":"europe","code":null,"archived":false,"percentageOfSessions":null}, {"name":"Galatsádhes","state":"Central Greece","territory":"","country":"Greece","latitude":38.88926868,"longitude":23.16933431,"population":58,"stateCapital":false,"nationalCapital":false,"pk":null,"quiz":"europe","code":null,"archived":false,"percentageOfSessions":null}, {"name":"Galatsóna","state":"Central Greece","territory":"","country":"Greece","latitude":38.96149095,"longitude":23.22258096,"population":65,"stateCapital":false,"nationalCapital":false,"pk":null,"quiz":"europe","code":null,"archived":false,"percentageOfSessions":null}, {"name":"Gardhíkion","state":"Central Greece","territory":"","country":"Greece","latitude":38.83204437,"longitude":21.97142141,"population":353,"stateCapital":false,"nationalCapital":false,"pk":null,"quiz":"europe","code":null,"archived":false,"percentageOfSessions":null}, {"name":"Genimákia","state":"Central Greece","territory":"","country":"Greece","latitude":38.37563099,"longitude":22.5054574,"population":38,"stateCapital":false,"nationalCapital":false,"pk":null,"quiz":"europe","code":null,"archived":false,"percentageOfSessions":null}, {"name":"Gerakiú","state":"Central Greece","territory":"","country":"Greece","latitude":38.97765564,"longitude":23.23364101,"population":135,"stateCapital":false,"nationalCapital":false,"pk":null,"quiz":"europe","code":null,"archived":false,"percentageOfSessions":null}, {"name":"Geraklíon","state":"Central Greece","territory":"","country":"Greece","latitude":39.14479679,"longitude":22.36747683,"population":25,"stateCapital":false,"nationalCapital":false,"pk":null,"quiz":"europe","code":null,"archived":false,"percentageOfSessions":null}, {"name":"Gérondas","state":"Central Greece","territory":"","country":"Greece","latitude":38.44900124,"longitude":23.81580976,"population":4,"stateCapital":false,"nationalCapital":false,"pk":null,"quiz":"europe","code":null,"archived":false,"percentageOfSessions":null}, {"name":"Giáltra","state":"Central Greece","territory":"","country":"Greece","latitude":38.86133879,"longitude":22.9742063,"population":530,"stateCapital":false,"nationalCapital":false,"pk":null,"quiz":"europe","code":null,"archived":false,"percentageOfSessions":null}, {"name":"Giánnidhes","state":"Central Greece","territory":"","country":"Greece","latitude":38.58148267,"longitude":24.05731478,"population":116,"stateCapital":false,"nationalCapital":false,"pk":null,"quiz":"europe","code":null,"archived":false,"percentageOfSessions":null}, {"name":"Giannítsion","state":"Central Greece","territory":"","country":"Greece","latitude":38.14108183,"longitude":24.39299979,"population":58,"stateCapital":false,"nationalCapital":false,"pk":null,"quiz":"europe","code":null,"archived":false,"percentageOfSessions":null}, {"name":"Giannitsú","state":"Central Greece","territory":"","country":"Greece","latitude":38.99215343,"longitude":22.11002289,"population":363,"stateCapital":false,"nationalCapital":false,"pk":null,"quiz":"europe","code":null,"archived":false,"percentageOfSessions":null}, {"name":"Glífa","state":"Central Greece","territory":"","country":"Greece","latitude":38.95101115,"longitude":22.9653364,"population":640,"stateCapital":false,"nationalCapital":false,"pk":null,"quiz":"europe","code":null,"archived":false,"percentageOfSessions":null}, {"name":"Glifádha","state":"Central Greece","territory":"","country":"Greece","latitude":38.66191677,"longitude":23.81938482,"population":223,"stateCapital":false,"nationalCapital":false,"pk":null,"quiz":"europe","code":null,"archived":false,"percentageOfSessions":null}, {"name":"Glifádha","state":"Central Greece","territory":"","country":"Greece","latitude":38.37831902,"longitude":22.07422218,"population":596,"stateCapital":false,"nationalCapital":false,"pk":null,"quiz":"europe","code":null,"archived":false,"percentageOfSessions":null}, {"name":"Gorgopótamos","state":"Central Greece","territory":"","country":"Greece","latitude":38.83015599,"longitude":22.39327725,"population":417,"stateCapital":false,"nationalCapital":false,"pk":null,"quiz":"europe","code":null,"archived":false,"percentageOfSessions":null}, {"name":"Gorianádhes","state":"Central Greece","territory":"","country":"Greece","latitude":38.90501695,"longitude":21.76870844,"population":142,"stateCapital":false,"nationalCapital":false,"pk":null,"quiz":"europe","code":null,"archived":false,"percentageOfSessions":null}, {"name":"Gúve","state":"Central Greece","territory":"","country":"Greece","latitude":39.00008945,"longitude":23.24327818,"population":434,"stateCapital":false,"nationalCapital":false,"pk":null,"quiz":"europe","code":null,"archived":false,"percentageOfSessions":null}, {"name":"Guléika","state":"Central Greece","territory":"","country":"Greece","latitude":38.96297432,"longitude":21.5653974,"population":41,"stateCapital":false,"nationalCapital":false,"pk":null,"quiz":"europe","code":null,"archived":false,"percentageOfSessions":null}, {"name":"Gulémion","state":"Central Greece","territory":"","country":"Greece","latitude":38.70653014,"longitude":22.93443351,"population":130,"stateCapital":false,"nationalCapital":false,"pk":null,"quiz":"europe","code":null,"archived":false,"percentageOfSessions":null}, {"name":"Graviá","state":"Central Greece","territory":"","country":"Greece","latitude":38.66745347,"longitude":22.42897703,"population":592,"stateCapital":false,"nationalCapital":false,"pk":null,"quiz":"europe","code":null,"archived":false,"percentageOfSessions":null}, {"name":"Grammatikiáni","state":"Central Greece","territory":"","country":"Greece","latitude":38.62012577,"longitude":24.08194437,"population":34,"stateCapital":false,"nationalCapital":false,"pk":null,"quiz":"europe","code":null,"archived":false,"percentageOfSessions":null}, {"name":"Gramméni","state":"Central Greece","territory":"","country":"Greece","latitude":38.96129053,"longitude":22.19327387,"population":333,"stateCapital":false,"nationalCapital":false,"pk":null,"quiz":"europe","code":null,"archived":false,"percentageOfSessions":null}, {"name":"Grambiá","state":"Central Greece","territory":"","country":"Greece","latitude":38.03108086,"longitude":24.4259972,"population":175,"stateCapital":false,"nationalCapital":false,"pk":null,"quiz":"europe","code":null,"archived":false,"percentageOfSessions":null}, {"name":"Granás","state":"Central Greece","territory":"","country":"Greece","latitude":38.72410157,"longitude":21.73619464,"population":40,"stateCapital":false,"nationalCapital":false,"pk":null,"quiz":"europe","code":null,"archived":false,"percentageOfSessions":null}, {"name":"Granítsa","state":"Central Greece","territory":"","country":"Greece","latitude":39.09818658,"longitude":21.50944514,"population":562,"stateCapital":false,"nationalCapital":false,"pk":null,"quiz":"europe","code":null,"archived":false,"percentageOfSessions":null}, {"name":"Gregolímano","state":"Central Greece","territory":"","country":"Greece","latitude":38.83208156,"longitude":22.93533967,"population":474,"stateCapital":false,"nationalCapital":false,"pk":null,"quiz":"europe","code":null,"archived":false,"percentageOfSessions":null}, {"name":"Grigorítika","state":"Central Greece","territory":"","country":"Greece","latitude":38.42244547,"longitude":21.90719884,"population":66,"stateCapital":false,"nationalCapital":false,"pk":null,"quiz":"europe","code":null,"archived":false,"percentageOfSessions":null}, {"name":"Gimnón","state":"Central Greece","territory":"","country":"Greece","latitude":38.43614151,"longitude":23.88034497,"population":2006,"stateCapital":false,"nationalCapital":false,"pk":null,"quiz":"europe","code":null,"archived":false,"percentageOfSessions":null}, {"name":"Girísmata","state":"Central Greece","territory":"","country":"Greece","latitude":38.46694116,"longitude":23.67591813,"population":11,"stateCapital":false,"nationalCapital":false,"pk":null,"quiz":"europe","code":null,"archived":false,"percentageOfSessions":null}, {"name":"Dhamiá","state":"Central Greece","territory":"","country":"Greece","latitude":38.81589485,"longitude":23.26816881,"population":65,"stateCapital":false,"nationalCapital":false,"pk":null,"quiz":"europe","code":null,"archived":false,"percentageOfSessions":null}, {"name":"Dhávlia","state":"Central Greece","territory":"","country":"Greece","latitude":38.51315787,"longitude":22.72996479,"population":1235,"stateCapital":false,"nationalCapital":false,"pk":null,"quiz":"europe","code":null,"archived":false,"percentageOfSessions":null}, {"name":"Dháfni","state":"Central Greece","territory":"","country":"Greece","latitude":38.75066827,"longitude":22.1553664,"population":103,"stateCapital":false,"nationalCapital":false,"pk":null,"quiz":"europe","code":null,"archived":false,"percentageOfSessions":null}, {"name":"Dháfni","state":"Central Greece","territory":"","country":"Greece","latitude":38.23882947,"longitude":23.41662217,"population":99,"stateCapital":false,"nationalCapital":false,"pk":null,"quiz":"europe","code":null,"archived":false,"percentageOfSessions":null}, {"name":"Dháfni","state":"Central Greece","territory":"","country":"Greece","latitude":38.46472623,"longitude":24.1137637,"population":27,"stateCapital":false,"nationalCapital":false,"pk":null,"quiz":"europe","code":null,"archived":false,"percentageOfSessions":null}, {"name":"Dháfni","state":"Central Greece","territory":"","country":"Greece","latitude":38.46472623,"longitude":24.1137637,"population":235,"stateCapital":false,"nationalCapital":false,"pk":null,"quiz":"europe","code":null,"archived":false,"percentageOfSessions":null}, {"name":"Dháfni","state":"Central Greece","territory":"","country":"Greece","latitude":38.46472623,"longitude":24.1137637,"population":192,"stateCapital":false,"nationalCapital":false,"pk":null,"quiz":"europe","code":null,"archived":false,"percentageOfSessions":null}, {"name":"Dháfni","state":"Central Greece","territory":"","country":"Greece","latitude":39.03182583,"longitude":21.72427074,"population":423,"stateCapital":false,"nationalCapital":false,"pk":null,"quiz":"europe","code":null,"archived":false,"percentageOfSessions":null}, {"name":"Dháfnos","state":"Central Greece","territory":"","country":"Greece","latitude":38.63651828,"longitude":22.09711704,"population":170,"stateCapital":false,"nationalCapital":false,"pk":null,"quiz":"europe","code":null,"archived":false,"percentageOfSessions":null}, {"name":"Dhafnúla","state":"Central Greece","territory":"","country":"Greece","latitude":39.13104579,"longitude":21.42222572,"population":262,"stateCapital":false,"nationalCapital":false,"pk":null,"quiz":"europe","code":null,"archived":false,"percentageOfSessions":null}, {"name":"Dhafnússa","state":"Central Greece","territory":"","country":"Greece","latitude":38.71661137,"longitude":23.45426175,"population":57,"stateCapital":false,"nationalCapital":false,"pk":null,"quiz":"europe","code":null,"archived":false,"percentageOfSessions":null}, {"name":"Dhafnohórion","state":"Central Greece","territory":"","country":"Greece","latitude":38.4137538,"longitude":22.09791793,"population":15,"stateCapital":false,"nationalCapital":false,"pk":null,"quiz":"europe","code":null,"archived":false,"percentageOfSessions":null}, {"name":"Dhelfínon","state":"Central Greece","territory":"","country":"Greece","latitude":38.78753698,"longitude":22.41350815,"population":58,"stateCapital":false,"nationalCapital":false,"pk":null,"quiz":"europe","code":null,"archived":false,"percentageOfSessions":null}, {"name":"Dhelfí","state":"Central Greece","territory":"","country":"Greece","latitude":38.47750539,"longitude":22.49255204,"population":1468,"stateCapital":false,"nationalCapital":false,"pk":null,"quiz":"europe","code":null,"archived":false,"percentageOfSessions":null}, {"name":"Dhéndhra","state":"Central Greece","territory":"","country":"Greece","latitude":38.62032598,"longitude":24.05359727,"population":56,"stateCapital":false,"nationalCapital":false,"pk":null,"quiz":"europe","code":null,"archived":false,"percentageOfSessions":null}, {"name":"Dhéndhros","state":"Central Greece","territory":"","country":"Greece","latitude":39.19452644,"longitude":21.62124855,"population":6,"stateCapital":false,"nationalCapital":false,"pk":null,"quiz":"europe","code":null,"archived":false,"percentageOfSessions":null}, {"name":"Dhermátion","state":"Central Greece","territory":"","country":"Greece","latitude":38.79169919,"longitude":21.68447553,"population":55,"stateCapital":false,"nationalCapital":false,"pk":null,"quiz":"europe","code":null,"archived":false,"percentageOfSessions":null}, {"name":"Dhesfína","state":"Central Greece","territory":"","country":"Greece","latitude":38.41487006,"longitude":22.52751676,"population":1847,"stateCapital":false,"nationalCapital":false,"pk":null,"quiz":"europe","code":null,"archived":false,"percentageOfSessions":null}, {"name":"Dhílesi","state":"Central Greece","territory":"","country":"Greece","latitude":38.33931849,"longitude":23.67130551,"population":1968,"stateCapital":false,"nationalCapital":false,"pk":null,"quiz":"europe","code":null,"archived":false,"percentageOfSessions":null}, {"name":"Dhíliso","state":"Central Greece","territory":"","country":"Greece","latitude":38.20903537,"longitude":24.18723447,"population":43,"stateCapital":false,"nationalCapital":false,"pk":null,"quiz":"europe","code":null,"archived":false,"percentageOfSessions":null}, {"name":"Dhiakópion","state":"Central Greece","territory":"","country":"Greece","latitude":38.59352796,"longitude":22.11992442,"population":304,"stateCapital":false,"nationalCapital":false,"pk":null,"quiz":"europe","code":null,"archived":false,"percentageOfSessions":null}, {"name":"Dhiáselo","state":"Central Greece","territory":"","country":"Greece","latitude":39.18394324,"longitude":21.44743578,"population":101,"stateCapital":false,"nationalCapital":false,"pk":null,"quiz":"europe","code":null,"archived":false,"percentageOfSessions":null}, {"name":"Dhiastávrosi","state":"Central Greece","territory":"","country":"Greece","latitude":38.06588755,"longitude":24.33411441,"population":30,"stateCapital":false,"nationalCapital":false,"pk":null,"quiz":"europe","code":null,"archived":false,"percentageOfSessions":null}, {"name":"Dhívri","state":"Central Greece","territory":"","country":"Greece","latitude":38.97291285,"longitude":22.45094545,"population":261,"stateCapital":false,"nationalCapital":false,"pk":null,"quiz":"europe","code":null,"archived":false,"percentageOfSessions":null}, {"name":"Dhíkastron","state":"Central Greece","territory":"","country":"Greece","latitude":38.98931709,"longitude":21.94081473,"population":290,"stateCapital":false,"nationalCapital":false,"pk":null,"quiz":"europe","code":null,"archived":false,"percentageOfSessions":null}, {"name":"Dhílofon","state":"Central Greece","territory":"","country":"Greece","latitude":38.85822697,"longitude":22.12658177,"population":66,"stateCapital":false,"nationalCapital":false,"pk":null,"quiz":"europe","code":null,"archived":false,"percentageOfSessions":null}, {"name":"Dhiónisos","state":"Central Greece","territory":"","country":"Greece","latitude":38.51146543,"longitude":22.94914107,"population":563,"stateCapital":false,"nationalCapital":false,"pk":null,"quiz":"europe","code":null,"archived":false,"percentageOfSessions":null}, {"name":"Dhirrévmata","state":"Central Greece","territory":"","country":"Greece","latitude":38.56011122,"longitude":24.05794803,"population":151,"stateCapital":false,"nationalCapital":false,"pk":null,"quiz":"europe","code":null,"archived":false,"percentageOfSessions":null}, {"name":"Dhístomon","state":"Central Greece","territory":"","country":"Greece","latitude":38.42678618,"longitude":22.66398847,"population":1581,"stateCapital":false,"nationalCapital":false,"pk":null,"quiz":"europe","code":null,"archived":false,"percentageOfSessions":null}, {"name":"Dhihórion","state":"Central Greece","territory":"","country":"Greece","latitude":38.65033822,"longitude":22.06677548,"population":203,"stateCapital":false,"nationalCapital":false,"pk":null,"quiz":"europe","code":null,"archived":false,"percentageOfSessions":null}, {"name":"Dhomvréna","state":"Central Greece","territory":"","country":"Greece","latitude":38.25081292,"longitude":22.98113852,"population":674,"stateCapital":false,"nationalCapital":false,"pk":null,"quiz":"europe","code":null,"archived":false,"percentageOfSessions":null}, {"name":"Dhomianí","state":"Central Greece","territory":"","country":"Greece","latitude":39.01317163,"longitude":21.76906341,"population":187,"stateCapital":false,"nationalCapital":false,"pk":null,"quiz":"europe","code":null,"archived":false,"percentageOfSessions":null}, {"name":"Dhomnísta","state":"Central Greece","territory":"","country":"Greece","latitude":38.75371921,"longitude":21.84613074,"population":400,"stateCapital":false,"nationalCapital":false,"pk":null,"quiz":"europe","code":null,"archived":false,"percentageOfSessions":null}, {"name":"Dhomokós","state":"Central Greece","territory":"","country":"Greece","latitude":39.12664634,"longitude":22.29468452,"population":2144,"stateCapital":false,"nationalCapital":false,"pk":null,"quiz":"europe","code":null,"archived":false,"percentageOfSessions":null}, {"name":"Dhrépano","state":"Central Greece","territory":"","country":"Greece","latitude":38.86838947,"longitude":22.75488675,"population":5,"stateCapital":false,"nationalCapital":false,"pk":null,"quiz":"europe","code":null,"archived":false,"percentageOfSessions":null}, {"name":"Dhrosáton","state":"Central Greece","territory":"","country":"Greece","latitude":38.4358384,"longitude":21.94357393,"population":47,"stateCapital":false,"nationalCapital":false,"pk":null,"quiz":"europe","code":null,"archived":false,"percentageOfSessions":null}, {"name":"Dhroséla","state":"Central Greece","territory":"","country":"Greece","latitude":39.13012524,"longitude":21.61440247,"population":68,"stateCapital":false,"nationalCapital":false,"pk":null,"quiz":"europe","code":null,"archived":false,"percentageOfSessions":null}, {"name":"Dhrosiá","state":"Central Greece","territory":"","country":"Greece","latitude":38.87192464,"longitude":22.7331278,"population":9,"stateCapital":false,"nationalCapital":false,"pk":null,"quiz":"europe","code":null,"archived":false,"percentageOfSessions":null}, {"name":"Dhrosiá","state":"Central Greece","territory":"","country":"Greece","latitude":38.41477188,"longitude":24.1339094,"population":9,"stateCapital":false,"nationalCapital":false,"pk":null,"quiz":"europe","code":null,"archived":false,"percentageOfSessions":null}, {"name":"Dhrosiá","state":"Central Greece","territory":"","country":"Greece","latitude":38.41477188,"longitude":24.1339094,"population":205,"stateCapital":false,"nationalCapital":false,"pk":null,"quiz":"europe","code":null,"archived":false,"percentageOfSessions":null}, {"name":"Dhrosiá","state":"Central Greece","territory":"","country":"Greece","latitude":38.41477188,"longitude":24.1339094,"population":4997,"stateCapital":false,"nationalCapital":false,"pk":null,"quiz":"europe","code":null,"archived":false,"percentageOfSessions":null}, {"name":"Dhrosopigí","state":"Central Greece","territory":"","country":"Greece","latitude":38.76061311,"longitude":21.5625909,"population":252,"stateCapital":false,"nationalCapital":false,"pk":null,"quiz":"europe","code":null,"archived":false,"percentageOfSessions":null}, {"name":"Dhrosohórion","state":"Central Greece","territory":"","country":"Greece","latitude":38.58699695,"longitude":22.42147091,"population":44,"stateCapital":false,"nationalCapital":false,"pk":null,"quiz":"europe","code":null,"archived":false,"percentageOfSessions":null}, {"name":"Dhriméa","state":"Central Greece","territory":"","country":"Greece","latitude":38.70574889,"longitude":22.55735229,"population":289,"stateCapital":false,"nationalCapital":false,"pk":null,"quiz":"europe","code":null,"archived":false,"percentageOfSessions":null}, {"name":"Dhrimária","state":"Central Greece","territory":"","country":"Greece","latitude":38.96512514,"longitude":22.99327627,"population":4,"stateCapital":false,"nationalCapital":false,"pk":null,"quiz":"europe","code":null,"archived":false,"percentageOfSessions":null}, {"name":"Dhrimóna","state":"Central Greece","territory":"","country":"Greece","latitude":38.84665126,"longitude":23.28739744,"population":62,"stateCapital":false,"nationalCapital":false,"pk":null,"quiz":"europe","code":null,"archived":false,"percentageOfSessions":null}, {"name":"Dhío Vuná","state":"Central Greece","territory":"","country":"Greece","latitude":38.80101614,"longitude":22.38333213,"population":81,"stateCapital":false,"nationalCapital":false,"pk":null,"quiz":"europe","code":null,"archived":false,"percentageOfSessions":null}, {"name":"Dhístos","state":"Central Greece","territory":"","country":"Greece","latitude":38.3716757,"longitude":24.12357974,"population":582,"stateCapital":false,"nationalCapital":false,"pk":null,"quiz":"europe","code":null,"archived":false,"percentageOfSessions":null}, {"name":"Dhitikí Franġísta","state":"Central Greece","territory":"","country":"Greece","latitude":38.9540361,"longitude":21.60343829,"population":448,"stateCapital":false,"nationalCapital":false,"pk":null,"quiz":"europe","code":null,"archived":false,"percentageOfSessions":null}, {"name":"Dhitikón Papparúsion","state":"Central Greece","territory":"","country":"Greece","latitude":38.91686183,"longitude":21.67084885,"population":30,"stateCapital":false,"nationalCapital":false,"pk":null,"quiz":"europe","code":null,"archived":false,"percentageOfSessions":null}, {"name":"Dhorikón","state":"Central Greece","territory":"","country":"Greece","latitude":38.50984947,"longitude":22.15729806,"population":24,"stateCapital":false,"nationalCapital":false,"pk":null,"quiz":"europe","code":null,"archived":false,"percentageOfSessions":null}, {"name":"Ekáli","state":"Central Greece","territory":"","country":"Greece","latitude":38.12470455,"longitude":24.36033573,"population":4,"stateCapital":false,"nationalCapital":false,"pk":null,"quiz":"europe","code":null,"archived":false,"percentageOfSessions":null}, {"name":"Ekkára","state":"Central Greece","territory":"","country":"Greece","latitude":39.15214335,"longitude":22.19595613,"population":573,"stateCapital":false,"nationalCapital":false,"pk":null,"quiz":"europe","code":null,"archived":false,"percentageOfSessions":null}, {"name":"Eléa","state":"Central Greece","territory":"","country":"Greece","latitude":38.51496213,"longitude":24.14007736,"population":18,"stateCapital":false,"nationalCapital":false,"pk":null,"quiz":"europe","code":null,"archived":false,"percentageOfSessions":null}, {"name":"Eléa","state":"Central Greece","territory":"","country":"Greece","latitude":38.38175049,"longitude":22.10862545,"population":120,"stateCapital":false,"nationalCapital":false,"pk":null,"quiz":"europe","code":null,"archived":false,"percentageOfSessions":null}, {"name":"Eleohórion","state":"Central Greece","territory":"","country":"Greece","latitude":38.21522623,"longitude":24.24639109,"population":17,"stateCapital":false,"nationalCapital":false,"pk":null,"quiz":"europe","code":null,"archived":false,"percentageOfSessions":null}, {"name":"Eleón","state":"Central Greece","territory":"","country":"Greece","latitude":38.02362491,"longitude":24.53809664,"population":14,"stateCapital":false,"nationalCapital":false,"pk":null,"quiz":"europe","code":null,"archived":false,"percentageOfSessions":null}, {"name":"Eleón","state":"Central Greece","territory":"","country":"Greece","latitude":38.54542482,"longitude":22.41923062,"population":338,"stateCapital":false,"nationalCapital":false,"pk":null,"quiz":"europe","code":null,"archived":false,"percentageOfSessions":null}, {"name":"Elátia","state":"Central Greece","territory":"","country":"Greece","latitude":38.62495851,"longitude":22.76316613,"population":2297,"stateCapital":false,"nationalCapital":false,"pk":null,"quiz":"europe","code":null,"archived":false,"percentageOfSessions":null}, {"name":"Élatos","state":"Central Greece","territory":"","country":"Greece","latitude":39.2368235,"longitude":21.68676532,"population":44,"stateCapital":false,"nationalCapital":false,"pk":null,"quiz":"europe","code":null,"archived":false,"percentageOfSessions":null}, {"name":"Elafolímano","state":"Central Greece","territory":"","country":"Greece","latitude":38.09425216,"longitude":24.24224478,"population":22,"stateCapital":false,"nationalCapital":false,"pk":null,"quiz":"europe","code":null,"archived":false,"percentageOfSessions":null}, {"name":"Eleftherohórion","state":"Central Greece","territory":"","country":"Greece","latitude":38.76151954,"longitude":22.45430625,"population":125,"stateCapital":false,"nationalCapital":false,"pk":null,"quiz":"europe","code":null,"archived":false,"percentageOfSessions":null}, {"name":"Eleón","state":"Central Greece","territory":"","country":"Greece","latitude":38.36110398,"longitude":23.4423843,"population":964,"stateCapital":false,"nationalCapital":false,"pk":null,"quiz":"europe","code":null,"archived":false,"percentageOfSessions":null}, {"name":"Elikón","state":"Central Greece","territory":"","country":"Greece","latitude":38.3629902,"longitude":22.8380538,"population":36,"stateCapital":false,"nationalCapital":false,"pk":null,"quiz":"europe","code":null,"archived":false,"percentageOfSessions":null}, {"name":"Elliniká","state":"Central Greece","territory":"","country":"Greece","latitude":39.00056166,"longitude":23.32862461,"population":311,"stateCapital":false,"nationalCapital":false,"pk":null,"quiz":"europe","code":null,"archived":false,"percentageOfSessions":null}, {"name":"Ellopía","state":"Central Greece","territory":"","country":"Greece","latitude":38.25817745,"longitude":23.11273683,"population":408,"stateCapital":false,"nationalCapital":false,"pk":null,"quiz":"europe","code":null,"archived":false,"percentageOfSessions":null}, {"name":"Enoría","state":"Central Greece","territory":"","country":"Greece","latitude":38.61437465,"longitude":24.10730783,"population":262,"stateCapital":false,"nationalCapital":false,"pk":null,"quiz":"europe","code":null,"archived":false,"percentageOfSessions":null}, {"name":"Éksarhos","state":"Central Greece","territory":"","country":"Greece","latitude":38.58696298,"longitude":22.94321489,"population":695,"stateCapital":false,"nationalCapital":false,"pk":null,"quiz":"europe","code":null,"archived":false,"percentageOfSessions":null}, {"name":"Epanohórion","state":"Central Greece","territory":"","country":"Greece","latitude":38.02803922,"longitude":24.50182822,"population":16,"stateCapital":false,"nationalCapital":false,"pk":null,"quiz":"europe","code":null,"archived":false,"percentageOfSessions":null}, {"name":"Epinianá","state":"Central Greece","territory":"","country":"Greece","latitude":39.13907799,"longitude":21.61249589,"population":328,"stateCapital":false,"nationalCapital":false,"pk":null,"quiz":"europe","code":null,"archived":false,"percentageOfSessions":null}, {"name":"Episkopí","state":"Central Greece","territory":"","country":"Greece","latitude":38.54967094,"longitude":24.0428798,"population":88,"stateCapital":false,"nationalCapital":false,"pk":null,"quiz":"europe","code":null,"archived":false,"percentageOfSessions":null}, {"name":"Episkopí","state":"Central Greece","territory":"","country":"Greece","latitude":38.88330311,"longitude":21.60188468,"population":52,"stateCapital":false,"nationalCapital":false,"pk":null,"quiz":"europe","code":null,"archived":false,"percentageOfSessions":null}, {"name":"Eptálofos","state":"Central Greece","territory":"","country":"Greece","latitude":38.59397819,"longitude":22.49314201,"population":605,"stateCapital":false,"nationalCapital":false,"pk":null,"quiz":"europe","code":null,"archived":false,"percentageOfSessions":null}, {"name":"Eratiní","state":"Central Greece","territory":"","country":"Greece","latitude":38.35800803,"longitude":22.22965701,"population":830,"stateCapital":false,"nationalCapital":false,"pk":null,"quiz":"europe","code":null,"archived":false,"percentageOfSessions":null}, {"name":"Erétria","state":"Central Greece","territory":"","country":"Greece","latitude":38.38981752,"longitude":23.79159037,"population":4304,"stateCapital":false,"nationalCapital":false,"pk":null,"quiz":"europe","code":null,"archived":false,"percentageOfSessions":null}, {"name":"Esohória","state":"Central Greece","territory":"","country":"Greece","latitude":38.76378494,"longitude":21.61722102,"population":108,"stateCapital":false,"nationalCapital":false,"pk":null,"quiz":"europe","code":null,"archived":false,"percentageOfSessions":null}, {"name":"Evanġelismós","state":"Central Greece","territory":"","country":"Greece","latitude":38.07678722,"longitude":24.56897083,"population":46,"stateCapital":false,"nationalCapital":false,"pk":null,"quiz":"europe","code":null,"archived":false,"percentageOfSessions":null}, {"name":"Evanġelístria","state":"Central Greece","territory":"","country":"Greece","latitude":38.33844158,"longitude":23.02051946,"population":189,"stateCapital":false,"nationalCapital":false,"pk":null,"quiz":"europe","code":null,"archived":false,"percentageOfSessions":null}, {"name":"Efkáliptos","state":"Central Greece","territory":"","country":"Greece","latitude":38.62422533,"longitude":23.07170618,"population":16,"stateCapital":false,"nationalCapital":false,"pk":null,"quiz":"europe","code":null,"archived":false,"percentageOfSessions":null}, {"name":"Efpálion","state":"Central Greece","territory":"","country":"Greece","latitude":38.41639345,"longitude":21.92482822,"population":772,"stateCapital":false,"nationalCapital":false,"pk":null,"quiz":"europe","code":null,"archived":false,"percentageOfSessions":null}, {"name":"Zakéika","state":"Central Greece","territory":"","country":"Greece","latitude":38.84050533,"longitude":22.39534036,"population":136,"stateCapital":false,"nationalCapital":false,"pk":null,"quiz":"europe","code":null,"archived":false,"percentageOfSessions":null}, {"name":"Zambiós","state":"Central Greece","territory":"","country":"Greece","latitude":38.57715374,"longitude":22.48860967,"population":17,"stateCapital":false,"nationalCapital":false,"pk":null,"quiz":"europe","code":null,"archived":false,"percentageOfSessions":null}, {"name":"Zárakes","state":"Central Greece","territory":"","country":"Greece","latitude":38.30225323,"longitude":24.19042031,"population":638,"stateCapital":false,"nationalCapital":false,"pk":null,"quiz":"europe","code":null,"archived":false,"percentageOfSessions":null}, {"name":"Zarmbutéϊka","state":"Central Greece","territory":"","country":"Greece","latitude":38.0169887,"longitude":24.38132954,"population":9,"stateCapital":false,"nationalCapital":false,"pk":null,"quiz":"europe","code":null,"archived":false,"percentageOfSessions":null}, {"name":"Zahariá","state":"Central Greece","territory":"","country":"Greece","latitude":38.10547707,"longitude":24.5564572,"population":5,"stateCapital":false,"nationalCapital":false,"pk":null,"quiz":"europe","code":null,"archived":false,"percentageOfSessions":null}, {"name":"Zélion","state":"Central Greece","territory":"","country":"Greece","latitude":38.65733955,"longitude":22.87328373,"population":687,"stateCapital":false,"nationalCapital":false,"pk":null,"quiz":"europe","code":null,"archived":false,"percentageOfSessions":null}, {"name":"Zelítsa","state":"Central Greece","territory":"","country":"Greece","latitude":38.2684611,"longitude":22.79728226,"population":27,"stateCapital":false,"nationalCapital":false,"pk":null,"quiz":"europe","code":null,"archived":false,"percentageOfSessions":null}, {"name":"Zemenó Arahóvis","state":"Central Greece","territory":"","country":"Greece","latitude":38.47598048,"longitude":22.60227022,"population":31,"stateCapital":false,"nationalCapital":false,"pk":null,"quiz":"europe","code":null,"archived":false,"percentageOfSessions":null},