{"cities":[{"name":"Avdhaníte","state":"Crete","territory":"","country":"Greece","latitude":35.33679862,"longitude":24.75161266,"population":46,"stateCapital":false,"nationalCapital":false,"pk":null,"quiz":"europe","code":null,"archived":false,"percentageOfSessions":null}, {"name":"Avdhellás","state":"Crete","territory":"","country":"Greece","latitude":35.32126833,"longitude":24.74611448,"population":128,"stateCapital":false,"nationalCapital":false,"pk":null,"quiz":"europe","code":null,"archived":false,"percentageOfSessions":null}, {"name":"Avdhú","state":"Crete","territory":"","country":"Greece","latitude":35.23015819,"longitude":25.42973466,"population":371,"stateCapital":false,"nationalCapital":false,"pk":null,"quiz":"europe","code":null,"archived":false,"percentageOfSessions":null}, {"name":"Avrakóndes","state":"Crete","territory":"","country":"Greece","latitude":35.15873043,"longitude":25.47752845,"population":166,"stateCapital":false,"nationalCapital":false,"pk":null,"quiz":"europe","code":null,"archived":false,"percentageOfSessions":null}, {"name":"Agalianós","state":"Crete","territory":"","country":"Greece","latitude":35.15591324,"longitude":24.52688811,"population":19,"stateCapital":false,"nationalCapital":false,"pk":null,"quiz":"europe","code":null,"archived":false,"percentageOfSessions":null}, {"name":"Anġelianá","state":"Crete","territory":"","country":"Greece","latitude":35.38056098,"longitude":24.67645425,"population":583,"stateCapital":false,"nationalCapital":false,"pk":null,"quiz":"europe","code":null,"archived":false,"percentageOfSessions":null}, {"name":"Agiá","state":"Crete","territory":"","country":"Greece","latitude":35.36322319,"longitude":24.7653891,"population":223,"stateCapital":false,"nationalCapital":false,"pk":null,"quiz":"europe","code":null,"archived":false,"percentageOfSessions":null}, {"name":"Agiá","state":"Crete","territory":"","country":"Greece","latitude":35.47065416,"longitude":23.92973306,"population":428,"stateCapital":false,"nationalCapital":false,"pk":null,"quiz":"europe","code":null,"archived":false,"percentageOfSessions":null}, {"name":"Agía Ánna","state":"Crete","territory":"","country":"Greece","latitude":35.01673198,"longitude":25.178876,"population":7,"stateCapital":false,"nationalCapital":false,"pk":null,"quiz":"europe","code":null,"archived":false,"percentageOfSessions":null}, {"name":"Agía Varvára","state":"Crete","territory":"","country":"Greece","latitude":35.13034275,"longitude":24.99463832,"population":2013,"stateCapital":false,"nationalCapital":false,"pk":null,"quiz":"europe","code":null,"archived":false,"percentageOfSessions":null}, {"name":"Agía Varvára","state":"Crete","territory":"","country":"Greece","latitude":35.29635042,"longitude":25.5033151,"population":100,"stateCapital":false,"nationalCapital":false,"pk":null,"quiz":"europe","code":null,"archived":false,"percentageOfSessions":null}, {"name":"Agía Galíni","state":"Crete","territory":"","country":"Greece","latitude":35.09326932,"longitude":24.68523706,"population":957,"stateCapital":false,"nationalCapital":false,"pk":null,"quiz":"europe","code":null,"archived":false,"percentageOfSessions":null}, {"name":"Agía Iríni","state":"Crete","territory":"","country":"Greece","latitude":35.28140637,"longitude":25.16189429,"population":93,"stateCapital":false,"nationalCapital":false,"pk":null,"quiz":"europe","code":null,"archived":false,"percentageOfSessions":null}, {"name":"Agía Iríni","state":"Crete","territory":"","country":"Greece","latitude":35.28140637,"longitude":25.16189429,"population":16,"stateCapital":false,"nationalCapital":false,"pk":null,"quiz":"europe","code":null,"archived":false,"percentageOfSessions":null}, {"name":"Agía Iríni","state":"Crete","territory":"","country":"Greece","latitude":35.33853762,"longitude":24.4881512,"population":70,"stateCapital":false,"nationalCapital":false,"pk":null,"quiz":"europe","code":null,"archived":false,"percentageOfSessions":null}, {"name":"Agía Iríni","state":"Crete","territory":"","country":"Greece","latitude":35.33800488,"longitude":23.83168209,"population":80,"stateCapital":false,"nationalCapital":false,"pk":null,"quiz":"europe","code":null,"archived":false,"percentageOfSessions":null}, {"name":"Agía Zóni","state":"Crete","territory":"","country":"Greece","latitude":35.5508653,"longitude":24.1289097,"population":27,"stateCapital":false,"nationalCapital":false,"pk":null,"quiz":"europe","code":null,"archived":false,"percentageOfSessions":null}, {"name":"Agía Kiriakí","state":"Crete","territory":"","country":"Greece","latitude":35.23407695,"longitude":23.59517535,"population":229,"stateCapital":false,"nationalCapital":false,"pk":null,"quiz":"europe","code":null,"archived":false,"percentageOfSessions":null}, {"name":"Agía Marína","state":"Crete","territory":"","country":"Greece","latitude":35.51385689,"longitude":23.93699225,"population":5156,"stateCapital":false,"nationalCapital":false,"pk":null,"quiz":"europe","code":null,"archived":false,"percentageOfSessions":null}, {"name":"Agía Moní","state":"Crete","territory":"","country":"Greece","latitude":35.02918132,"longitude":25.4053264,"population":10,"stateCapital":false,"nationalCapital":false,"pk":null,"quiz":"europe","code":null,"archived":false,"percentageOfSessions":null}, {"name":"Agía Paraskeví (Péra Tsútsuros)","state":"Crete","territory":"","country":"Greece","latitude":34.97754353,"longitude":25.27495631,"population":26,"stateCapital":false,"nationalCapital":false,"pk":null,"quiz":"europe","code":null,"archived":false,"percentageOfSessions":null}, {"name":"Agía Paraskeví","state":"Crete","territory":"","country":"Greece","latitude":34.97754353,"longitude":25.27495631,"population":32,"stateCapital":false,"nationalCapital":false,"pk":null,"quiz":"europe","code":null,"archived":false,"percentageOfSessions":null}, {"name":"Agía Paraskeví","state":"Crete","territory":"","country":"Greece","latitude":34.97754353,"longitude":25.27495631,"population":45,"stateCapital":false,"nationalCapital":false,"pk":null,"quiz":"europe","code":null,"archived":false,"percentageOfSessions":null}, {"name":"Agía Paraskeví","state":"Crete","territory":"","country":"Greece","latitude":35.27878978,"longitude":25.7209798,"population":23,"stateCapital":false,"nationalCapital":false,"pk":null,"quiz":"europe","code":null,"archived":false,"percentageOfSessions":null}, {"name":"Agía Paraskeví","state":"Crete","territory":"","country":"Greece","latitude":35.15299545,"longitude":24.71225319,"population":22,"stateCapital":false,"nationalCapital":false,"pk":null,"quiz":"europe","code":null,"archived":false,"percentageOfSessions":null}, {"name":"Agía Paraskeví","state":"Crete","territory":"","country":"Greece","latitude":35.15299545,"longitude":24.71225319,"population":124,"stateCapital":false,"nationalCapital":false,"pk":null,"quiz":"europe","code":null,"archived":false,"percentageOfSessions":null}, {"name":"Agía Paraskeví","state":"Crete","territory":"","country":"Greece","latitude":35.15299545,"longitude":24.71225319,"population":249,"stateCapital":false,"nationalCapital":false,"pk":null,"quiz":"europe","code":null,"archived":false,"percentageOfSessions":null}, {"name":"Agía Pelagía","state":"Crete","territory":"","country":"Greece","latitude":35.40492507,"longitude":25.01526658,"population":719,"stateCapital":false,"nationalCapital":false,"pk":null,"quiz":"europe","code":null,"archived":false,"percentageOfSessions":null}, {"name":"Agía Pelagía","state":"Crete","territory":"","country":"Greece","latitude":35.40492507,"longitude":25.01526658,"population":106,"stateCapital":false,"nationalCapital":false,"pk":null,"quiz":"europe","code":null,"archived":false,"percentageOfSessions":null}, {"name":"Agía Pelagía","state":"Crete","territory":"","country":"Greece","latitude":35.23842399,"longitude":25.67965413,"population":9,"stateCapital":false,"nationalCapital":false,"pk":null,"quiz":"europe","code":null,"archived":false,"percentageOfSessions":null}, {"name":"Agía Pelagía","state":"Crete","territory":"","country":"Greece","latitude":35.21392369,"longitude":24.49458338,"population":89,"stateCapital":false,"nationalCapital":false,"pk":null,"quiz":"europe","code":null,"archived":false,"percentageOfSessions":null}, {"name":"Agía Ruméli","state":"Crete","territory":"","country":"Greece","latitude":35.22693353,"longitude":23.95936312,"population":57,"stateCapital":false,"nationalCapital":false,"pk":null,"quiz":"europe","code":null,"archived":false,"percentageOfSessions":null}, {"name":"Agía Semní","state":"Crete","territory":"","country":"Greece","latitude":35.12330805,"longitude":25.24287242,"population":8,"stateCapital":false,"nationalCapital":false,"pk":null,"quiz":"europe","code":null,"archived":false,"percentageOfSessions":null}, {"name":"Agía Triás","state":"Crete","territory":"","country":"Greece","latitude":35.03694234,"longitude":26.1334302,"population":77,"stateCapital":false,"nationalCapital":false,"pk":null,"quiz":"europe","code":null,"archived":false,"percentageOfSessions":null}, {"name":"Agía Triás","state":"Crete","territory":"","country":"Greece","latitude":35.3397794,"longitude":24.56962933,"population":61,"stateCapital":false,"nationalCapital":false,"pk":null,"quiz":"europe","code":null,"archived":false,"percentageOfSessions":null}, {"name":"Agía Triás","state":"Crete","territory":"","country":"Greece","latitude":35.2484353,"longitude":23.66016928,"population":10,"stateCapital":false,"nationalCapital":false,"pk":null,"quiz":"europe","code":null,"archived":false,"percentageOfSessions":null}, {"name":"Agía Fotiní","state":"Crete","territory":"","country":"Greece","latitude":35.25212929,"longitude":24.63266463,"population":5,"stateCapital":false,"nationalCapital":false,"pk":null,"quiz":"europe","code":null,"archived":false,"percentageOfSessions":null}, {"name":"Agía Fotiní","state":"Crete","territory":"","country":"Greece","latitude":35.25212929,"longitude":24.63266463,"population":90,"stateCapital":false,"nationalCapital":false,"pk":null,"quiz":"europe","code":null,"archived":false,"percentageOfSessions":null}, {"name":"Agía Fotiá","state":"Crete","territory":"","country":"Greece","latitude":35.01403927,"longitude":25.10587574,"population":29,"stateCapital":false,"nationalCapital":false,"pk":null,"quiz":"europe","code":null,"archived":false,"percentageOfSessions":null}, {"name":"Agía Fotiá","state":"Crete","territory":"","country":"Greece","latitude":35.18949692,"longitude":26.14944485,"population":25,"stateCapital":false,"nationalCapital":false,"pk":null,"quiz":"europe","code":null,"archived":false,"percentageOfSessions":null}, {"name":"Agía Fotiá","state":"Crete","territory":"","country":"Greece","latitude":35.18949692,"longitude":26.14944485,"population":265,"stateCapital":false,"nationalCapital":false,"pk":null,"quiz":"europe","code":null,"archived":false,"percentageOfSessions":null}, {"name":"Ágie Paraskié","state":"Crete","territory":"","country":"Greece","latitude":35.20757302,"longitude":25.20309004,"population":800,"stateCapital":false,"nationalCapital":false,"pk":null,"quiz":"europe","code":null,"archived":false,"percentageOfSessions":null}, {"name":"Agiasménos","state":"Crete","territory":"","country":"Greece","latitude":35.01454146,"longitude":25.74186586,"population":19,"stateCapital":false,"nationalCapital":false,"pk":null,"quiz":"europe","code":null,"archived":false,"percentageOfSessions":null}, {"name":"Ágii Apóstoli","state":"Crete","territory":"","country":"Greece","latitude":35.32082003,"longitude":23.74598069,"population":20,"stateCapital":false,"nationalCapital":false,"pk":null,"quiz":"europe","code":null,"archived":false,"percentageOfSessions":null}, {"name":"Ágii Dhéka","state":"Crete","territory":"","country":"Greece","latitude":35.0560962,"longitude":24.95817145,"population":786,"stateCapital":false,"nationalCapital":false,"pk":null,"quiz":"europe","code":null,"archived":false,"percentageOfSessions":null}, {"name":"Ágii Theódhori","state":"Crete","territory":"","country":"Greece","latitude":35.31787717,"longitude":25.09094508,"population":789,"stateCapital":false,"nationalCapital":false,"pk":null,"quiz":"europe","code":null,"archived":false,"percentageOfSessions":null}, {"name":"Ágii Theódhori","state":"Crete","territory":"","country":"Greece","latitude":35.26985467,"longitude":23.61826189,"population":8,"stateCapital":false,"nationalCapital":false,"pk":null,"quiz":"europe","code":null,"archived":false,"percentageOfSessions":null}, {"name":"Ágii Pándes","state":"Crete","territory":"","country":"Greece","latitude":35.39851173,"longitude":24.14871566,"population":110,"stateCapital":false,"nationalCapital":false,"pk":null,"quiz":"europe","code":null,"archived":false,"percentageOfSessions":null}, {"name":"Ágion Pnévma","state":"Crete","territory":"","country":"Greece","latitude":35.17466456,"longitude":25.9035647,"population":54,"stateCapital":false,"nationalCapital":false,"pk":null,"quiz":"europe","code":null,"archived":false,"percentageOfSessions":null}, {"name":"Ágios Andhréas","state":"Crete","territory":"","country":"Greece","latitude":35.17413859,"longitude":25.91582226,"population":74,"stateCapital":false,"nationalCapital":false,"pk":null,"quiz":"europe","code":null,"archived":false,"percentageOfSessions":null}, {"name":"Ágios Andhréas","state":"Crete","territory":"","country":"Greece","latitude":35.3132743,"longitude":24.41397521,"population":204,"stateCapital":false,"nationalCapital":false,"pk":null,"quiz":"europe","code":null,"archived":false,"percentageOfSessions":null}, {"name":"Ágios Andónios","state":"Crete","territory":"","country":"Greece","latitude":35.06832701,"longitude":24.88349619,"population":17,"stateCapital":false,"nationalCapital":false,"pk":null,"quiz":"europe","code":null,"archived":false,"percentageOfSessions":null}, {"name":"Ágios Andónios","state":"Crete","territory":"","country":"Greece","latitude":35.31414773,"longitude":25.60551671,"population":8,"stateCapital":false,"nationalCapital":false,"pk":null,"quiz":"europe","code":null,"archived":false,"percentageOfSessions":null}, {"name":"Ágios Andónios","state":"Crete","territory":"","country":"Greece","latitude":35.48841795,"longitude":23.66408582,"population":292,"stateCapital":false,"nationalCapital":false,"pk":null,"quiz":"europe","code":null,"archived":false,"percentageOfSessions":null}, {"name":"Ágios Andónios","state":"Crete","territory":"","country":"Greece","latitude":35.48841795,"longitude":23.66408582,"population":52,"stateCapital":false,"nationalCapital":false,"pk":null,"quiz":"europe","code":null,"archived":false,"percentageOfSessions":null}, {"name":"Ágios Vasílios","state":"Crete","territory":"","country":"Greece","latitude":35.03138207,"longitude":25.45732268,"population":394,"stateCapital":false,"nationalCapital":false,"pk":null,"quiz":"europe","code":null,"archived":false,"percentageOfSessions":null}, {"name":"Ágios Vasílios","state":"Crete","territory":"","country":"Greece","latitude":35.03138207,"longitude":25.45732268,"population":178,"stateCapital":false,"nationalCapital":false,"pk":null,"quiz":"europe","code":null,"archived":false,"percentageOfSessions":null}, {"name":"Ágios Vasílios","state":"Crete","territory":"","country":"Greece","latitude":35.24144582,"longitude":24.45085444,"population":130,"stateCapital":false,"nationalCapital":false,"pk":null,"quiz":"europe","code":null,"archived":false,"percentageOfSessions":null}, {"name":"Ágios Vlásios","state":"Crete","territory":"","country":"Greece","latitude":35.25284793,"longitude":25.13071174,"population":382,"stateCapital":false,"nationalCapital":false,"pk":null,"quiz":"europe","code":null,"archived":false,"percentageOfSessions":null}, {"name":"Ágios Georgios","state":"Crete","territory":"","country":"Greece","latitude":35.29313978,"longitude":25.31868698,"population":22,"stateCapital":false,"nationalCapital":false,"pk":null,"quiz":"europe","code":null,"archived":false,"percentageOfSessions":null}, {"name":"Ágios Geórgios","state":"Crete","territory":"","country":"Greece","latitude":35.12142883,"longitude":26.06202309,"population":11,"stateCapital":false,"nationalCapital":false,"pk":null,"quiz":"europe","code":null,"archived":false,"percentageOfSessions":null}, {"name":"Ágios Geórgios","state":"Crete","territory":"","country":"Greece","latitude":35.12142883,"longitude":26.06202309,"population":23,"stateCapital":false,"nationalCapital":false,"pk":null,"quiz":"europe","code":null,"archived":false,"percentageOfSessions":null}, {"name":"Ágios Geórgios","state":"Crete","territory":"","country":"Greece","latitude":35.12142883,"longitude":26.06202309,"population":480,"stateCapital":false,"nationalCapital":false,"pk":null,"quiz":"europe","code":null,"archived":false,"percentageOfSessions":null}, {"name":"Ágios Geórgios","state":"Crete","territory":"","country":"Greece","latitude":35.12142883,"longitude":26.06202309,"population":4,"stateCapital":false,"nationalCapital":false,"pk":null,"quiz":"europe","code":null,"archived":false,"percentageOfSessions":null}, {"name":"Ágios Geórgios","state":"Crete","territory":"","country":"Greece","latitude":35.12142883,"longitude":26.06202309,"population":70,"stateCapital":false,"nationalCapital":false,"pk":null,"quiz":"europe","code":null,"archived":false,"percentageOfSessions":null}, {"name":"Ágios Geórgios","state":"Crete","territory":"","country":"Greece","latitude":35.29338382,"longitude":24.45557722,"population":15,"stateCapital":false,"nationalCapital":false,"pk":null,"quiz":"europe","code":null,"archived":false,"percentageOfSessions":null}, {"name":"Ágios Geórgios","state":"Crete","territory":"","country":"Greece","latitude":35.29338382,"longitude":24.45557722,"population":48,"stateCapital":false,"nationalCapital":false,"pk":null,"quiz":"europe","code":null,"archived":false,"percentageOfSessions":null}, {"name":"Ágios Geórgios","state":"Crete","territory":"","country":"Greece","latitude":35.29338382,"longitude":24.45557722,"population":87,"stateCapital":false,"nationalCapital":false,"pk":null,"quiz":"europe","code":null,"archived":false,"percentageOfSessions":null}, {"name":"Ágios Geórgios","state":"Crete","territory":"","country":"Greece","latitude":35.49475858,"longitude":23.61039857,"population":110,"stateCapital":false,"nationalCapital":false,"pk":null,"quiz":"europe","code":null,"archived":false,"percentageOfSessions":null}, {"name":"Ágios Geórgios","state":"Crete","territory":"","country":"Greece","latitude":35.49475858,"longitude":23.61039857,"population":14,"stateCapital":false,"nationalCapital":false,"pk":null,"quiz":"europe","code":null,"archived":false,"percentageOfSessions":null}, {"name":"Ágios Geórgios o Methistís","state":"Crete","territory":"","country":"Greece","latitude":35.29784676,"longitude":25.04806205,"population":119,"stateCapital":false,"nationalCapital":false,"pk":null,"quiz":"europe","code":null,"archived":false,"percentageOfSessions":null}, {"name":"Ágios Dhimítrios","state":"Crete","territory":"","country":"Greece","latitude":35.00415369,"longitude":25.48450571,"population":4,"stateCapital":false,"nationalCapital":false,"pk":null,"quiz":"europe","code":null,"archived":false,"percentageOfSessions":null}, {"name":"Ágios Dhimítrios","state":"Crete","territory":"","country":"Greece","latitude":35.00415369,"longitude":25.48450571,"population":51,"stateCapital":false,"nationalCapital":false,"pk":null,"quiz":"europe","code":null,"archived":false,"percentageOfSessions":null}, {"name":"Ágios Dhimítrios","state":"Crete","territory":"","country":"Greece","latitude":35.35071171,"longitude":24.57265228,"population":182,"stateCapital":false,"nationalCapital":false,"pk":null,"quiz":"europe","code":null,"archived":false,"percentageOfSessions":null}, {"name":"Ágios Thomás","state":"Crete","territory":"","country":"Greece","latitude":35.14550014,"longitude":25.03391877,"population":662,"stateCapital":false,"nationalCapital":false,"pk":null,"quiz":"europe","code":null,"archived":false,"percentageOfSessions":null}, {"name":"Ágios Ioánnis","state":"Crete","territory":"","country":"Greece","latitude":34.98561063,"longitude":25.33258204,"population":34,"stateCapital":false,"nationalCapital":false,"pk":null,"quiz":"europe","code":null,"archived":false,"percentageOfSessions":null}, {"name":"Ágios Ioánnis","state":"Crete","territory":"","country":"Greece","latitude":34.98561063,"longitude":25.33258204,"population":75,"stateCapital":false,"nationalCapital":false,"pk":null,"quiz":"europe","code":null,"archived":false,"percentageOfSessions":null}, {"name":"Ágios Ioánnis","state":"Crete","territory":"","country":"Greece","latitude":34.98561063,"longitude":25.33258204,"population":95,"stateCapital":false,"nationalCapital":false,"pk":null,"quiz":"europe","code":null,"archived":false,"percentageOfSessions":null}, {"name":"Ágios Ioánnis","state":"Crete","territory":"","country":"Greece","latitude":34.98561063,"longitude":25.33258204,"population":60,"stateCapital":false,"nationalCapital":false,"pk":null,"quiz":"europe","code":null,"archived":false,"percentageOfSessions":null}, {"name":"Ágios Ioánnis","state":"Crete","territory":"","country":"Greece","latitude":34.98561063,"longitude":25.33258204,"population":72,"stateCapital":false,"nationalCapital":false,"pk":null,"quiz":"europe","code":null,"archived":false,"percentageOfSessions":null}, {"name":"Ágios Ioánnis","state":"Crete","territory":"","country":"Greece","latitude":34.98561063,"longitude":25.33258204,"population":234,"stateCapital":false,"nationalCapital":false,"pk":null,"quiz":"europe","code":null,"archived":false,"percentageOfSessions":null}, {"name":"Ágios Ioánnis","state":"Crete","territory":"","country":"Greece","latitude":35.05141108,"longitude":25.84798397,"population":4,"stateCapital":false,"nationalCapital":false,"pk":null,"quiz":"europe","code":null,"archived":false,"percentageOfSessions":null}, {"name":"Ágios Ioánnis","state":"Crete","territory":"","country":"Greece","latitude":35.05141108,"longitude":25.84798397,"population":8,"stateCapital":false,"nationalCapital":false,"pk":null,"quiz":"europe","code":null,"archived":false,"percentageOfSessions":null}, {"name":"Ágios Ioánnis","state":"Crete","territory":"","country":"Greece","latitude":35.16961122,"longitude":24.70698227,"population":71,"stateCapital":false,"nationalCapital":false,"pk":null,"quiz":"europe","code":null,"archived":false,"percentageOfSessions":null}, {"name":"Ágios Ioánnis","state":"Crete","territory":"","country":"Greece","latitude":35.16961122,"longitude":24.70698227,"population":92,"stateCapital":false,"nationalCapital":false,"pk":null,"quiz":"europe","code":null,"archived":false,"percentageOfSessions":null}, {"name":"Ágios Ioánnis","state":"Crete","territory":"","country":"Greece","latitude":35.16961122,"longitude":24.70698227,"population":74,"stateCapital":false,"nationalCapital":false,"pk":null,"quiz":"europe","code":null,"archived":false,"percentageOfSessions":null}, {"name":"Ágios Ioánnis","state":"Crete","territory":"","country":"Greece","latitude":35.22808816,"longitude":24.01861028,"population":24,"stateCapital":false,"nationalCapital":false,"pk":null,"quiz":"europe","code":null,"archived":false,"percentageOfSessions":null}, {"name":"Ágios Kírillos","state":"Crete","territory":"","country":"Greece","latitude":34.97625829,"longitude":24.9103111,"population":123,"stateCapital":false,"nationalCapital":false,"pk":null,"quiz":"europe","code":null,"archived":false,"percentageOfSessions":null}, {"name":"Ágios Konstandínos","state":"Crete","territory":"","country":"Greece","latitude":35.17220657,"longitude":25.50129221,"population":3,"stateCapital":false,"nationalCapital":false,"pk":null,"quiz":"europe","code":null,"archived":false,"percentageOfSessions":null}, {"name":"Ágios Konstandínos","state":"Crete","territory":"","country":"Greece","latitude":35.17220657,"longitude":25.50129221,"population":96,"stateCapital":false,"nationalCapital":false,"pk":null,"quiz":"europe","code":null,"archived":false,"percentageOfSessions":null}, {"name":"Ágios Konstandínos","state":"Crete","territory":"","country":"Greece","latitude":35.29574135,"longitude":24.36587866,"population":152,"stateCapital":false,"nationalCapital":false,"pk":null,"quiz":"europe","code":null,"archived":false,"percentageOfSessions":null}, {"name":"Ágios Mámas","state":"Crete","territory":"","country":"Greece","latitude":35.32124463,"longitude":24.7594626,"population":213,"stateCapital":false,"nationalCapital":false,"pk":null,"quiz":"europe","code":null,"archived":false,"percentageOfSessions":null}, {"name":"Ágios Márkos","state":"Crete","territory":"","country":"Greece","latitude":34.92708671,"longitude":24.79778576,"population":28,"stateCapital":false,"nationalCapital":false,"pk":null,"quiz":"europe","code":null,"archived":false,"percentageOfSessions":null}, {"name":"Ágios Míron","state":"Crete","territory":"","country":"Greece","latitude":35.22957674,"longitude":25.02686457,"population":604,"stateCapital":false,"nationalCapital":false,"pk":null,"quiz":"europe","code":null,"archived":false,"percentageOfSessions":null}, {"name":"Ágios Nektários","state":"Crete","territory":"","country":"Greece","latitude":35.20160355,"longitude":24.21370738,"population":55,"stateCapital":false,"nationalCapital":false,"pk":null,"quiz":"europe","code":null,"archived":false,"percentageOfSessions":null}, {"name":"Ágios Nikítas","state":"Crete","territory":"","country":"Greece","latitude":34.98197779,"longitude":25.28390758,"population":4,"stateCapital":false,"nationalCapital":false,"pk":null,"quiz":"europe","code":null,"archived":false,"percentageOfSessions":null}, {"name":"Ágios Nikólaos","state":"Crete","territory":"","country":"Greece","latitude":35.00852377,"longitude":25.41163064,"population":2,"stateCapital":false,"nationalCapital":false,"pk":null,"quiz":"europe","code":null,"archived":false,"percentageOfSessions":null}, {"name":"Ágios Nikólaos","state":"Crete","territory":"","country":"Greece","latitude":35.18728629,"longitude":25.71554224,"population":11458,"stateCapital":false,"nationalCapital":false,"pk":null,"quiz":"europe","code":null,"archived":false,"percentageOfSessions":null}, {"name":"Ágios Nikólaos","state":"Crete","territory":"","country":"Greece","latitude":35.37320312,"longitude":24.6132873,"population":135,"stateCapital":false,"nationalCapital":false,"pk":null,"quiz":"europe","code":null,"archived":false,"percentageOfSessions":null}, {"name":"Ágios Pandeleímon (Maridháki)","state":"Crete","territory":"","country":"Greece","latitude":34.98320604,"longitude":25.28111732,"population":9,"stateCapital":false,"nationalCapital":false,"pk":null,"quiz":"europe","code":null,"archived":false,"percentageOfSessions":null}, {"name":"Ágios Pandeleímon","state":"Crete","territory":"","country":"Greece","latitude":35.08272757,"longitude":26.09150097,"population":116,"stateCapital":false,"nationalCapital":false,"pk":null,"quiz":"europe","code":null,"archived":false,"percentageOfSessions":null}, {"name":"Ágios Pávlos","state":"Crete","territory":"","country":"Greece","latitude":35.10023431,"longitude":24.5603629,"population":29,"stateCapital":false,"nationalCapital":false,"pk":null,"quiz":"europe","code":null,"archived":false,"percentageOfSessions":null}, {"name":"Ágios Romanós","state":"Crete","territory":"","country":"Greece","latitude":35.31080976,"longitude":25.21324872,"population":111,"stateCapital":false,"nationalCapital":false,"pk":null,"quiz":"europe","code":null,"archived":false,"percentageOfSessions":null}, {"name":"Ágios Spirídhon","state":"Crete","territory":"","country":"Greece","latitude":35.11088653,"longitude":26.0801595,"population":24,"stateCapital":false,"nationalCapital":false,"pk":null,"quiz":"europe","code":null,"archived":false,"percentageOfSessions":null}, {"name":"Ágios Stéfanos","state":"Crete","territory":"","country":"Greece","latitude":35.06785211,"longitude":25.96926775,"population":130,"stateCapital":false,"nationalCapital":false,"pk":null,"quiz":"europe","code":null,"archived":false,"percentageOfSessions":null}, {"name":"Ágios Síllas","state":"Crete","territory":"","country":"Greece","latitude":35.2396375,"longitude":25.11331595,"population":544,"stateCapital":false,"nationalCapital":false,"pk":null,"quiz":"europe","code":null,"archived":false,"percentageOfSessions":null}, {"name":"Ágios Harálambos","state":"Crete","territory":"","country":"Greece","latitude":35.17458081,"longitude":25.4378375,"population":35,"stateCapital":false,"nationalCapital":false,"pk":null,"quiz":"europe","code":null,"archived":false,"percentageOfSessions":null}, {"name":"Anġáthia","state":"Crete","territory":"","country":"Greece","latitude":35.19336053,"longitude":26.26218343,"population":135,"stateCapital":false,"nationalCapital":false,"pk":null,"quiz":"europe","code":null,"archived":false,"percentageOfSessions":null}, {"name":"Anġisarás","state":"Crete","territory":"","country":"Greece","latitude":35.33461638,"longitude":25.36485396,"population":2512,"stateCapital":false,"nationalCapital":false,"pk":null,"quiz":"europe","code":null,"archived":false,"percentageOfSessions":null}, {"name":"Anġuselianá","state":"Crete","territory":"","country":"Greece","latitude":35.2373112,"longitude":24.43410544,"population":209,"stateCapital":false,"nationalCapital":false,"pk":null,"quiz":"europe","code":null,"archived":false,"percentageOfSessions":null}, {"name":"Agná","state":"Crete","territory":"","country":"Greece","latitude":35.36592875,"longitude":24.44887733,"population":363,"stateCapital":false,"nationalCapital":false,"pk":null,"quiz":"europe","code":null,"archived":false,"percentageOfSessions":null}, {"name":"Ágnos","state":"Crete","territory":"","country":"Greece","latitude":35.24687982,"longitude":25.35228,"population":3,"stateCapital":false,"nationalCapital":false,"pk":null,"quiz":"europe","code":null,"archived":false,"percentageOfSessions":null}, {"name":"Agóri","state":"Crete","territory":"","country":"Greece","latitude":35.29572198,"longitude":25.58692777,"population":2,"stateCapital":false,"nationalCapital":false,"pk":null,"quiz":"europe","code":null,"archived":false,"percentageOfSessions":null}, {"name":"Agrianá","state":"Crete","territory":"","country":"Greece","latitude":35.30755377,"longitude":25.34325931,"population":721,"stateCapital":false,"nationalCapital":false,"pk":null,"quiz":"europe","code":null,"archived":false,"percentageOfSessions":null}, {"name":"Agrídhia","state":"Crete","territory":"","country":"Greece","latitude":35.32878501,"longitude":24.84240554,"population":72,"stateCapital":false,"nationalCapital":false,"pk":null,"quiz":"europe","code":null,"archived":false,"percentageOfSessions":null}, {"name":"Agrilés","state":"Crete","territory":"","country":"Greece","latitude":35.29587981,"longitude":23.78742816,"population":22,"stateCapital":false,"nationalCapital":false,"pk":null,"quiz":"europe","code":null,"archived":false,"percentageOfSessions":null}, {"name":"Ádhele","state":"Crete","territory":"","country":"Greece","latitude":35.3553203,"longitude":24.55791482,"population":476,"stateCapital":false,"nationalCapital":false,"pk":null,"quiz":"europe","code":null,"archived":false,"percentageOfSessions":null}, {"name":"Adhelianós Kámbos","state":"Crete","territory":"","country":"Greece","latitude":35.36928737,"longitude":24.53837717,"population":2999,"stateCapital":false,"nationalCapital":false,"pk":null,"quiz":"europe","code":null,"archived":false,"percentageOfSessions":null}, {"name":"Adhravásti","state":"Crete","territory":"","country":"Greece","latitude":35.12796446,"longitude":26.2144764,"population":28,"stateCapital":false,"nationalCapital":false,"pk":null,"quiz":"europe","code":null,"archived":false,"percentageOfSessions":null}, {"name":"Adhrianós","state":"Crete","territory":"","country":"Greece","latitude":35.20375111,"longitude":25.61125054,"population":6,"stateCapital":false,"nationalCapital":false,"pk":null,"quiz":"europe","code":null,"archived":false,"percentageOfSessions":null}, {"name":"Aerinós","state":"Crete","territory":"","country":"Greece","latitude":35.36613608,"longitude":23.60639203,"population":6,"stateCapital":false,"nationalCapital":false,"pk":null,"quiz":"europe","code":null,"archived":false,"percentageOfSessions":null}, {"name":"Aerodhrómion","state":"Crete","territory":"","country":"Greece","latitude":35.51463167,"longitude":24.14154338,"population":69,"stateCapital":false,"nationalCapital":false,"pk":null,"quiz":"europe","code":null,"archived":false,"percentageOfSessions":null}, {"name":"Azálion","state":"Crete","territory":"","country":"Greece","latitude":35.06559683,"longitude":26.02062982,"population":2,"stateCapital":false,"nationalCapital":false,"pk":null,"quiz":"europe","code":null,"archived":false,"percentageOfSessions":null}, {"name":"Azogirás","state":"Crete","territory":"","country":"Greece","latitude":35.50655045,"longitude":23.59741629,"population":40,"stateCapital":false,"nationalCapital":false,"pk":null,"quiz":"europe","code":null,"archived":false,"percentageOfSessions":null}, {"name":"Azogirés (Dh.K.Paleohóras)","state":"Crete","territory":"","country":"Greece","latitude":35.26704378,"longitude":23.71981072,"population":35,"stateCapital":false,"nationalCapital":false,"pk":null,"quiz":"europe","code":null,"archived":false,"percentageOfSessions":null}, {"name":"Azogirés (T.K.Vutá)","state":"Crete","territory":"","country":"Greece","latitude":35.26704378,"longitude":23.71981072,"population":1,"stateCapital":false,"nationalCapital":false,"pk":null,"quiz":"europe","code":null,"archived":false,"percentageOfSessions":null}, {"name":"Azokéramos","state":"Crete","territory":"","country":"Greece","latitude":35.12951813,"longitude":26.2506699,"population":14,"stateCapital":false,"nationalCapital":false,"pk":null,"quiz":"europe","code":null,"archived":false,"percentageOfSessions":null}, {"name":"Aidhonohórion","state":"Crete","territory":"","country":"Greece","latitude":35.31998668,"longitude":24.91826645,"population":90,"stateCapital":false,"nationalCapital":false,"pk":null,"quiz":"europe","code":null,"archived":false,"percentageOfSessions":null}, {"name":"Athánati","state":"Crete","territory":"","country":"Greece","latitude":35.27148182,"longitude":25.07917658,"population":182,"stateCapital":false,"nationalCapital":false,"pk":null,"quiz":"europe","code":null,"archived":false,"percentageOfSessions":null}, {"name":"Aikirgiánnis","state":"Crete","territory":"","country":"Greece","latitude":35.4307261,"longitude":23.67690417,"population":34,"stateCapital":false,"nationalCapital":false,"pk":null,"quiz":"europe","code":null,"archived":false,"percentageOfSessions":null}, {"name":"Aímonas","state":"Crete","territory":"","country":"Greece","latitude":35.32649297,"longitude":24.865202,"population":314,"stateCapital":false,"nationalCapital":false,"pk":null,"quiz":"europe","code":null,"archived":false,"percentageOfSessions":null}, {"name":"Aitánia","state":"Crete","territory":"","country":"Greece","latitude":35.26737671,"longitude":25.21746329,"population":279,"stateCapital":false,"nationalCapital":false,"pk":null,"quiz":"europe","code":null,"archived":false,"percentageOfSessions":null}, {"name":"Akámotos","state":"Crete","territory":"","country":"Greece","latitude":35.0129989,"longitude":25.04376134,"population":13,"stateCapital":false,"nationalCapital":false,"pk":null,"quiz":"europe","code":null,"archived":false,"percentageOfSessions":null}, {"name":"Akúmia","state":"Crete","territory":"","country":"Greece","latitude":35.16226555,"longitude":24.58044025,"population":337,"stateCapital":false,"nationalCapital":false,"pk":null,"quiz":"europe","code":null,"archived":false,"percentageOfSessions":null}, {"name":"Aktúnda","state":"Crete","territory":"","country":"Greece","latitude":35.18572779,"longitude":24.53600971,"population":71,"stateCapital":false,"nationalCapital":false,"pk":null,"quiz":"europe","code":null,"archived":false,"percentageOfSessions":null}, {"name":"Alágnion","state":"Crete","territory":"","country":"Greece","latitude":35.17131535,"longitude":25.20936907,"population":180,"stateCapital":false,"nationalCapital":false,"pk":null,"quiz":"europe","code":null,"archived":false,"percentageOfSessions":null}, {"name":"Alithiní","state":"Crete","territory":"","country":"Greece","latitude":35.01105353,"longitude":24.88141899,"population":145,"stateCapital":false,"nationalCapital":false,"pk":null,"quiz":"europe","code":null,"archived":false,"percentageOfSessions":null}, {"name":"Aliakés","state":"Crete","territory":"","country":"Greece","latitude":35.33860531,"longitude":24.75527508,"population":39,"stateCapital":false,"nationalCapital":false,"pk":null,"quiz":"europe","code":null,"archived":false,"percentageOfSessions":null}, {"name":"Aligí","state":"Crete","territory":"","country":"Greece","latitude":35.35067919,"longitude":23.69064359,"population":21,"stateCapital":false,"nationalCapital":false,"pk":null,"quiz":"europe","code":null,"archived":false,"percentageOfSessions":null}, {"name":"Alíkambos","state":"Crete","territory":"","country":"Greece","latitude":35.34446489,"longitude":24.20669894,"population":196,"stateCapital":false,"nationalCapital":false,"pk":null,"quiz":"europe","code":null,"archived":false,"percentageOfSessions":null}, {"name":"Alikianós","state":"Crete","territory":"","country":"Greece","latitude":35.45117288,"longitude":23.91009815,"population":822,"stateCapital":false,"nationalCapital":false,"pk":null,"quiz":"europe","code":null,"archived":false,"percentageOfSessions":null}, {"name":"Almirídha","state":"Crete","territory":"","country":"Greece","latitude":35.40697867,"longitude":24.8698149,"population":60,"stateCapital":false,"nationalCapital":false,"pk":null,"quiz":"europe","code":null,"archived":false,"percentageOfSessions":null}, {"name":"Almirídha","state":"Crete","territory":"","country":"Greece","latitude":35.44693322,"longitude":24.19828703,"population":455,"stateCapital":false,"nationalCapital":false,"pk":null,"quiz":"europe","code":null,"archived":false,"percentageOfSessions":null}, {"name":"Alóidhes","state":"Crete","territory":"","country":"Greece","latitude":35.36244007,"longitude":24.873149,"population":313,"stateCapital":false,"nationalCapital":false,"pk":null,"quiz":"europe","code":null,"archived":false,"percentageOfSessions":null}, {"name":"Alfá","state":"Crete","territory":"","country":"Greece","latitude":35.3558765,"longitude":24.66878579,"population":307,"stateCapital":false,"nationalCapital":false,"pk":null,"quiz":"europe","code":null,"archived":false,"percentageOfSessions":null}, {"name":"Alóne","state":"Crete","territory":"","country":"Greece","latitude":35.23725293,"longitude":24.34185911,"population":35,"stateCapital":false,"nationalCapital":false,"pk":null,"quiz":"europe","code":null,"archived":false,"percentageOfSessions":null}, {"name":"Amarianón","state":"Crete","territory":"","country":"Greece","latitude":35.18469956,"longitude":25.37156206,"population":156,"stateCapital":false,"nationalCapital":false,"pk":null,"quiz":"europe","code":null,"archived":false,"percentageOfSessions":null}, {"name":"Amárion","state":"Crete","territory":"","country":"Greece","latitude":35.22378356,"longitude":24.64948146,"population":112,"stateCapital":false,"nationalCapital":false,"pk":null,"quiz":"europe","code":null,"archived":false,"percentageOfSessions":null}, {"name":"Amirás","state":"Crete","territory":"","country":"Greece","latitude":35.03852747,"longitude":25.445199,"population":321,"stateCapital":false,"nationalCapital":false,"pk":null,"quiz":"europe","code":null,"archived":false,"percentageOfSessions":null}, {"name":"Ammudhára","state":"Crete","territory":"","country":"Greece","latitude":35.16276129,"longitude":25.70911255,"population":491,"stateCapital":false,"nationalCapital":false,"pk":null,"quiz":"europe","code":null,"archived":false,"percentageOfSessions":null}, {"name":"Ammudháre","state":"Crete","territory":"","country":"Greece","latitude":35.00755707,"longitude":25.63916371,"population":116,"stateCapital":false,"nationalCapital":false,"pk":null,"quiz":"europe","code":null,"archived":false,"percentageOfSessions":null}, {"name":"Ammudhárion","state":"Crete","territory":"","country":"Greece","latitude":35.28941234,"longitude":24.17418163,"population":164,"stateCapital":false,"nationalCapital":false,"pk":null,"quiz":"europe","code":null,"archived":false,"percentageOfSessions":null}, {"name":"Ammúdhi","state":"Crete","territory":"","country":"Greece","latitude":35.39105378,"longitude":25.03016155,"population":197,"stateCapital":false,"nationalCapital":false,"pk":null,"quiz":"europe","code":null,"archived":false,"percentageOfSessions":null}, {"name":"Ammúdhi","state":"Crete","territory":"","country":"Greece","latitude":35.16504382,"longitude":24.41988136,"population":9,"stateCapital":false,"nationalCapital":false,"pk":null,"quiz":"europe","code":null,"archived":false,"percentageOfSessions":null}, {"name":"Amnátos","state":"Crete","territory":"","country":"Greece","latitude":35.33027582,"longitude":24.61548799,"population":155,"stateCapital":false,"nationalCapital":false,"pk":null,"quiz":"europe","code":null,"archived":false,"percentageOfSessions":null}, {"name":"Amurgélle","state":"Crete","territory":"","country":"Greece","latitude":35.12986312,"longitude":25.17967945,"population":197,"stateCapital":false,"nationalCapital":false,"pk":null,"quiz":"europe","code":null,"archived":false,"percentageOfSessions":null}, {"name":"Ambelá","state":"Crete","territory":"","country":"Greece","latitude":35.27220862,"longitude":25.17723841,"population":23,"stateCapital":false,"nationalCapital":false,"pk":null,"quiz":"europe","code":null,"archived":false,"percentageOfSessions":null}, {"name":"Ambelákion","state":"Crete","territory":"","country":"Greece","latitude":35.27749322,"longitude":24.48156552,"population":110,"stateCapital":false,"nationalCapital":false,"pk":null,"quiz":"europe","code":null,"archived":false,"percentageOfSessions":null}, {"name":"Ámbelos","state":"Crete","territory":"","country":"Greece","latitude":34.8407863,"longitude":24.0549701,"population":10,"stateCapital":false,"nationalCapital":false,"pk":null,"quiz":"europe","code":null,"archived":false,"percentageOfSessions":null}, {"name":"Ambelúzos","state":"Crete","territory":"","country":"Greece","latitude":35.06183143,"longitude":24.93151489,"population":317,"stateCapital":false,"nationalCapital":false,"pk":null,"quiz":"europe","code":null,"archived":false,"percentageOfSessions":null}, {"name":"Amigdháli","state":"Crete","territory":"","country":"Greece","latitude":35.21026985,"longitude":25.59798338,"population":16,"stateCapital":false,"nationalCapital":false,"pk":null,"quiz":"europe","code":null,"archived":false,"percentageOfSessions":null}, {"name":"Amigdhalokefálion","state":"Crete","territory":"","country":"Greece","latitude":35.35942574,"longitude":23.5608181,"population":19,"stateCapital":false,"nationalCapital":false,"pk":null,"quiz":"europe","code":null,"archived":false,"percentageOfSessions":null}, {"name":"Amigdhalólakkos","state":"Crete","territory":"","country":"Greece","latitude":35.31893945,"longitude":25.61124524,"population":1,"stateCapital":false,"nationalCapital":false,"pk":null,"quiz":"europe","code":null,"archived":false,"percentageOfSessions":null}, {"name":"Amígdhalos","state":"Crete","territory":"","country":"Greece","latitude":34.97892767,"longitude":25.12579024,"population":28,"stateCapital":false,"nationalCapital":false,"pk":null,"quiz":"europe","code":null,"archived":false,"percentageOfSessions":null}, {"name":"Análipsis","state":"Crete","territory":"","country":"Greece","latitude":35.32961001,"longitude":25.34356141,"population":2675,"stateCapital":false,"nationalCapital":false,"pk":null,"quiz":"europe","code":null,"archived":false,"percentageOfSessions":null}, {"name":"Análipsis","state":"Crete","territory":"","country":"Greece","latitude":35.03711794,"longitude":25.97692016,"population":582,"stateCapital":false,"nationalCapital":false,"pk":null,"quiz":"europe","code":null,"archived":false,"percentageOfSessions":null}, {"name":"Anatolí","state":"Crete","territory":"","country":"Greece","latitude":35.0427384,"longitude":25.64146529,"population":122,"stateCapital":false,"nationalCapital":false,"pk":null,"quiz":"europe","code":null,"archived":false,"percentageOfSessions":null}, {"name":"Anemomília","state":"Crete","territory":"","country":"Greece","latitude":35.19232426,"longitude":26.09995703,"population":50,"stateCapital":false,"nationalCapital":false,"pk":null,"quiz":"europe","code":null,"archived":false,"percentageOfSessions":null}, {"name":"Anemómili","state":"Crete","territory":"","country":"Greece","latitude":35.51541923,"longitude":24.12306447,"population":239,"stateCapital":false,"nationalCapital":false,"pk":null,"quiz":"europe","code":null,"archived":false,"percentageOfSessions":null}, {"name":"Anisarákion","state":"Crete","territory":"","country":"Greece","latitude":35.32895822,"longitude":23.75767625,"population":46,"stateCapital":false,"nationalCapital":false,"pk":null,"quiz":"europe","code":null,"archived":false,"percentageOfSessions":null}, {"name":"Anissarás","state":"Crete","territory":"","country":"Greece","latitude":35.33466374,"longitude":25.3727799,"population":1174,"stateCapital":false,"nationalCapital":false,"pk":null,"quiz":"europe","code":null,"archived":false,"percentageOfSessions":null}, {"name":"Andiskárion","state":"Crete","territory":"","country":"Greece","latitude":34.95635616,"longitude":24.8785131,"population":431,"stateCapital":false,"nationalCapital":false,"pk":null,"quiz":"europe","code":null,"archived":false,"percentageOfSessions":null}, {"name":"Ánidhri","state":"Crete","territory":"","country":"Greece","latitude":35.24906964,"longitude":23.71732393,"population":68,"stateCapital":false,"nationalCapital":false,"pk":null,"quiz":"europe","code":null,"archived":false,"percentageOfSessions":null}, {"name":"Áno Ákria","state":"Crete","territory":"","country":"Greece","latitude":35.07139268,"longitude":25.08237549,"population":115,"stateCapital":false,"nationalCapital":false,"pk":null,"quiz":"europe","code":null,"archived":false,"percentageOfSessions":null}, {"name":"Áno Amigdháli","state":"Crete","territory":"","country":"Greece","latitude":35.20623985,"longitude":25.59361103,"population":26,"stateCapital":false,"nationalCapital":false,"pk":null,"quiz":"europe","code":null,"archived":false,"percentageOfSessions":null}, {"name":"Áno Asíte","state":"Crete","territory":"","country":"Greece","latitude":35.19271972,"longitude":24.99857262,"population":425,"stateCapital":false,"nationalCapital":false,"pk":null,"quiz":"europe","code":null,"archived":false,"percentageOfSessions":null}, {"name":"Áno Valsamóneron","state":"Crete","territory":"","country":"Greece","latitude":35.29863661,"longitude":24.4192411,"population":79,"stateCapital":false,"nationalCapital":false,"pk":null,"quiz":"europe","code":null,"archived":false,"percentageOfSessions":null}, {"name":"Áno Viánnos","state":"Crete","territory":"","country":"Greece","latitude":35.05140193,"longitude":25.40776961,"population":762,"stateCapital":false,"nationalCapital":false,"pk":null,"quiz":"europe","code":null,"archived":false,"percentageOfSessions":null}, {"name":"Áno Vígla","state":"Crete","territory":"","country":"Greece","latitude":35.00044244,"longitude":25.51406929,"population":3,"stateCapital":false,"nationalCapital":false,"pk":null,"quiz":"europe","code":null,"archived":false,"percentageOfSessions":null}, {"name":"Áno Viranepiskopí","state":"Crete","territory":"","country":"Greece","latitude":35.36220955,"longitude":24.61166761,"population":94,"stateCapital":false,"nationalCapital":false,"pk":null,"quiz":"europe","code":null,"archived":false,"percentageOfSessions":null}, {"name":"Áno Vúve","state":"Crete","territory":"","country":"Greece","latitude":35.48478058,"longitude":23.78485717,"population":23,"stateCapital":false,"nationalCapital":false,"pk":null,"quiz":"europe","code":null,"archived":false,"percentageOfSessions":null}, {"name":"Áno Dhrapaniás","state":"Crete","territory":"","country":"Greece","latitude":35.48530565,"longitude":23.70550777,"population":17,"stateCapital":false,"nationalCapital":false,"pk":null,"quiz":"europe","code":null,"archived":false,"percentageOfSessions":null}, {"name":"Áno Kalésia","state":"Crete","territory":"","country":"Greece","latitude":35.28208297,"longitude":25.05781601,"population":514,"stateCapital":false,"nationalCapital":false,"pk":null,"quiz":"europe","code":null,"archived":false,"percentageOfSessions":null}, {"name":"Áno Karuzaná","state":"Crete","territory":"","country":"Greece","latitude":35.2244278,"longitude":25.36431512,"population":24,"stateCapital":false,"nationalCapital":false,"pk":null,"quiz":"europe","code":null,"archived":false,"percentageOfSessions":null}, {"name":"Áno Kastellianá","state":"Crete","territory":"","country":"Greece","latitude":35.03198173,"longitude":25.25270698,"population":151,"stateCapital":false,"nationalCapital":false,"pk":null,"quiz":"europe","code":null,"archived":false,"percentageOfSessions":null}, {"name":"Áno Kerá","state":"Crete","territory":"","country":"Greece","latitude":35.21806452,"longitude":25.45850336,"population":65,"stateCapital":false,"nationalCapital":false,"pk":null,"quiz":"europe","code":null,"archived":false,"percentageOfSessions":null}, {"name":"Áno Kefála","state":"Crete","territory":"","country":"Greece","latitude":35.423466,"longitude":23.7846592,"population":23,"stateCapital":false,"nationalCapital":false,"pk":null,"quiz":"europe","code":null,"archived":false,"percentageOfSessions":null}, {"name":"Áno Kórnias","state":"Crete","territory":"","country":"Greece","latitude":35.00900165,"longitude":25.48402378,"population":2,"stateCapital":false,"nationalCapital":false,"pk":null,"quiz":"europe","code":null,"archived":false,"percentageOfSessions":null}, {"name":"Áno Malákion","state":"Crete","territory":"","country":"Greece","latitude":35.27535357,"longitude":24.40945566,"population":77,"stateCapital":false,"nationalCapital":false,"pk":null,"quiz":"europe","code":null,"archived":false,"percentageOfSessions":null}, {"name":"Áno Méros","state":"Crete","territory":"","country":"Greece","latitude":35.1839847,"longitude":24.65998504,"population":207,"stateCapital":false,"nationalCapital":false,"pk":null,"quiz":"europe","code":null,"archived":false,"percentageOfSessions":null}, {"name":"Áno Múlia","state":"Crete","territory":"","country":"Greece","latitude":35.11115654,"longitude":24.99365855,"population":375,"stateCapital":false,"nationalCapital":false,"pk":null,"quiz":"europe","code":null,"archived":false,"percentageOfSessions":null}, {"name":"Áno Miksórruma","state":"Crete","territory":"","country":"Greece","latitude":35.21730862,"longitude":24.49903493,"population":210,"stateCapital":false,"nationalCapital":false,"pk":null,"quiz":"europe","code":null,"archived":false,"percentageOfSessions":null}, {"name":"Áno Puliá","state":"Crete","territory":"","country":"Greece","latitude":35.11418971,"longitude":25.26537432,"population":49,"stateCapital":false,"nationalCapital":false,"pk":null,"quiz":"europe","code":null,"archived":false,"percentageOfSessions":null}, {"name":"Áno Rodhákinon","state":"Crete","territory":"","country":"Greece","latitude":35.19878742,"longitude":24.30996761,"population":106,"stateCapital":false,"nationalCapital":false,"pk":null,"quiz":"europe","code":null,"archived":false,"percentageOfSessions":null}, {"name":"Áno Sími","state":"Crete","territory":"","country":"Greece","latitude":35.04445383,"longitude":25.49664213,"population":32,"stateCapital":false,"nationalCapital":false,"pk":null,"quiz":"europe","code":null,"archived":false,"percentageOfSessions":null}, {"name":"Áno Sfinárion","state":"Crete","territory":"","country":"Greece","latitude":35.40558299,"longitude":23.57549659,"population":5,"stateCapital":false,"nationalCapital":false,"pk":null,"quiz":"europe","code":null,"archived":false,"percentageOfSessions":null}, {"name":"Áno Tripódhon","state":"Crete","territory":"","country":"Greece","latitude":35.32466117,"longitude":24.68339973,"population":67,"stateCapital":false,"nationalCapital":false,"pk":null,"quiz":"europe","code":null,"archived":false,"percentageOfSessions":null}, {"name":"Anógia","state":"Crete","territory":"","country":"Greece","latitude":35.32296552,"longitude":25.607787,"population":4,"stateCapital":false,"nationalCapital":false,"pk":null,"quiz":"europe","code":null,"archived":false,"percentageOfSessions":null}, {"name":"Anógia","state":"Crete","territory":"","country":"Greece","latitude":35.28796732,"longitude":24.88095301,"population":2322,"stateCapital":false,"nationalCapital":false,"pk":null,"quiz":"europe","code":null,"archived":false,"percentageOfSessions":null}, {"name":"Anógia","state":"Crete","territory":"","country":"Greece","latitude":35.28796732,"longitude":24.88095301,"population":126,"stateCapital":false,"nationalCapital":false,"pk":null,"quiz":"europe","code":null,"archived":false,"percentageOfSessions":null}, {"name":"Anópolis","state":"Crete","territory":"","country":"Greece","latitude":35.30013412,"longitude":25.25581201,"population":216,"stateCapital":false,"nationalCapital":false,"pk":null,"quiz":"europe","code":null,"archived":false,"percentageOfSessions":null}, {"name":"Anópolis","state":"Crete","territory":"","country":"Greece","latitude":35.2139812,"longitude":24.09274659,"population":241,"stateCapital":false,"nationalCapital":false,"pk":null,"quiz":"europe","code":null,"archived":false,"percentageOfSessions":null}, {"name":"Anóskeli","state":"Crete","territory":"","country":"Greece","latitude":35.4537383,"longitude":23.77107115,"population":75,"stateCapital":false,"nationalCapital":false,"pk":null,"quiz":"europe","code":null,"archived":false,"percentageOfSessions":null}, {"name":"Aksós","state":"Crete","territory":"","country":"Greece","latitude":35.30662502,"longitude":24.84063672,"population":453,"stateCapital":false,"nationalCapital":false,"pk":null,"quiz":"europe","code":null,"archived":false,"percentageOfSessions":null}, {"name":"Apesokárion","state":"Crete","territory":"","country":"Greece","latitude":35.00729191,"longitude":24.95067187,"population":102,"stateCapital":false,"nationalCapital":false,"pk":null,"quiz":"europe","code":null,"archived":false,"percentageOfSessions":null}, {"name":"Apladhianá","state":"Crete","territory":"","country":"Greece","latitude":35.35196021,"longitude":24.81743378,"population":202,"stateCapital":false,"nationalCapital":false,"pk":null,"quiz":"europe","code":null,"archived":false,"percentageOfSessions":null}, {"name":"Apodhúlu","state":"Crete","territory":"","country":"Greece","latitude":35.15455193,"longitude":24.73399175,"population":253,"stateCapital":false,"nationalCapital":false,"pk":null,"quiz":"europe","code":null,"archived":false,"percentageOfSessions":null}, {"name":"Apothíke","state":"Crete","territory":"","country":"Greece","latitude":35.45833888,"longitude":23.86601237,"population":48,"stateCapital":false,"nationalCapital":false,"pk":null,"quiz":"europe","code":null,"archived":false,"percentageOfSessions":null}, {"name":"Apoínion","state":"Crete","territory":"","country":"Greece","latitude":35.0511265,"longitude":25.1207612,"population":180,"stateCapital":false,"nationalCapital":false,"pk":null,"quiz":"europe","code":null,"archived":false,"percentageOfSessions":null}, {"name":"Apólihnos","state":"Crete","territory":"","country":"Greece","latitude":35.07594144,"longitude":24.8859569,"population":4,"stateCapital":false,"nationalCapital":false,"pk":null,"quiz":"europe","code":null,"archived":false,"percentageOfSessions":null}, {"name":"Apomarmá","state":"Crete","territory":"","country":"Greece","latitude":35.11055993,"longitude":24.94930143,"population":44,"stateCapital":false,"nationalCapital":false,"pk":null,"quiz":"europe","code":null,"archived":false,"percentageOfSessions":null}, {"name":"Aposelémis","state":"Crete","territory":"","country":"Greece","latitude":35.33266684,"longitude":25.33219166,"population":556,"stateCapital":false,"nationalCapital":false,"pk":null,"quiz":"europe","code":null,"archived":false,"percentageOfSessions":null}, {"name":"Aposelémion","state":"Crete","territory":"","country":"Greece","latitude":35.09063187,"longitude":25.17853562,"population":22,"stateCapital":false,"nationalCapital":false,"pk":null,"quiz":"europe","code":null,"archived":false,"percentageOfSessions":null}, {"name":"Apóstoli","state":"Crete","territory":"","country":"Greece","latitude":35.21649168,"longitude":25.29620605,"population":330,"stateCapital":false,"nationalCapital":false,"pk":null,"quiz":"europe","code":null,"archived":false,"percentageOfSessions":null}, {"name":"Apóstoli","state":"Crete","territory":"","country":"Greece","latitude":35.25286763,"longitude":24.62618665,"population":162,"stateCapital":false,"nationalCapital":false,"pk":null,"quiz":"europe","code":null,"archived":false,"percentageOfSessions":null}, {"name":"Áptera","state":"Crete","territory":"","country":"Greece","latitude":35.46077765,"longitude":24.13197986,"population":425,"stateCapital":false,"nationalCapital":false,"pk":null,"quiz":"europe","code":null,"archived":false,"percentageOfSessions":null}, {"name":"Arádhena","state":"Crete","territory":"","country":"Greece","latitude":35.22138195,"longitude":24.06094391,"population":4,"stateCapital":false,"nationalCapital":false,"pk":null,"quiz":"europe","code":null,"archived":false,"percentageOfSessions":null}, {"name":"Árvi","state":"Crete","territory":"","country":"Greece","latitude":34.98970226,"longitude":25.45329435,"population":360,"stateCapital":false,"nationalCapital":false,"pk":null,"quiz":"europe","code":null,"archived":false,"percentageOfSessions":null}, {"name":"Argastírion","state":"Crete","territory":"","country":"Greece","latitude":35.31627178,"longitude":23.79581742,"population":21,"stateCapital":false,"nationalCapital":false,"pk":null,"quiz":"europe","code":null,"archived":false,"percentageOfSessions":null}, {"name":"Argulés","state":"Crete","territory":"","country":"Greece","latitude":35.19528471,"longitude":24.27886462,"population":41,"stateCapital":false,"nationalCapital":false,"pk":null,"quiz":"europe","code":null,"archived":false,"percentageOfSessions":null}, {"name":"Argulión","state":"Crete","territory":"","country":"Greece","latitude":35.32454066,"longitude":24.75962556,"population":73,"stateCapital":false,"nationalCapital":false,"pk":null,"quiz":"europe","code":null,"archived":false,"percentageOfSessions":null}, {"name":"Argirúpolis","state":"Crete","territory":"","country":"Greece","latitude":35.28233758,"longitude":24.33195183,"population":406,"stateCapital":false,"nationalCapital":false,"pk":null,"quiz":"europe","code":null,"archived":false,"percentageOfSessions":null}, {"name":"Árdhaktos","state":"Crete","territory":"","country":"Greece","latitude":35.17313758,"longitude":24.54949923,"population":28,"stateCapital":false,"nationalCapital":false,"pk":null,"quiz":"europe","code":null,"archived":false,"percentageOfSessions":null}, {"name":"Árdhaktos","state":"Crete","territory":"","country":"Greece","latitude":35.17313758,"longitude":24.54949923,"population":48,"stateCapital":false,"nationalCapital":false,"pk":null,"quiz":"europe","code":null,"archived":false,"percentageOfSessions":null}, {"name":"Arevítis","state":"Crete","territory":"","country":"Greece","latitude":35.35152774,"longitude":24.15789342,"population":22,"stateCapital":false,"nationalCapital":false,"pk":null,"quiz":"europe","code":null,"archived":false,"percentageOfSessions":null}, {"name":"Arkádhion","state":"Crete","territory":"","country":"Greece","latitude":35.14204518,"longitude":25.09461712,"population":43,"stateCapital":false,"nationalCapital":false,"pk":null,"quiz":"europe","code":null,"archived":false,"percentageOfSessions":null}, {"name":"Arkalohórion","state":"Crete","territory":"","country":"Greece","latitude":35.14636288,"longitude":25.26357118,"population":4267,"stateCapital":false,"nationalCapital":false,"pk":null,"quiz":"europe","code":null,"archived":false,"percentageOfSessions":null}, {"name":"Armanógia","state":"Crete","territory":"","country":"Greece","latitude":35.12273323,"longitude":25.15986997,"population":113,"stateCapital":false,"nationalCapital":false,"pk":null,"quiz":"europe","code":null,"archived":false,"percentageOfSessions":null}, {"name":"Armáha","state":"Crete","territory":"","country":"Greece","latitude":35.162433,"longitude":25.35178194,"population":73,"stateCapital":false,"nationalCapital":false,"pk":null,"quiz":"europe","code":null,"archived":false,"percentageOfSessions":null}, {"name":"Arméni","state":"Crete","territory":"","country":"Greece","latitude":35.07009595,"longitude":26.09015152,"population":272,"stateCapital":false,"nationalCapital":false,"pk":null,"quiz":"europe","code":null,"archived":false,"percentageOfSessions":null}, {"name":"Arméni","state":"Crete","territory":"","country":"Greece","latitude":35.30138835,"longitude":24.45951723,"population":364,"stateCapital":false,"nationalCapital":false,"pk":null,"quiz":"europe","code":null,"archived":false,"percentageOfSessions":null}, {"name":"Arméni","state":"Crete","territory":"","country":"Greece","latitude":35.42731203,"longitude":24.15598452,"population":349,"stateCapital":false,"nationalCapital":false,"pk":null,"quiz":"europe","code":null,"archived":false,"percentageOfSessions":null}, {"name":"Armenohórion","state":"Crete","territory":"","country":"Greece","latitude":35.44644402,"longitude":23.71117848,"population":27,"stateCapital":false,"nationalCapital":false,"pk":null,"quiz":"europe","code":null,"archived":false,"percentageOfSessions":null}, {"name":"Armíon","state":"Crete","territory":"","country":"Greece","latitude":35.30370091,"longitude":23.70697233,"population":19,"stateCapital":false,"nationalCapital":false,"pk":null,"quiz":"europe","code":null,"archived":false,"percentageOfSessions":null}, {"name":"Arnikón","state":"Crete","territory":"","country":"Greece","latitude":35.16253745,"longitude":26.11463805,"population":51,"stateCapital":false,"nationalCapital":false,"pk":null,"quiz":"europe","code":null,"archived":false,"percentageOfSessions":null}, {"name":"Arolíthion","state":"Crete","territory":"","country":"Greece","latitude":35.25325246,"longitude":24.32152308,"population":9,"stateCapital":false,"nationalCapital":false,"pk":null,"quiz":"europe","code":null,"archived":false,"percentageOfSessions":null}, {"name":"Arhánġelos","state":"Crete","territory":"","country":"Greece","latitude":35.19902256,"longitude":25.32170763,"population":140,"stateCapital":false,"nationalCapital":false,"pk":null,"quiz":"europe","code":null,"archived":false,"percentageOfSessions":null}, {"name":"Arhéa Eléftherna","state":"Crete","territory":"","country":"Greece","latitude":35.32054306,"longitude":24.67464521,"population":114,"stateCapital":false,"nationalCapital":false,"pk":null,"quiz":"europe","code":null,"archived":false,"percentageOfSessions":null}, {"name":"Arhondikí","state":"Crete","territory":"","country":"Greece","latitude":35.31372875,"longitude":24.33448975,"population":232,"stateCapital":false,"nationalCapital":false,"pk":null,"quiz":"europe","code":null,"archived":false,"percentageOfSessions":null}, {"name":"Arhondikón","state":"Crete","territory":"","country":"Greece","latitude":35.15455759,"longitude":25.25704095,"population":192,"stateCapital":false,"nationalCapital":false,"pk":null,"quiz":"europe","code":null,"archived":false,"percentageOfSessions":null}, {"name":"Arhondikón","state":"Crete","territory":"","country":"Greece","latitude":35.31590023,"longitude":23.64730738,"population":6,"stateCapital":false,"nationalCapital":false,"pk":null,"quiz":"europe","code":null,"archived":false,"percentageOfSessions":null}, {"name":"Así Goniá","state":"Crete","territory":"","country":"Greece","latitude":35.27165905,"longitude":24.28247196,"population":518,"stateCapital":false,"nationalCapital":false,"pk":null,"quiz":"europe","code":null,"archived":false,"percentageOfSessions":null}, {"name":"Asímion","state":"Crete","territory":"","country":"Greece","latitude":35.04246666,"longitude":25.09188511,"population":1186,"stateCapital":false,"nationalCapital":false,"pk":null,"quiz":"europe","code":null,"archived":false,"percentageOfSessions":null}, {"name":"Askí","state":"Crete","territory":"","country":"Greece","latitude":35.21566931,"longitude":25.38440004,"population":250,"stateCapital":false,"nationalCapital":false,"pk":null,"quiz":"europe","code":null,"archived":false,"percentageOfSessions":null}, {"name":"Askordhalós","state":"Crete","territory":"","country":"Greece","latitude":35.4090782,"longitude":23.92680508,"population":23,"stateCapital":false,"nationalCapital":false,"pk":null,"quiz":"europe","code":null,"archived":false,"percentageOfSessions":null}, {"name":"Áspra Nerá","state":"Crete","territory":"","country":"Greece","latitude":35.54199169,"longitude":23.7552325,"population":8,"stateCapital":false,"nationalCapital":false,"pk":null,"quiz":"europe","code":null,"archived":false,"percentageOfSessions":null}, {"name":"Asprólithos","state":"Crete","territory":"","country":"Greece","latitude":35.01453877,"longitude":26.09056678,"population":50,"stateCapital":false,"nationalCapital":false,"pk":null,"quiz":"europe","code":null,"archived":false,"percentageOfSessions":null}, {"name":"Áspron","state":"Crete","territory":"","country":"Greece","latitude":35.43694518,"longitude":24.20098184,"population":148,"stateCapital":false,"nationalCapital":false,"pk":null,"quiz":"europe","code":null,"archived":false,"percentageOfSessions":null}, {"name":"Áspros Potamós","state":"Crete","territory":"","country":"Greece","latitude":35.04528541,"longitude":25.98573189,"population":33,"stateCapital":false,"nationalCapital":false,"pk":null,"quiz":"europe","code":null,"archived":false,"percentageOfSessions":null}, {"name":"Aspruliáni","state":"Crete","territory":"","country":"Greece","latitude":35.34548364,"longitude":24.28584654,"population":1362,"stateCapital":false,"nationalCapital":false,"pk":null,"quiz":"europe","code":null,"archived":false,"percentageOfSessions":null}, {"name":"Astérion","state":"Crete","territory":"","country":"Greece","latitude":35.36591571,"longitude":24.5940941,"population":87,"stateCapital":false,"nationalCapital":false,"pk":null,"quiz":"europe","code":null,"archived":false,"percentageOfSessions":null}, {"name":"Astrakí","state":"Crete","territory":"","country":"Greece","latitude":35.22840795,"longitude":25.21742852,"population":219,"stateCapital":false,"nationalCapital":false,"pk":null,"quiz":"europe","code":null,"archived":false,"percentageOfSessions":null}, {"name":"Astrátigos","state":"Crete","territory":"","country":"Greece","latitude":35.55320391,"longitude":23.76025174,"population":46,"stateCapital":false,"nationalCapital":false,"pk":null,"quiz":"europe","code":null,"archived":false,"percentageOfSessions":null}, {"name":"Ástrikas","state":"Crete","territory":"","country":"Greece","latitude":35.47331442,"longitude":23.74685887,"population":100,"stateCapital":false,"nationalCapital":false,"pk":null,"quiz":"europe","code":null,"archived":false,"percentageOfSessions":null}, {"name":"Astrinó","state":"Crete","territory":"","country":"Greece","latitude":35.34946968,"longitude":24.91451735,"population":1,"stateCapital":false,"nationalCapital":false,"pk":null,"quiz":"europe","code":null,"archived":false,"percentageOfSessions":null}, {"name":"Astrítsion","state":"Crete","territory":"","country":"Greece","latitude":35.18712574,"longitude":25.2240807,"population":324,"stateCapital":false,"nationalCapital":false,"pk":null,"quiz":"europe","code":null,"archived":false,"percentageOfSessions":null}, {"name":"Astirákion","state":"Crete","territory":"","country":"Greece","latitude":35.31286462,"longitude":24.94547851,"population":282,"stateCapital":false,"nationalCapital":false,"pk":null,"quiz":"europe","code":null,"archived":false,"percentageOfSessions":null}, {"name":"Asfendhilés","state":"Crete","territory":"","country":"Greece","latitude":35.26562642,"longitude":23.73531855,"population":9,"stateCapital":false,"nationalCapital":false,"pk":null,"quiz":"europe","code":null,"archived":false,"percentageOfSessions":null}, {"name":"Asómatos","state":"Crete","territory":"","country":"Greece","latitude":35.18923567,"longitude":24.45191287,"population":243,"stateCapital":false,"nationalCapital":false,"pk":null,"quiz":"europe","code":null,"archived":false,"percentageOfSessions":null}, {"name":"Adzimbrága","state":"Crete","territory":"","country":"Greece","latitude":35.22623655,"longitude":25.69379015,"population":52,"stateCapital":false,"nationalCapital":false,"pk":null,"quiz":"europe","code":null,"archived":false,"percentageOfSessions":null}, {"name":"Atsipádhes","state":"Crete","territory":"","country":"Greece","latitude":35.06872286,"longitude":25.07450289,"population":160,"stateCapital":false,"nationalCapital":false,"pk":null,"quiz":"europe","code":null,"archived":false,"percentageOfSessions":null}, {"name":"Atsipádhes","state":"Crete","territory":"","country":"Greece","latitude":35.22143369,"longitude":24.45020285,"population":30,"stateCapital":false,"nationalCapital":false,"pk":null,"quiz":"europe","code":null,"archived":false,"percentageOfSessions":null}, {"name":"Atsipópulon","state":"Crete","territory":"","country":"Greece","latitude":35.35052241,"longitude":24.43262889,"population":1364,"stateCapital":false,"nationalCapital":false,"pk":null,"quiz":"europe","code":null,"archived":false,"percentageOfSessions":null}, {"name":"Avgenikí","state":"Crete","territory":"","country":"Greece","latitude":35.18629065,"longitude":25.02789586,"population":530,"stateCapital":false,"nationalCapital":false,"pk":null,"quiz":"europe","code":null,"archived":false,"percentageOfSessions":null}, {"name":"Avlí","state":"Crete","territory":"","country":"Greece","latitude":35.11847956,"longitude":25.30661513,"population":249,"stateCapital":false,"nationalCapital":false,"pk":null,"quiz":"europe","code":null,"archived":false,"percentageOfSessions":null}, {"name":"Afrathiás","state":"Crete","territory":"","country":"Greece","latitude":35.05852175,"longitude":24.75098041,"population":35,"stateCapital":false,"nationalCapital":false,"pk":null,"quiz":"europe","code":null,"archived":false,"percentageOfSessions":null}, {"name":"Afráta","state":"Crete","territory":"","country":"Greece","latitude":35.56806012,"longitude":23.76403161,"population":139,"stateCapital":false,"nationalCapital":false,"pk":null,"quiz":"europe","code":null,"archived":false,"percentageOfSessions":null}, {"name":"Afrátion","state":"Crete","territory":"","country":"Greece","latitude":35.10328487,"longitude":25.35255057,"population":146,"stateCapital":false,"nationalCapital":false,"pk":null,"quiz":"europe","code":null,"archived":false,"percentageOfSessions":null}, {"name":"Ahadzikiá","state":"Crete","territory":"","country":"Greece","latitude":35.34962854,"longitude":24.1662115,"population":4,"stateCapital":false,"nationalCapital":false,"pk":null,"quiz":"europe","code":null,"archived":false,"percentageOfSessions":null}, {"name":"Ahendriás","state":"Crete","territory":"","country":"Greece","latitude":34.98883041,"longitude":25.2227901,"population":258,"stateCapital":false,"nationalCapital":false,"pk":null,"quiz":"europe","code":null,"archived":false,"percentageOfSessions":null}, {"name":"Ahládha","state":"Crete","territory":"","country":"Greece","latitude":35.39255286,"longitude":24.99028873,"population":55,"stateCapital":false,"nationalCapital":false,"pk":null,"quiz":"europe","code":null,"archived":false,"percentageOfSessions":null}, {"name":"Ahládhe","state":"Crete","territory":"","country":"Greece","latitude":35.44279345,"longitude":24.02444441,"population":13,"stateCapital":false,"nationalCapital":false,"pk":null,"quiz":"europe","code":null,"archived":false,"percentageOfSessions":null}, {"name":"Ahladhés","state":"Crete","territory":"","country":"Greece","latitude":35.39140066,"longitude":24.71621304,"population":95,"stateCapital":false,"nationalCapital":false,"pk":null,"quiz":"europe","code":null,"archived":false,"percentageOfSessions":null}, {"name":"Ahládhia","state":"Crete","territory":"","country":"Greece","latitude":35.16456917,"longitude":26.052362,"population":196,"stateCapital":false,"nationalCapital":false,"pk":null,"quiz":"europe","code":null,"archived":false,"percentageOfSessions":null}, {"name":"Ahladhiákes","state":"Crete","territory":"","country":"Greece","latitude":35.28013876,"longitude":23.72623179,"population":14,"stateCapital":false,"nationalCapital":false,"pk":null,"quiz":"europe","code":null,"archived":false,"percentageOfSessions":null}, {"name":"Ahliá","state":"Crete","territory":"","country":"Greece","latitude":35.02475453,"longitude":25.88910334,"population":129,"stateCapital":false,"nationalCapital":false,"pk":null,"quiz":"europe","code":null,"archived":false,"percentageOfSessions":null}, {"name":"Vagí","state":"Crete","territory":"","country":"Greece","latitude":35.52037091,"longitude":23.78150924,"population":29,"stateCapital":false,"nationalCapital":false,"pk":null,"quiz":"europe","code":null,"archived":false,"percentageOfSessions":null}, {"name":"Vagioniá","state":"Crete","territory":"","country":"Greece","latitude":35.01126648,"longitude":24.99873949,"population":603,"stateCapital":false,"nationalCapital":false,"pk":null,"quiz":"europe","code":null,"archived":false,"percentageOfSessions":null}, {"name":"Vathianós Kámbos","state":"Crete","territory":"","country":"Greece","latitude":35.32788947,"longitude":25.25083467,"population":1090,"stateCapital":false,"nationalCapital":false,"pk":null,"quiz":"europe","code":null,"archived":false,"percentageOfSessions":null}, {"name":"Váthi","state":"Crete","territory":"","country":"Greece","latitude":35.35468436,"longitude":23.59221812,"population":43,"stateCapital":false,"nationalCapital":false,"pk":null,"quiz":"europe","code":null,"archived":false,"percentageOfSessions":null}, {"name":"Vathiakón","state":"Crete","territory":"","country":"Greece","latitude":35.14362082,"longitude":24.74428825,"population":8,"stateCapital":false,"nationalCapital":false,"pk":null,"quiz":"europe","code":null,"archived":false,"percentageOfSessions":null}, {"name":"Vathí","state":"Crete","territory":"","country":"Greece","latitude":35.14878303,"longitude":25.71628417,"population":587,"stateCapital":false,"nationalCapital":false,"pk":null,"quiz":"europe","code":null,"archived":false,"percentageOfSessions":null}, {"name":"Vathípetro","state":"Crete","territory":"","country":"Greece","latitude":35.20268424,"longitude":25.15739439,"population":13,"stateCapital":false,"nationalCapital":false,"pk":null,"quiz":"europe","code":null,"archived":false,"percentageOfSessions":null}, {"name":"Vainiá","state":"Crete","territory":"","country":"Greece","latitude":35.02231464,"longitude":25.7696862,"population":604,"stateCapital":false,"nationalCapital":false,"pk":null,"quiz":"europe","code":null,"archived":false,"percentageOfSessions":null}, {"name":"Vakióte","state":"Crete","territory":"","country":"Greece","latitude":35.07516114,"longitude":25.28801976,"population":13,"stateCapital":false,"nationalCapital":false,"pk":null,"quiz":"europe","code":null,"archived":false,"percentageOfSessions":null}, {"name":"Valís","state":"Crete","territory":"","country":"Greece","latitude":35.07116444,"longitude":25.02660013,"population":129,"stateCapital":false,"nationalCapital":false,"pk":null,"quiz":"europe","code":null,"archived":false,"percentageOfSessions":null}, {"name":"Váltos","state":"Crete","territory":"","country":"Greece","latitude":35.31606655,"longitude":25.68209082,"population":20,"stateCapital":false,"nationalCapital":false,"pk":null,"quiz":"europe","code":null,"archived":false,"percentageOfSessions":null}, {"name":"Vamvakádhes","state":"Crete","territory":"","country":"Greece","latitude":35.30946925,"longitude":23.75035031,"population":4,"stateCapital":false,"nationalCapital":false,"pk":null,"quiz":"europe","code":null,"archived":false,"percentageOfSessions":null}, {"name":"Vamvakópulon","state":"Crete","territory":"","country":"Greece","latitude":35.4914996,"longitude":23.98746177,"population":2283,"stateCapital":false,"nationalCapital":false,"pk":null,"quiz":"europe","code":null,"archived":false,"percentageOfSessions":null}, {"name":"Vámos","state":"Crete","territory":"","country":"Greece","latitude":35.40626289,"longitude":24.1946377,"population":781,"stateCapital":false,"nationalCapital":false,"pk":null,"quiz":"europe","code":null,"archived":false,"percentageOfSessions":null}, {"name":"Vardhianá","state":"Crete","territory":"","country":"Greece","latitude":35.47341478,"longitude":23.6729115,"population":14,"stateCapital":false,"nationalCapital":false,"pk":null,"quiz":"europe","code":null,"archived":false,"percentageOfSessions":null}, {"name":"Varípetron","state":"Crete","territory":"","country":"Greece","latitude":35.46307873,"longitude":23.960632,"population":549,"stateCapital":false,"nationalCapital":false,"pk":null,"quiz":"europe","code":null,"archived":false,"percentageOfSessions":null}, {"name":"Vasilíe","state":"Crete","territory":"","country":"Greece","latitude":35.26897994,"longitude":25.1334535,"population":1653,"stateCapital":false,"nationalCapital":false,"pk":null,"quiz":"europe","code":null,"archived":false,"percentageOfSessions":null}, {"name":"Vasilianá","state":"Crete","territory":"","country":"Greece","latitude":35.45123175,"longitude":23.76170835,"population":20,"stateCapital":false,"nationalCapital":false,"pk":null,"quiz":"europe","code":null,"archived":false,"percentageOfSessions":null}, {"name":"Vasiliká Anógia","state":"Crete","territory":"","country":"Greece","latitude":35.00521909,"longitude":24.96648507,"population":174,"stateCapital":false,"nationalCapital":false,"pk":null,"quiz":"europe","code":null,"archived":false,"percentageOfSessions":null}, {"name":"Vasilikí","state":"Crete","territory":"","country":"Greece","latitude":34.98259641,"longitude":24.99100267,"population":189,"stateCapital":false,"nationalCapital":false,"pk":null,"quiz":"europe","code":null,"archived":false,"percentageOfSessions":null}, {"name":"Vasilikí","state":"Crete","territory":"","country":"Greece","latitude":35.08309287,"longitude":25.80483004,"population":70,"stateCapital":false,"nationalCapital":false,"pk":null,"quiz":"europe","code":null,"archived":false,"percentageOfSessions":null}, {"name":"Vasilópulon","state":"Crete","territory":"","country":"Greece","latitude":35.48593318,"longitude":23.7460802,"population":56,"stateCapital":false,"nationalCapital":false,"pk":null,"quiz":"europe","code":null,"archived":false,"percentageOfSessions":null}, {"name":"Vatólakkos","state":"Crete","territory":"","country":"Greece","latitude":35.4455935,"longitude":23.88987611,"population":657,"stateCapital":false,"nationalCapital":false,"pk":null,"quiz":"europe","code":null,"archived":false,"percentageOfSessions":null}, {"name":"Vátos","state":"Crete","territory":"","country":"Greece","latitude":34.99624896,"longitude":25.55952143,"population":8,"stateCapital":false,"nationalCapital":false,"pk":null,"quiz":"europe","code":null,"archived":false,"percentageOfSessions":null}, {"name":"Vátos","state":"Crete","territory":"","country":"Greece","latitude":35.17696363,"longitude":24.5411901,"population":32,"stateCapital":false,"nationalCapital":false,"pk":null,"quiz":"europe","code":null,"archived":false,"percentageOfSessions":null}, {"name":"Vatudhiáris","state":"Crete","territory":"","country":"Greece","latitude":35.32933199,"longitude":24.17841483,"population":76,"stateCapital":false,"nationalCapital":false,"pk":null,"quiz":"europe","code":null,"archived":false,"percentageOfSessions":null}, {"name":"Vatsianá","state":"Crete","territory":"","country":"Greece","latitude":34.81921644,"longitude":24.09690905,"population":29,"stateCapital":false,"nationalCapital":false,"pk":null,"quiz":"europe","code":null,"archived":false,"percentageOfSessions":null}, {"name":"Vafés","state":"Crete","territory":"","country":"Greece","latitude":35.35791233,"longitude":24.17245056,"population":205,"stateCapital":false,"nationalCapital":false,"pk":null,"quiz":"europe","code":null,"archived":false,"percentageOfSessions":null}, {"name":"Vahós","state":"Crete","territory":"","country":"Greece","latitude":35.03614034,"longitude":25.43444918,"population":63,"stateCapital":false,"nationalCapital":false,"pk":null,"quiz":"europe","code":null,"archived":false,"percentageOfSessions":null}, {"name":"Vahudhianós Kserókambos","state":"Crete","territory":"","country":"Greece","latitude":34.99022686,"longitude":25.41681022,"population":52,"stateCapital":false,"nationalCapital":false,"pk":null,"quiz":"europe","code":null,"archived":false,"percentageOfSessions":null}, {"name":"Vedhéri","state":"Crete","territory":"","country":"Greece","latitude":35.3391426,"longitude":24.41176728,"population":37,"stateCapital":false,"nationalCapital":false,"pk":null,"quiz":"europe","code":null,"archived":false,"percentageOfSessions":null}, {"name":"Velonádhon","state":"Crete","territory":"","country":"Greece","latitude":35.25813319,"longitude":24.35308971,"population":87,"stateCapital":false,"nationalCapital":false,"pk":null,"quiz":"europe","code":null,"archived":false,"percentageOfSessions":null}, {"name":"Velúlion","state":"Crete","territory":"","country":"Greece","latitude":35.05436919,"longitude":25.12599608,"population":1,"stateCapital":false,"nationalCapital":false,"pk":null,"quiz":"europe","code":null,"archived":false,"percentageOfSessions":null}, {"name":"Veneráton","state":"Crete","territory":"","country":"Greece","latitude":35.19463122,"longitude":25.03797513,"population":834,"stateCapital":false,"nationalCapital":false,"pk":null,"quiz":"europe","code":null,"archived":false,"percentageOfSessions":null}, {"name":"Veníon","state":"Crete","territory":"","country":"Greece","latitude":35.31685599,"longitude":24.82746998,"population":188,"stateCapital":false,"nationalCapital":false,"pk":null,"quiz":"europe","code":null,"archived":false,"percentageOfSessions":null}, {"name":"Vénion","state":"Crete","territory":"","country":"Greece","latitude":35.51803953,"longitude":23.75443328,"population":6,"stateCapital":false,"nationalCapital":false,"pk":null,"quiz":"europe","code":null,"archived":false,"percentageOfSessions":null}, {"name":"Vergianá","state":"Crete","territory":"","country":"Greece","latitude":35.34095341,"longitude":24.67938365,"population":9,"stateCapital":false,"nationalCapital":false,"pk":null,"quiz":"europe","code":null,"archived":false,"percentageOfSessions":null}, {"name":"Vígla","state":"Crete","territory":"","country":"Greece","latitude":35.2140004,"longitude":26.26062922,"population":21,"stateCapital":false,"nationalCapital":false,"pk":null,"quiz":"europe","code":null,"archived":false,"percentageOfSessions":null}, {"name":"Vizárion","state":"Crete","territory":"","country":"Greece","latitude":35.20595329,"longitude":24.69971807,"population":89,"stateCapital":false,"nationalCapital":false,"pk":null,"quiz":"europe","code":null,"archived":false,"percentageOfSessions":null}, {"name":"Vilandhrédhon","state":"Crete","territory":"","country":"Greece","latitude":35.25697768,"longitude":24.33602109,"population":69,"stateCapital":false,"nationalCapital":false,"pk":null,"quiz":"europe","code":null,"archived":false,"percentageOfSessions":null}, {"name":"Violí Haráki","state":"Crete","territory":"","country":"Greece","latitude":35.35789368,"longitude":24.43835853,"population":2772,"stateCapital":false,"nationalCapital":false,"pk":null,"quiz":"europe","code":null,"archived":false,"percentageOfSessions":null}, {"name":"Viranepiskopí","state":"Crete","territory":"","country":"Greece","latitude":35.36727654,"longitude":24.61449454,"population":121,"stateCapital":false,"nationalCapital":false,"pk":null,"quiz":"europe","code":null,"archived":false,"percentageOfSessions":null}, {"name":"Vistagí","state":"Crete","territory":"","country":"Greece","latitude":35.24472309,"longitude":24.67521164,"population":201,"stateCapital":false,"nationalCapital":false,"pk":null,"quiz":"europe","code":null,"archived":false,"percentageOfSessions":null}, {"name":"Vlátos","state":"Crete","territory":"","country":"Greece","latitude":35.38737277,"longitude":23.65970266,"population":113,"stateCapital":false,"nationalCapital":false,"pk":null,"quiz":"europe","code":null,"archived":false,"percentageOfSessions":null}, {"name":"Vlaheronítissa","state":"Crete","territory":"","country":"Greece","latitude":35.50987247,"longitude":23.82411835,"population":146,"stateCapital":false,"nationalCapital":false,"pk":null,"quiz":"europe","code":null,"archived":false,"percentageOfSessions":null}, {"name":"Vláhidhes","state":"Crete","territory":"","country":"Greece","latitude":35.20899343,"longitude":25.65967021,"population":22,"stateCapital":false,"nationalCapital":false,"pk":null,"quiz":"europe","code":null,"archived":false,"percentageOfSessions":null}, {"name":"Vlahianá","state":"Crete","territory":"","country":"Greece","latitude":35.18537404,"longitude":25.0166703,"population":10,"stateCapital":false,"nationalCapital":false,"pk":null,"quiz":"europe","code":null,"archived":false,"percentageOfSessions":null}, {"name":"Vlithiás","state":"Crete","territory":"","country":"Greece","latitude":35.27882946,"longitude":23.68673858,"population":17,"stateCapital":false,"nationalCapital":false,"pk":null,"quiz":"europe","code":null,"archived":false,"percentageOfSessions":null}, {"name":"Vlihádhia","state":"Crete","territory":"","country":"Greece","latitude":35.33383634,"longitude":25.68398546,"population":7,"stateCapital":false,"nationalCapital":false,"pk":null,"quiz":"europe","code":null,"archived":false,"percentageOfSessions":null}, {"name":"Vlihádha","state":"Crete","territory":"","country":"Greece","latitude":35.39571614,"longitude":24.78073525,"population":163,"stateCapital":false,"nationalCapital":false,"pk":null,"quiz":"europe","code":null,"archived":false,"percentageOfSessions":null}, {"name":"Vlihiá","state":"Crete","territory":"","country":"Greece","latitude":35.29018784,"longitude":25.16191394,"population":52,"stateCapital":false,"nationalCapital":false,"pk":null,"quiz":"europe","code":null,"archived":false,"percentageOfSessions":null}, {"name":"Vóni","state":"Crete","territory":"","country":"Greece","latitude":35.19251305,"longitude":25.24505873,"population":505,"stateCapital":false,"nationalCapital":false,"pk":null,"quiz":"europe","code":null,"archived":false,"percentageOfSessions":null}, {"name":"Voriás","state":"Crete","territory":"","country":"Greece","latitude":35.09721499,"longitude":25.1142043,"population":55,"stateCapital":false,"nationalCapital":false,"pk":null,"quiz":"europe","code":null,"archived":false,"percentageOfSessions":null}, {"name":"Vorízia","state":"Crete","territory":"","country":"Greece","latitude":35.14714424,"longitude":24.84569747,"population":493,"stateCapital":false,"nationalCapital":false,"pk":null,"quiz":"europe","code":null,"archived":false,"percentageOfSessions":null}, {"name":"Voríon","state":"Crete","territory":"","country":"Greece","latitude":35.08879545,"longitude":26.06143709,"population":13,"stateCapital":false,"nationalCapital":false,"pk":null,"quiz":"europe","code":null,"archived":false,"percentageOfSessions":null}, {"name":"Vorós","state":"Crete","territory":"","country":"Greece","latitude":35.28246639,"longitude":25.29859723,"population":41,"stateCapital":false,"nationalCapital":false,"pk":null,"quiz":"europe","code":null,"archived":false,"percentageOfSessions":null}, {"name":"Vorrós","state":"Crete","territory":"","country":"Greece","latitude":35.07995903,"longitude":25.03269851,"population":12,"stateCapital":false,"nationalCapital":false,"pk":null,"quiz":"europe","code":null,"archived":false,"percentageOfSessions":null}, {"name":"Vúve","state":"Crete","territory":"","country":"Greece","latitude":35.49377384,"longitude":23.78462904,"population":135,"stateCapital":false,"nationalCapital":false,"pk":null,"quiz":"europe","code":null,"archived":false,"percentageOfSessions":null}, {"name":"Vuvás","state":"Crete","territory":"","country":"Greece","latitude":35.20901265,"longitude":24.18765434,"population":150,"stateCapital":false,"nationalCapital":false,"pk":null,"quiz":"europe","code":null,"archived":false,"percentageOfSessions":null}, {"name":"Vukolié","state":"Crete","territory":"","country":"Greece","latitude":35.46457568,"longitude":23.79864921,"population":726,"stateCapital":false,"nationalCapital":false,"pk":null,"quiz":"europe","code":null,"archived":false,"percentageOfSessions":null}, {"name":"Vulgáro","state":"Crete","territory":"","country":"Greece","latitude":35.45070777,"longitude":23.69686454,"population":201,"stateCapital":false,"nationalCapital":false,"pk":null,"quiz":"europe","code":null,"archived":false,"percentageOfSessions":null}, {"name":"Vulisméni","state":"Crete","territory":"","country":"Greece","latitude":35.25922342,"longitude":25.58868531,"population":340,"stateCapital":false,"nationalCapital":false,"pk":null,"quiz":"europe","code":null,"archived":false,"percentageOfSessions":null}, {"name":"Vurvulítis","state":"Crete","territory":"","country":"Greece","latitude":35.07543743,"longitude":24.97861392,"population":84,"stateCapital":false,"nationalCapital":false,"pk":null,"quiz":"europe","code":null,"archived":false,"percentageOfSessions":null}, {"name":"Vúte","state":"Crete","territory":"","country":"Greece","latitude":35.2623016,"longitude":25.05495496,"population":658,"stateCapital":false,"nationalCapital":false,"pk":null,"quiz":"europe","code":null,"archived":false,"percentageOfSessions":null}, {"name":"Vutás","state":"Crete","territory":"","country":"Greece","latitude":35.28910563,"longitude":23.64209204,"population":57,"stateCapital":false,"nationalCapital":false,"pk":null,"quiz":"europe","code":null,"archived":false,"percentageOfSessions":null}, {"name":"Vraskás","state":"Crete","territory":"","country":"Greece","latitude":35.20651576,"longitude":24.17466851,"population":6,"stateCapital":false,"nationalCapital":false,"pk":null,"quiz":"europe","code":null,"archived":false,"percentageOfSessions":null}, {"name":"Vrahásion","state":"Crete","territory":"","country":"Greece","latitude":35.27083076,"longitude":25.56252314,"population":306,"stateCapital":false,"nationalCapital":false,"pk":null,"quiz":"europe","code":null,"archived":false,"percentageOfSessions":null}, {"name":"Vrahókipos","state":"Crete","territory":"","country":"Greece","latitude":35.32022499,"longitude":25.25109305,"population":333,"stateCapital":false,"nationalCapital":false,"pk":null,"quiz":"europe","code":null,"archived":false,"percentageOfSessions":null}, {"name":"Vruhás","state":"Crete","territory":"","country":"Greece","latitude":35.31458556,"longitude":25.73249019,"population":142,"stateCapital":false,"nationalCapital":false,"pk":null,"quiz":"europe","code":null,"archived":false,"percentageOfSessions":null}, {"name":"Vríse","state":"Crete","territory":"","country":"Greece","latitude":35.23726534,"longitude":25.61291379,"population":284,"stateCapital":false,"nationalCapital":false,"pk":null,"quiz":"europe","code":null,"archived":false,"percentageOfSessions":null}, {"name":"Vríse","state":"Crete","territory":"","country":"Greece","latitude":35.20217919,"longitude":24.63460737,"population":85,"stateCapital":false,"nationalCapital":false,"pk":null,"quiz":"europe","code":null,"archived":false,"percentageOfSessions":null}, {"name":"Vríse","state":"Crete","territory":"","country":"Greece","latitude":35.20217919,"longitude":24.63460737,"population":89,"stateCapital":false,"nationalCapital":false,"pk":null,"quiz":"europe","code":null,"archived":false,"percentageOfSessions":null}, {"name":"Vríse","state":"Crete","territory":"","country":"Greece","latitude":35.48942274,"longitude":23.88831532,"population":175,"stateCapital":false,"nationalCapital":false,"pk":null,"quiz":"europe","code":null,"archived":false,"percentageOfSessions":null}, {"name":"Vríses","state":"Crete","territory":"","country":"Greece","latitude":35.37196647,"longitude":24.20005481,"population":732,"stateCapital":false,"nationalCapital":false,"pk":null,"quiz":"europe","code":null,"archived":false,"percentageOfSessions":null}, {"name":"Vrisídhion","state":"Crete","territory":"","country":"Greece","latitude":35.14298309,"longitude":26.18603503,"population":21,"stateCapital":false,"nationalCapital":false,"pk":null,"quiz":"europe","code":null,"archived":false,"percentageOfSessions":null}, {"name":"Voleónes","state":"Crete","territory":"","country":"Greece","latitude":35.26774402,"longitude":24.58682899,"population":108,"stateCapital":false,"nationalCapital":false,"pk":null,"quiz":"europe","code":null,"archived":false,"percentageOfSessions":null}, {"name":"Vóri","state":"Crete","territory":"","country":"Greece","latitude":35.06570347,"longitude":24.810428,"population":738,"stateCapital":false,"nationalCapital":false,"pk":null,"quiz":"europe","code":null,"archived":false,"percentageOfSessions":null}, {"name":"Gavalomúrion","state":"Crete","territory":"","country":"Greece","latitude":35.48186328,"longitude":23.79627058,"population":81,"stateCapital":false,"nationalCapital":false,"pk":null,"quiz":"europe","code":null,"archived":false,"percentageOfSessions":null}, {"name":"Gavalohórion","state":"Crete","territory":"","country":"Greece","latitude":35.42233523,"longitude":24.21057171,"population":537,"stateCapital":false,"nationalCapital":false,"pk":null,"quiz":"europe","code":null,"archived":false,"percentageOfSessions":null}, {"name":"Gavrílis","state":"Crete","territory":"","country":"Greece","latitude":35.01816113,"longitude":25.62297179,"population":19,"stateCapital":false,"nationalCapital":false,"pk":null,"quiz":"europe","code":null,"archived":false,"percentageOfSessions":null}, {"name":"Gázion","state":"Crete","territory":"","country":"Greece","latitude":35.32431721,"longitude":25.0631611,"population":14466,"stateCapital":false,"nationalCapital":false,"pk":null,"quiz":"europe","code":null,"archived":false,"percentageOfSessions":null}, {"name":"Galatás","state":"Crete","territory":"","country":"Greece","latitude":35.18000361,"longitude":25.2453909,"population":84,"stateCapital":false,"nationalCapital":false,"pk":null,"quiz":"europe","code":null,"archived":false,"percentageOfSessions":null}, {"name":"Galatás","state":"Crete","territory":"","country":"Greece","latitude":35.49644103,"longitude":23.96128147,"population":3491,"stateCapital":false,"nationalCapital":false,"pk":null,"quiz":"europe","code":null,"archived":false,"percentageOfSessions":null}, {"name":"Galenianón","state":"Crete","territory":"","country":"Greece","latitude":35.20575924,"longitude":25.31719276,"population":42,"stateCapital":false,"nationalCapital":false,"pk":null,"quiz":"europe","code":null,"archived":false,"percentageOfSessions":null}, {"name":"Galénion","state":"Crete","territory":"","country":"Greece","latitude":35.16821325,"longitude":25.08524896,"population":27,"stateCapital":false,"nationalCapital":false,"pk":null,"quiz":"europe","code":null,"archived":false,"percentageOfSessions":null}, {"name":"Galíni","state":"Crete","territory":"","country":"Greece","latitude":35.02161119,"longitude":25.88036567,"population":112,"stateCapital":false,"nationalCapital":false,"pk":null,"quiz":"europe","code":null,"archived":false,"percentageOfSessions":null}, {"name":"Galíni","state":"Crete","territory":"","country":"Greece","latitude":35.58756229,"longitude":24.09524635,"population":48,"stateCapital":false,"nationalCapital":false,"pk":null,"quiz":"europe","code":null,"archived":false,"percentageOfSessions":null}, {"name":"Galiá","state":"Crete","territory":"","country":"Greece","latitude":35.07404808,"longitude":24.86788379,"population":790,"stateCapital":false,"nationalCapital":false,"pk":null,"quiz":"europe","code":null,"archived":false,"percentageOfSessions":null}, {"name":"Gálipe","state":"Crete","territory":"","country":"Greece","latitude":35.27679382,"longitude":25.26570341,"population":100,"stateCapital":false,"nationalCapital":false,"pk":null,"quiz":"europe","code":null,"archived":false,"percentageOfSessions":null}, {"name":"Galífa","state":"Crete","territory":"","country":"Greece","latitude":35.25962115,"longitude":25.27966726,"population":122,"stateCapital":false,"nationalCapital":false,"pk":null,"quiz":"europe","code":null,"archived":false,"percentageOfSessions":null}, {"name":"Gállos","state":"Crete","territory":"","country":"Greece","latitude":35.34477645,"longitude":24.45018147,"population":911,"stateCapital":false,"nationalCapital":false,"pk":null,"quiz":"europe","code":null,"archived":false,"percentageOfSessions":null}, {"name":"Galuvás","state":"Crete","territory":"","country":"Greece","latitude":35.4573417,"longitude":23.63933681,"population":15,"stateCapital":false,"nationalCapital":false,"pk":null,"quiz":"europe","code":null,"archived":false,"percentageOfSessions":null}, {"name":"Garázon","state":"Crete","territory":"","country":"Greece","latitude":35.34225806,"longitude":24.78764913,"population":328,"stateCapital":false,"nationalCapital":false,"pk":null,"quiz":"europe","code":null,"archived":false,"percentageOfSessions":null}, {"name":"Garípa","state":"Crete","territory":"","country":"Greece","latitude":35.07510046,"longitude":25.24448781,"population":351,"stateCapital":false,"nationalCapital":false,"pk":null,"quiz":"europe","code":null,"archived":false,"percentageOfSessions":null}, {"name":"Garípas","state":"Crete","territory":"","country":"Greece","latitude":35.32459946,"longitude":24.72818161,"population":19,"stateCapital":false,"nationalCapital":false,"pk":null,"quiz":"europe","code":null,"archived":false,"percentageOfSessions":null}, {"name":"Gdhóhia","state":"Crete","territory":"","country":"Greece","latitude":35.01700102,"longitude":25.55383529,"population":66,"stateCapital":false,"nationalCapital":false,"pk":null,"quiz":"europe","code":null,"archived":false,"percentageOfSessions":null}, {"name":"Gení","state":"Crete","territory":"","country":"Greece","latitude":35.26582065,"longitude":24.51239941,"population":33,"stateCapital":false,"nationalCapital":false,"pk":null,"quiz":"europe","code":null,"archived":false,"percentageOfSessions":null}, {"name":"Génna","state":"Crete","territory":"","country":"Greece","latitude":35.12559152,"longitude":25.08348084,"population":36,"stateCapital":false,"nationalCapital":false,"pk":null,"quiz":"europe","code":null,"archived":false,"percentageOfSessions":null}, {"name":"Génna","state":"Crete","territory":"","country":"Greece","latitude":35.24782249,"longitude":24.63712333,"population":25,"stateCapital":false,"nationalCapital":false,"pk":null,"quiz":"europe","code":null,"archived":false,"percentageOfSessions":null}, {"name":"Gerakárion","state":"Crete","territory":"","country":"Greece","latitude":35.21010928,"longitude":24.60416473,"population":291,"stateCapital":false,"nationalCapital":false,"pk":null,"quiz":"europe","code":null,"archived":false,"percentageOfSessions":null}, {"name":"Gerakianá","state":"Crete","territory":"","country":"Greece","latitude":35.49898826,"longitude":23.75973629,"population":31,"stateCapital":false,"nationalCapital":false,"pk":null,"quiz":"europe","code":null,"archived":false,"percentageOfSessions":null}, {"name":"Gerákion","state":"Crete","territory":"","country":"Greece","latitude":35.14935016,"longitude":25.35041295,"population":277,"stateCapital":false,"nationalCapital":false,"pk":null,"quiz":"europe","code":null,"archived":false,"percentageOfSessions":null},