{"cities":[{"name":"Avrámis","state":"Ionian Islands","territory":"","country":"Greece","latitude":39.5858711,"longitude":19.82272204,"population":4,"stateCapital":false,"nationalCapital":false,"pk":null,"quiz":"europe","code":null,"archived":false,"percentageOfSessions":null}, {"name":"Agalás","state":"Ionian Islands","territory":"","country":"Greece","latitude":37.70598287,"longitude":20.77244825,"population":331,"stateCapital":false,"nationalCapital":false,"pk":null,"quiz":"europe","code":null,"archived":false,"percentageOfSessions":null}, {"name":"Agía Ánna","state":"Ionian Islands","territory":"","country":"Greece","latitude":39.69330772,"longitude":19.7231408,"population":81,"stateCapital":false,"nationalCapital":false,"pk":null,"quiz":"europe","code":null,"archived":false,"percentageOfSessions":null}, {"name":"Agía Iríni","state":"Ionian Islands","territory":"","country":"Greece","latitude":38.12002122,"longitude":20.75410695,"population":305,"stateCapital":false,"nationalCapital":false,"pk":null,"quiz":"europe","code":null,"archived":false,"percentageOfSessions":null}, {"name":"Agía Effimía","state":"Ionian Islands","territory":"","country":"Greece","latitude":38.30077648,"longitude":20.59594642,"population":535,"stateCapital":false,"nationalCapital":false,"pk":null,"quiz":"europe","code":null,"archived":false,"percentageOfSessions":null}, {"name":"Agía Thékli","state":"Ionian Islands","territory":"","country":"Greece","latitude":37.86826852,"longitude":20.70305518,"population":35,"stateCapital":false,"nationalCapital":false,"pk":null,"quiz":"europe","code":null,"archived":false,"percentageOfSessions":null}, {"name":"Agía Thékli","state":"Ionian Islands","territory":"","country":"Greece","latitude":38.24294998,"longitude":20.38335821,"population":214,"stateCapital":false,"nationalCapital":false,"pk":null,"quiz":"europe","code":null,"archived":false,"percentageOfSessions":null}, {"name":"Agía Marína","state":"Ionian Islands","territory":"","country":"Greece","latitude":37.78874877,"longitude":20.77271863,"population":164,"stateCapital":false,"nationalCapital":false,"pk":null,"quiz":"europe","code":null,"archived":false,"percentageOfSessions":null}, {"name":"Agía Paraskeví","state":"Ionian Islands","territory":"","country":"Greece","latitude":39.75793865,"longitude":19.7469336,"population":90,"stateCapital":false,"nationalCapital":false,"pk":null,"quiz":"europe","code":null,"archived":false,"percentageOfSessions":null}, {"name":"Agía Pelagía","state":"Ionian Islands","territory":"","country":"Greece","latitude":39.76331043,"longitude":19.65378277,"population":131,"stateCapital":false,"nationalCapital":false,"pk":null,"quiz":"europe","code":null,"archived":false,"percentageOfSessions":null}, {"name":"Agía Sofía","state":"Ionian Islands","territory":"","country":"Greece","latitude":38.369363,"longitude":20.61049352,"population":10,"stateCapital":false,"nationalCapital":false,"pk":null,"quiz":"europe","code":null,"archived":false,"percentageOfSessions":null}, {"name":"Agía Triás","state":"Ionian Islands","territory":"","country":"Greece","latitude":39.60467237,"longitude":19.84087414,"population":191,"stateCapital":false,"nationalCapital":false,"pk":null,"quiz":"europe","code":null,"archived":false,"percentageOfSessions":null}, {"name":"Ágii Apóstoli Valsamáton","state":"Ionian Islands","territory":"","country":"Greece","latitude":38.17206639,"longitude":20.59210129,"population":4,"stateCapital":false,"nationalCapital":false,"pk":null,"quiz":"europe","code":null,"archived":false,"percentageOfSessions":null}, {"name":"Ágii Dhéka","state":"Ionian Islands","territory":"","country":"Greece","latitude":39.55214402,"longitude":19.88515612,"population":374,"stateCapital":false,"nationalCapital":false,"pk":null,"quiz":"europe","code":null,"archived":false,"percentageOfSessions":null}, {"name":"Ágii Dhúli","state":"Ionian Islands","territory":"","country":"Greece","latitude":39.7452629,"longitude":19.75423637,"population":184,"stateCapital":false,"nationalCapital":false,"pk":null,"quiz":"europe","code":null,"archived":false,"percentageOfSessions":null}, {"name":"Ágii Pándes","state":"Ionian Islands","territory":"","country":"Greece","latitude":37.7785627,"longitude":20.78339242,"population":341,"stateCapital":false,"nationalCapital":false,"pk":null,"quiz":"europe","code":null,"archived":false,"percentageOfSessions":null}, {"name":"Ágios Athanásios","state":"Ionian Islands","territory":"","country":"Greece","latitude":39.7226905,"longitude":19.71738098,"population":194,"stateCapital":false,"nationalCapital":false,"pk":null,"quiz":"europe","code":null,"archived":false,"percentageOfSessions":null}, {"name":"Ágios Vasílios","state":"Ionian Islands","territory":"","country":"Greece","latitude":39.68424168,"longitude":19.81476654,"population":218,"stateCapital":false,"nationalCapital":false,"pk":null,"quiz":"europe","code":null,"archived":false,"percentageOfSessions":null}, {"name":"Ágios Vasílios","state":"Ionian Islands","territory":"","country":"Greece","latitude":38.20897423,"longitude":20.41906965,"population":192,"stateCapital":false,"nationalCapital":false,"pk":null,"quiz":"europe","code":null,"archived":false,"percentageOfSessions":null}, {"name":"Ágios Vlásios","state":"Ionian Islands","territory":"","country":"Greece","latitude":39.60998769,"longitude":19.86198059,"population":211,"stateCapital":false,"nationalCapital":false,"pk":null,"quiz":"europe","code":null,"archived":false,"percentageOfSessions":null}, {"name":"Ágios Geórgios (T.K.Armenádhon)","state":"Ionian Islands","territory":"","country":"Greece","latitude":39.42360458,"longitude":19.94669558,"population":230,"stateCapital":false,"nationalCapital":false,"pk":null,"quiz":"europe","code":null,"archived":false,"percentageOfSessions":null}, {"name":"Ágios Geórgios (T.K.Págon)","state":"Ionian Islands","territory":"","country":"Greece","latitude":39.42360458,"longitude":19.94669558,"population":66,"stateCapital":false,"nationalCapital":false,"pk":null,"quiz":"europe","code":null,"archived":false,"percentageOfSessions":null}, {"name":"Ágios Geórgios","state":"Ionian Islands","territory":"","country":"Greece","latitude":39.42360458,"longitude":19.94669558,"population":87,"stateCapital":false,"nationalCapital":false,"pk":null,"quiz":"europe","code":null,"archived":false,"percentageOfSessions":null}, {"name":"Ágios Geórgios","state":"Ionian Islands","territory":"","country":"Greece","latitude":39.42360458,"longitude":19.94669558,"population":601,"stateCapital":false,"nationalCapital":false,"pk":null,"quiz":"europe","code":null,"archived":false,"percentageOfSessions":null}, {"name":"Ágios Górdhios","state":"Ionian Islands","territory":"","country":"Greece","latitude":39.54176148,"longitude":19.85086581,"population":578,"stateCapital":false,"nationalCapital":false,"pk":null,"quiz":"europe","code":null,"archived":false,"percentageOfSessions":null}, {"name":"Ágios Dhimítrios","state":"Ionian Islands","territory":"","country":"Greece","latitude":39.45780009,"longitude":19.9480324,"population":87,"stateCapital":false,"nationalCapital":false,"pk":null,"quiz":"europe","code":null,"archived":false,"percentageOfSessions":null}, {"name":"Ágios Dhimítrios","state":"Ionian Islands","territory":"","country":"Greece","latitude":37.79745037,"longitude":20.79604462,"population":531,"stateCapital":false,"nationalCapital":false,"pk":null,"quiz":"europe","code":null,"archived":false,"percentageOfSessions":null}, {"name":"Ágios Dhimítrios","state":"Ionian Islands","territory":"","country":"Greece","latitude":38.23083899,"longitude":20.42616452,"population":145,"stateCapital":false,"nationalCapital":false,"pk":null,"quiz":"europe","code":null,"archived":false,"percentageOfSessions":null}, {"name":"Ágios Ilías","state":"Ionian Islands","territory":"","country":"Greece","latitude":39.79412197,"longitude":19.87242325,"population":219,"stateCapital":false,"nationalCapital":false,"pk":null,"quiz":"europe","code":null,"archived":false,"percentageOfSessions":null}, {"name":"Ágios Ilías","state":"Ionian Islands","territory":"","country":"Greece","latitude":38.68742993,"longitude":20.64542824,"population":124,"stateCapital":false,"nationalCapital":false,"pk":null,"quiz":"europe","code":null,"archived":false,"percentageOfSessions":null}, {"name":"Ágios Ioánnis","state":"Ionian Islands","territory":"","country":"Greece","latitude":39.7863494,"longitude":19.72273256,"population":219,"stateCapital":false,"nationalCapital":false,"pk":null,"quiz":"europe","code":null,"archived":false,"percentageOfSessions":null}, {"name":"Ágios Ioánnis","state":"Ionian Islands","territory":"","country":"Greece","latitude":39.7863494,"longitude":19.72273256,"population":584,"stateCapital":false,"nationalCapital":false,"pk":null,"quiz":"europe","code":null,"archived":false,"percentageOfSessions":null}, {"name":"Ágios Ioánnis","state":"Ionian Islands","territory":"","country":"Greece","latitude":37.72784095,"longitude":20.94502106,"population":8,"stateCapital":false,"nationalCapital":false,"pk":null,"quiz":"europe","code":null,"archived":false,"percentageOfSessions":null}, {"name":"Ágios Ioánnis","state":"Ionian Islands","territory":"","country":"Greece","latitude":38.3906244,"longitude":20.65606755,"population":8,"stateCapital":false,"nationalCapital":false,"pk":null,"quiz":"europe","code":null,"archived":false,"percentageOfSessions":null}, {"name":"Ágios Ioánnis Peristerón","state":"Ionian Islands","territory":"","country":"Greece","latitude":39.49798385,"longitude":19.92122855,"population":452,"stateCapital":false,"nationalCapital":false,"pk":null,"quiz":"europe","code":null,"archived":false,"percentageOfSessions":null}, {"name":"Ágios Kírikos","state":"Ionian Islands","territory":"","country":"Greece","latitude":37.78724597,"longitude":20.82959632,"population":727,"stateCapital":false,"nationalCapital":false,"pk":null,"quiz":"europe","code":null,"archived":false,"percentageOfSessions":null}, {"name":"Ágios Léon","state":"Ionian Islands","territory":"","country":"Greece","latitude":37.76750806,"longitude":20.71670999,"population":382,"stateCapital":false,"nationalCapital":false,"pk":null,"quiz":"europe","code":null,"archived":false,"percentageOfSessions":null}, {"name":"Ágios Márkos","state":"Ionian Islands","territory":"","country":"Greece","latitude":39.7076968,"longitude":19.8223281,"population":67,"stateCapital":false,"nationalCapital":false,"pk":null,"quiz":"europe","code":null,"archived":false,"percentageOfSessions":null}, {"name":"Ágios Martínos","state":"Ionian Islands","territory":"","country":"Greece","latitude":39.78637207,"longitude":19.84517462,"population":115,"stateCapital":false,"nationalCapital":false,"pk":null,"quiz":"europe","code":null,"archived":false,"percentageOfSessions":null}, {"name":"Ágios Matthéos","state":"Ionian Islands","territory":"","country":"Greece","latitude":39.49132322,"longitude":19.87125604,"population":1057,"stateCapital":false,"nationalCapital":false,"pk":null,"quiz":"europe","code":null,"archived":false,"percentageOfSessions":null}, {"name":"Ágios Nikítas","state":"Ionian Islands","territory":"","country":"Greece","latitude":38.78615909,"longitude":20.61243738,"population":106,"stateCapital":false,"nationalCapital":false,"pk":null,"quiz":"europe","code":null,"archived":false,"percentageOfSessions":null}, {"name":"Ágios Nikólaos","state":"Ionian Islands","territory":"","country":"Greece","latitude":39.43819471,"longitude":19.99676348,"population":313,"stateCapital":false,"nationalCapital":false,"pk":null,"quiz":"europe","code":null,"archived":false,"percentageOfSessions":null}, {"name":"Ágios Nikólaos","state":"Ionian Islands","territory":"","country":"Greece","latitude":37.90177731,"longitude":20.70592513,"population":30,"stateCapital":false,"nationalCapital":false,"pk":null,"quiz":"europe","code":null,"archived":false,"percentageOfSessions":null}, {"name":"Ágios Nikólaos","state":"Ionian Islands","territory":"","country":"Greece","latitude":38.16369609,"longitude":20.7126556,"population":91,"stateCapital":false,"nationalCapital":false,"pk":null,"quiz":"europe","code":null,"archived":false,"percentageOfSessions":null}, {"name":"Ágios Nikólaos Nirás","state":"Ionian Islands","territory":"","country":"Greece","latitude":38.59204182,"longitude":20.55474454,"population":9,"stateCapital":false,"nationalCapital":false,"pk":null,"quiz":"europe","code":null,"archived":false,"percentageOfSessions":null}, {"name":"Ágios Onúfrios","state":"Ionian Islands","territory":"","country":"Greece","latitude":39.59668294,"longitude":19.81459872,"population":36,"stateCapital":false,"nationalCapital":false,"pk":null,"quiz":"europe","code":null,"archived":false,"percentageOfSessions":null}, {"name":"Ágios Pandeleímon","state":"Ionian Islands","territory":"","country":"Greece","latitude":39.76806874,"longitude":19.77671161,"population":25,"stateCapital":false,"nationalCapital":false,"pk":null,"quiz":"europe","code":null,"archived":false,"percentageOfSessions":null}, {"name":"Ágios Pétros","state":"Ionian Islands","territory":"","country":"Greece","latitude":38.66382309,"longitude":20.60245353,"population":422,"stateCapital":false,"nationalCapital":false,"pk":null,"quiz":"europe","code":null,"archived":false,"percentageOfSessions":null}, {"name":"Ágios Prokópios","state":"Ionian Islands","territory":"","country":"Greece","latitude":39.56841689,"longitude":19.87300377,"population":377,"stateCapital":false,"nationalCapital":false,"pk":null,"quiz":"europe","code":null,"archived":false,"percentageOfSessions":null}, {"name":"Ágios Stéfanos","state":"Ionian Islands","territory":"","country":"Greece","latitude":39.75052116,"longitude":19.64056006,"population":348,"stateCapital":false,"nationalCapital":false,"pk":null,"quiz":"europe","code":null,"archived":false,"percentageOfSessions":null}, {"name":"Ágios Stéfanos","state":"Ionian Islands","territory":"","country":"Greece","latitude":39.75052116,"longitude":19.64056006,"population":230,"stateCapital":false,"nationalCapital":false,"pk":null,"quiz":"europe","code":null,"archived":false,"percentageOfSessions":null}, {"name":"Ágios Stéfanos","state":"Ionian Islands","territory":"","country":"Greece","latitude":39.75052116,"longitude":19.64056006,"population":87,"stateCapital":false,"nationalCapital":false,"pk":null,"quiz":"europe","code":null,"archived":false,"percentageOfSessions":null}, {"name":"Ágios Hristóforos","state":"Ionian Islands","territory":"","country":"Greece","latitude":38.69870603,"longitude":20.68773173,"population":141,"stateCapital":false,"nationalCapital":false,"pk":null,"quiz":"europe","code":null,"archived":false,"percentageOfSessions":null}, {"name":"Anġón","state":"Ionian Islands","territory":"","country":"Greece","latitude":38.29839215,"longitude":20.4835851,"population":164,"stateCapital":false,"nationalCapital":false,"pk":null,"quiz":"europe","code":null,"archived":false,"percentageOfSessions":null}, {"name":"Agnítsini","state":"Ionian Islands","territory":"","country":"Greece","latitude":39.75686526,"longitude":19.93209406,"population":119,"stateCapital":false,"nationalCapital":false,"pk":null,"quiz":"europe","code":null,"archived":false,"percentageOfSessions":null}, {"name":"Agrafí","state":"Ionian Islands","territory":"","country":"Greece","latitude":39.76300095,"longitude":19.74254322,"population":175,"stateCapital":false,"nationalCapital":false,"pk":null,"quiz":"europe","code":null,"archived":false,"percentageOfSessions":null}, {"name":"Agriliás","state":"Ionian Islands","territory":"","country":"Greece","latitude":38.44154834,"longitude":20.5463925,"population":44,"stateCapital":false,"nationalCapital":false,"pk":null,"quiz":"europe","code":null,"archived":false,"percentageOfSessions":null}, {"name":"Agrós","state":"Ionian Islands","territory":"","country":"Greece","latitude":39.71753204,"longitude":19.72228301,"population":276,"stateCapital":false,"nationalCapital":false,"pk":null,"quiz":"europe","code":null,"archived":false,"percentageOfSessions":null}, {"name":"Aetós","state":"Ionian Islands","territory":"","country":"Greece","latitude":38.36006721,"longitude":20.67694004,"population":15,"stateCapital":false,"nationalCapital":false,"pk":null,"quiz":"europe","code":null,"archived":false,"percentageOfSessions":null}, {"name":"Ái Giánnis","state":"Ionian Islands","territory":"","country":"Greece","latitude":37.69142166,"longitude":20.8246259,"population":8,"stateCapital":false,"nationalCapital":false,"pk":null,"quiz":"europe","code":null,"archived":false,"percentageOfSessions":null}, {"name":"Athánion","state":"Ionian Islands","territory":"","country":"Greece","latitude":38.66172466,"longitude":20.56894594,"population":206,"stateCapital":false,"nationalCapital":false,"pk":null,"quiz":"europe","code":null,"archived":false,"percentageOfSessions":null}, {"name":"Athéras","state":"Ionian Islands","territory":"","country":"Greece","latitude":38.31510782,"longitude":20.41533086,"population":129,"stateCapital":false,"nationalCapital":false,"pk":null,"quiz":"europe","code":null,"archived":false,"percentageOfSessions":null}, {"name":"Akrotíri","state":"Ionian Islands","territory":"","country":"Greece","latitude":37.8018239,"longitude":20.90015258,"population":167,"stateCapital":false,"nationalCapital":false,"pk":null,"quiz":"europe","code":null,"archived":false,"percentageOfSessions":null}, {"name":"Álatron","state":"Ionian Islands","territory":"","country":"Greece","latitude":38.68211614,"longitude":20.65890857,"population":17,"stateCapital":false,"nationalCapital":false,"pk":null,"quiz":"europe","code":null,"archived":false,"percentageOfSessions":null}, {"name":"Alimmatádhes","state":"Ionian Islands","territory":"","country":"Greece","latitude":39.69491153,"longitude":19.73144147,"population":125,"stateCapital":false,"nationalCapital":false,"pk":null,"quiz":"europe","code":null,"archived":false,"percentageOfSessions":null}, {"name":"Alimmatás","state":"Ionian Islands","territory":"","country":"Greece","latitude":38.07735268,"longitude":20.76423792,"population":20,"stateCapital":false,"nationalCapital":false,"pk":null,"quiz":"europe","code":null,"archived":false,"percentageOfSessions":null}, {"name":"Aléksandhros","state":"Ionian Islands","territory":"","country":"Greece","latitude":38.74739283,"longitude":20.67927657,"population":22,"stateCapital":false,"nationalCapital":false,"pk":null,"quiz":"europe","code":null,"archived":false,"percentageOfSessions":null}, {"name":"Alepú","state":"Ionian Islands","territory":"","country":"Greece","latitude":39.61269445,"longitude":19.89096735,"population":3116,"stateCapital":false,"nationalCapital":false,"pk":null,"quiz":"europe","code":null,"archived":false,"percentageOfSessions":null}, {"name":"Alepohórion","state":"Ionian Islands","territory":"","country":"Greece","latitude":39.5540043,"longitude":19.87041554,"population":37,"stateCapital":false,"nationalCapital":false,"pk":null,"quiz":"europe","code":null,"archived":false,"percentageOfSessions":null}, {"name":"Alikanás","state":"Ionian Islands","territory":"","country":"Greece","latitude":37.84002333,"longitude":20.78782268,"population":478,"stateCapital":false,"nationalCapital":false,"pk":null,"quiz":"europe","code":null,"archived":false,"percentageOfSessions":null}, {"name":"Alónia","state":"Ionian Islands","territory":"","country":"Greece","latitude":37.8251884,"longitude":20.79916753,"population":669,"stateCapital":false,"nationalCapital":false,"pk":null,"quiz":"europe","code":null,"archived":false,"percentageOfSessions":null}, {"name":"Ammókambos","state":"Ionian Islands","territory":"","country":"Greece","latitude":38.73195042,"longitude":20.64041191,"population":19,"stateCapital":false,"nationalCapital":false,"pk":null,"quiz":"europe","code":null,"archived":false,"percentageOfSessions":null}, {"name":"Ambelókipi","state":"Ionian Islands","territory":"","country":"Greece","latitude":37.75645916,"longitude":20.87082049,"population":1600,"stateCapital":false,"nationalCapital":false,"pk":null,"quiz":"europe","code":null,"archived":false,"percentageOfSessions":null}, {"name":"Ámbelos","state":"Ionian Islands","territory":"","country":"Greece","latitude":37.67850949,"longitude":20.80903616,"population":2,"stateCapital":false,"nationalCapital":false,"pk":null,"quiz":"europe","code":null,"archived":false,"percentageOfSessions":null}, {"name":"Análipsis","state":"Ionian Islands","territory":"","country":"Greece","latitude":39.69941061,"longitude":19.82209787,"population":141,"stateCapital":false,"nationalCapital":false,"pk":null,"quiz":"europe","code":null,"archived":false,"percentageOfSessions":null}, {"name":"Anapaftíria","state":"Ionian Islands","territory":"","country":"Greece","latitude":39.78177574,"longitude":19.88522769,"population":46,"stateCapital":false,"nationalCapital":false,"pk":null,"quiz":"europe","code":null,"archived":false,"percentageOfSessions":null}, {"name":"Anafonítria","state":"Ionian Islands","territory":"","country":"Greece","latitude":37.8442535,"longitude":20.64908149,"population":247,"stateCapital":false,"nationalCapital":false,"pk":null,"quiz":"europe","code":null,"archived":false,"percentageOfSessions":null}, {"name":"Andhrioláta","state":"Ionian Islands","territory":"","country":"Greece","latitude":38.14528828,"longitude":20.72701352,"population":8,"stateCapital":false,"nationalCapital":false,"pk":null,"quiz":"europe","code":null,"archived":false,"percentageOfSessions":null}, {"name":"Anemogiannátika","state":"Ionian Islands","territory":"","country":"Greece","latitude":39.21865978,"longitude":20.15284316,"population":24,"stateCapital":false,"nationalCapital":false,"pk":null,"quiz":"europe","code":null,"archived":false,"percentageOfSessions":null}, {"name":"Andípaksos (nisís)","state":"Ionian Islands","territory":"","country":"Greece","latitude":39.14274782,"longitude":20.22664724,"population":20,"stateCapital":false,"nationalCapital":false,"pk":null,"quiz":"europe","code":null,"archived":false,"percentageOfSessions":null}, {"name":"Andipáta","state":"Ionian Islands","territory":"","country":"Greece","latitude":38.46256741,"longitude":20.54712863,"population":179,"stateCapital":false,"nationalCapital":false,"pk":null,"quiz":"europe","code":null,"archived":false,"percentageOfSessions":null}, {"name":"Andipáta","state":"Ionian Islands","territory":"","country":"Greece","latitude":38.46256741,"longitude":20.54712863,"population":72,"stateCapital":false,"nationalCapital":false,"pk":null,"quiz":"europe","code":null,"archived":false,"percentageOfSessions":null}, {"name":"Andiperní","state":"Ionian Islands","territory":"","country":"Greece","latitude":39.77158144,"longitude":19.74124271,"population":199,"stateCapital":false,"nationalCapital":false,"pk":null,"quiz":"europe","code":null,"archived":false,"percentageOfSessions":null}, {"name":"Áno Vasilikós","state":"Ionian Islands","territory":"","country":"Greece","latitude":37.72985462,"longitude":20.96710302,"population":296,"stateCapital":false,"nationalCapital":false,"pk":null,"quiz":"europe","code":null,"archived":false,"percentageOfSessions":null}, {"name":"Áno Volíme","state":"Ionian Islands","territory":"","country":"Greece","latitude":37.87359773,"longitude":20.6662766,"population":258,"stateCapital":false,"nationalCapital":false,"pk":null,"quiz":"europe","code":null,"archived":false,"percentageOfSessions":null}, {"name":"Áno Garúna","state":"Ionian Islands","territory":"","country":"Greece","latitude":39.54357708,"longitude":19.87153976,"population":229,"stateCapital":false,"nationalCapital":false,"pk":null,"quiz":"europe","code":null,"archived":false,"percentageOfSessions":null}, {"name":"Áno Gerakárion","state":"Ionian Islands","territory":"","country":"Greece","latitude":37.81966725,"longitude":20.8006918,"population":176,"stateCapital":false,"nationalCapital":false,"pk":null,"quiz":"europe","code":null,"archived":false,"percentageOfSessions":null}, {"name":"Áno Korakiána","state":"Ionian Islands","territory":"","country":"Greece","latitude":39.70549225,"longitude":19.79400923,"population":937,"stateCapital":false,"nationalCapital":false,"pk":null,"quiz":"europe","code":null,"archived":false,"percentageOfSessions":null}, {"name":"Áno Pavliána","state":"Ionian Islands","territory":"","country":"Greece","latitude":39.51858036,"longitude":19.86001109,"population":436,"stateCapital":false,"nationalCapital":false,"pk":null,"quiz":"europe","code":null,"archived":false,"percentageOfSessions":null}, {"name":"Anogí","state":"Ionian Islands","territory":"","country":"Greece","latitude":38.41780883,"longitude":20.67228308,"population":36,"stateCapital":false,"nationalCapital":false,"pk":null,"quiz":"europe","code":null,"archived":false,"percentageOfSessions":null}, {"name":"Apeláti","state":"Ionian Islands","territory":"","country":"Greece","latitude":37.67133659,"longitude":20.81141008,"population":35,"stateCapital":false,"nationalCapital":false,"pk":null,"quiz":"europe","code":null,"archived":false,"percentageOfSessions":null}, {"name":"Apergátika","state":"Ionian Islands","territory":"","country":"Greece","latitude":39.23158333,"longitude":20.14246957,"population":114,"stateCapital":false,"nationalCapital":false,"pk":null,"quiz":"europe","code":null,"archived":false,"percentageOfSessions":null}, {"name":"Apólpena","state":"Ionian Islands","territory":"","country":"Greece","latitude":38.81326475,"longitude":20.68571874,"population":840,"stateCapital":false,"nationalCapital":false,"pk":null,"quiz":"europe","code":null,"archived":false,"percentageOfSessions":null}, {"name":"Apolisí","state":"Ionian Islands","territory":"","country":"Greece","latitude":39.72830736,"longitude":19.89342794,"population":21,"stateCapital":false,"nationalCapital":false,"pk":null,"quiz":"europe","code":null,"archived":false,"percentageOfSessions":null}, {"name":"Apraós","state":"Ionian Islands","territory":"","country":"Greece","latitude":39.79295253,"longitude":19.88439925,"population":5,"stateCapital":false,"nationalCapital":false,"pk":null,"quiz":"europe","code":null,"archived":false,"percentageOfSessions":null}, {"name":"Arvanitakéika","state":"Ionian Islands","territory":"","country":"Greece","latitude":39.20273142,"longitude":20.15275942,"population":61,"stateCapital":false,"nationalCapital":false,"pk":null,"quiz":"europe","code":null,"archived":false,"percentageOfSessions":null}, {"name":"Argásion","state":"Ionian Islands","territory":"","country":"Greece","latitude":37.76350944,"longitude":20.91767092,"population":1099,"stateCapital":false,"nationalCapital":false,"pk":null,"quiz":"europe","code":null,"archived":false,"percentageOfSessions":null}, {"name":"Argínia","state":"Ionian Islands","territory":"","country":"Greece","latitude":38.09348642,"longitude":20.72044623,"population":15,"stateCapital":false,"nationalCapital":false,"pk":null,"quiz":"europe","code":null,"archived":false,"percentageOfSessions":null}, {"name":"Argostólion","state":"Ionian Islands","territory":"","country":"Greece","latitude":38.17404089,"longitude":20.48732982,"population":10362,"stateCapital":false,"nationalCapital":false,"pk":null,"quiz":"europe","code":null,"archived":false,"percentageOfSessions":null}, {"name":"Argirádhes","state":"Ionian Islands","territory":"","country":"Greece","latitude":39.43206046,"longitude":19.97477832,"population":646,"stateCapital":false,"nationalCapital":false,"pk":null,"quiz":"europe","code":null,"archived":false,"percentageOfSessions":null}, {"name":"Aríllas","state":"Ionian Islands","territory":"","country":"Greece","latitude":39.74595214,"longitude":19.65218838,"population":91,"stateCapital":false,"nationalCapital":false,"pk":null,"quiz":"europe","code":null,"archived":false,"percentageOfSessions":null}, {"name":"Aríllas","state":"Ionian Islands","territory":"","country":"Greece","latitude":39.74595214,"longitude":19.65218838,"population":403,"stateCapital":false,"nationalCapital":false,"pk":null,"quiz":"europe","code":null,"archived":false,"percentageOfSessions":null}, {"name":"Arkadhádhes","state":"Ionian Islands","territory":"","country":"Greece","latitude":39.70498971,"longitude":19.72828904,"population":86,"stateCapital":false,"nationalCapital":false,"pk":null,"quiz":"europe","code":null,"archived":false,"percentageOfSessions":null}, {"name":"Armenádhes","state":"Ionian Islands","territory":"","country":"Greece","latitude":39.74225827,"longitude":19.68839888,"population":92,"stateCapital":false,"nationalCapital":false,"pk":null,"quiz":"europe","code":null,"archived":false,"percentageOfSessions":null}, {"name":"Aronátika","state":"Ionian Islands","territory":"","country":"Greece","latitude":39.2216128,"longitude":20.12743796,"population":23,"stateCapital":false,"nationalCapital":false,"pk":null,"quiz":"europe","code":null,"archived":false,"percentageOfSessions":null}, {"name":"Askós","state":"Ionian Islands","territory":"","country":"Greece","latitude":37.8888244,"longitude":20.70175875,"population":31,"stateCapital":false,"nationalCapital":false,"pk":null,"quiz":"europe","code":null,"archived":false,"percentageOfSessions":null}, {"name":"Ásos","state":"Ionian Islands","territory":"","country":"Greece","latitude":38.37465367,"longitude":20.53979933,"population":89,"stateCapital":false,"nationalCapital":false,"pk":null,"quiz":"europe","code":null,"archived":false,"percentageOfSessions":null}, {"name":"Aspái","state":"Ionian Islands","territory":"","country":"Greece","latitude":39.54832874,"longitude":19.84691574,"population":93,"stateCapital":false,"nationalCapital":false,"pk":null,"quiz":"europe","code":null,"archived":false,"percentageOfSessions":null}, {"name":"Aspiotádhes","state":"Ionian Islands","territory":"","country":"Greece","latitude":39.71778235,"longitude":19.71254013,"population":58,"stateCapital":false,"nationalCapital":false,"pk":null,"quiz":"europe","code":null,"archived":false,"percentageOfSessions":null}, {"name":"Asprogérakas","state":"Ionian Islands","territory":"","country":"Greece","latitude":38.10900547,"longitude":20.76636147,"population":12,"stateCapital":false,"nationalCapital":false,"pk":null,"quiz":"europe","code":null,"archived":false,"percentageOfSessions":null}, {"name":"Asprogerakáta","state":"Ionian Islands","territory":"","country":"Greece","latitude":38.78042675,"longitude":20.65117604,"population":101,"stateCapital":false,"nationalCapital":false,"pk":null,"quiz":"europe","code":null,"archived":false,"percentageOfSessions":null}, {"name":"Astrakerí","state":"Ionian Islands","territory":"","country":"Greece","latitude":39.79067142,"longitude":19.75740229,"population":124,"stateCapital":false,"nationalCapital":false,"pk":null,"quiz":"europe","code":null,"archived":false,"percentageOfSessions":null}, {"name":"Atsupádhes","state":"Ionian Islands","territory":"","country":"Greece","latitude":38.08650704,"longitude":20.70641963,"population":97,"stateCapital":false,"nationalCapital":false,"pk":null,"quiz":"europe","code":null,"archived":false,"percentageOfSessions":null}, {"name":"Avlióte","state":"Ionian Islands","territory":"","country":"Greece","latitude":39.77421812,"longitude":19.660924,"population":831,"stateCapital":false,"nationalCapital":false,"pk":null,"quiz":"europe","code":null,"archived":false,"percentageOfSessions":null}, {"name":"Afión","state":"Ionian Islands","territory":"","country":"Greece","latitude":39.71907713,"longitude":19.65854645,"population":306,"stateCapital":false,"nationalCapital":false,"pk":null,"quiz":"europe","code":null,"archived":false,"percentageOfSessions":null}, {"name":"Afionítika","state":"Ionian Islands","territory":"","country":"Greece","latitude":39.73486007,"longitude":19.65168465,"population":3,"stateCapital":false,"nationalCapital":false,"pk":null,"quiz":"europe","code":null,"archived":false,"percentageOfSessions":null}, {"name":"Áfra","state":"Ionian Islands","territory":"","country":"Greece","latitude":39.61995245,"longitude":19.85693336,"population":768,"stateCapital":false,"nationalCapital":false,"pk":null,"quiz":"europe","code":null,"archived":false,"percentageOfSessions":null}, {"name":"Aharávi","state":"Ionian Islands","territory":"","country":"Greece","latitude":39.75273393,"longitude":19.78219219,"population":1377,"stateCapital":false,"nationalCapital":false,"pk":null,"quiz":"europe","code":null,"archived":false,"percentageOfSessions":null}, {"name":"Vathí","state":"Ionian Islands","territory":"","country":"Greece","latitude":39.79226514,"longitude":19.86720958,"population":17,"stateCapital":false,"nationalCapital":false,"pk":null,"quiz":"europe","code":null,"archived":false,"percentageOfSessions":null}, {"name":"Vathí","state":"Ionian Islands","territory":"","country":"Greece","latitude":38.6603467,"longitude":20.78355603,"population":190,"stateCapital":false,"nationalCapital":false,"pk":null,"quiz":"europe","code":null,"archived":false,"percentageOfSessions":null}, {"name":"Valaníon","state":"Ionian Islands","territory":"","country":"Greece","latitude":39.73199929,"longitude":19.75379522,"population":219,"stateCapital":false,"nationalCapital":false,"pk":null,"quiz":"europe","code":null,"archived":false,"percentageOfSessions":null}, {"name":"Valeriános","state":"Ionian Islands","territory":"","country":"Greece","latitude":38.07953216,"longitude":20.71419456,"population":154,"stateCapital":false,"nationalCapital":false,"pk":null,"quiz":"europe","code":null,"archived":false,"percentageOfSessions":null}, {"name":"Valsamáta","state":"Ionian Islands","territory":"","country":"Greece","latitude":38.17123194,"longitude":20.58359094,"population":761,"stateCapital":false,"nationalCapital":false,"pk":null,"quiz":"europe","code":null,"archived":false,"percentageOfSessions":null}, {"name":"Vanáton","state":"Ionian Islands","territory":"","country":"Greece","latitude":37.79074064,"longitude":20.84958032,"population":1043,"stateCapital":false,"nationalCapital":false,"pk":null,"quiz":"europe","code":null,"archived":false,"percentageOfSessions":null}, {"name":"Varvára","state":"Ionian Islands","territory":"","country":"Greece","latitude":37.89733219,"longitude":20.70172131,"population":30,"stateCapital":false,"nationalCapital":false,"pk":null,"quiz":"europe","code":null,"archived":false,"percentageOfSessions":null}, {"name":"Varí","state":"Ionian Islands","territory":"","country":"Greece","latitude":38.38277206,"longitude":20.58041344,"population":32,"stateCapital":false,"nationalCapital":false,"pk":null,"quiz":"europe","code":null,"archived":false,"percentageOfSessions":null}, {"name":"Varipatádhes","state":"Ionian Islands","territory":"","country":"Greece","latitude":39.5822918,"longitude":19.84726491,"population":351,"stateCapital":false,"nationalCapital":false,"pk":null,"quiz":"europe","code":null,"archived":false,"percentageOfSessions":null}, {"name":"Vasilátika","state":"Ionian Islands","territory":"","country":"Greece","latitude":39.45124191,"longitude":19.98394798,"population":146,"stateCapital":false,"nationalCapital":false,"pk":null,"quiz":"europe","code":null,"archived":false,"percentageOfSessions":null}, {"name":"Vasiliká","state":"Ionian Islands","territory":"","country":"Greece","latitude":39.79497027,"longitude":19.85134304,"population":18,"stateCapital":false,"nationalCapital":false,"pk":null,"quiz":"europe","code":null,"archived":false,"percentageOfSessions":null}, {"name":"Vasiliká","state":"Ionian Islands","territory":"","country":"Greece","latitude":39.79497027,"longitude":19.85134304,"population":275,"stateCapital":false,"nationalCapital":false,"pk":null,"quiz":"europe","code":null,"archived":false,"percentageOfSessions":null}, {"name":"Vasilikí","state":"Ionian Islands","territory":"","country":"Greece","latitude":38.62404729,"longitude":20.6078843,"population":385,"stateCapital":false,"nationalCapital":false,"pk":null,"quiz":"europe","code":null,"archived":false,"percentageOfSessions":null}, {"name":"Vasilikiádhes","state":"Ionian Islands","territory":"","country":"Greece","latitude":38.40890823,"longitude":20.55994855,"population":105,"stateCapital":false,"nationalCapital":false,"pk":null,"quiz":"europe","code":null,"archived":false,"percentageOfSessions":null}, {"name":"Vasilikós","state":"Ionian Islands","territory":"","country":"Greece","latitude":37.71372044,"longitude":20.97938633,"population":406,"stateCapital":false,"nationalCapital":false,"pk":null,"quiz":"europe","code":null,"archived":false,"percentageOfSessions":null}, {"name":"Vátos","state":"Ionian Islands","territory":"","country":"Greece","latitude":39.60575575,"longitude":19.78882773,"population":413,"stateCapital":false,"nationalCapital":false,"pk":null,"quiz":"europe","code":null,"archived":false,"percentageOfSessions":null}, {"name":"Vatonié","state":"Ionian Islands","territory":"","country":"Greece","latitude":39.69981391,"longitude":19.71496671,"population":69,"stateCapital":false,"nationalCapital":false,"pk":null,"quiz":"europe","code":null,"archived":false,"percentageOfSessions":null}, {"name":"Vafkerí","state":"Ionian Islands","territory":"","country":"Greece","latitude":38.72607739,"longitude":20.6649484,"population":63,"stateCapital":false,"nationalCapital":false,"pk":null,"quiz":"europe","code":null,"archived":false,"percentageOfSessions":null}, {"name":"Velianitátika","state":"Ionian Islands","territory":"","country":"Greece","latitude":39.18281864,"longitude":20.17637579,"population":64,"stateCapital":false,"nationalCapital":false,"pk":null,"quiz":"europe","code":null,"archived":false,"percentageOfSessions":null}, {"name":"Velonádhes","state":"Ionian Islands","territory":"","country":"Greece","latitude":39.74901017,"longitude":19.70709179,"population":384,"stateCapital":false,"nationalCapital":false,"pk":null,"quiz":"europe","code":null,"archived":false,"percentageOfSessions":null}, {"name":"Venduráta","state":"Ionian Islands","territory":"","country":"Greece","latitude":38.43450852,"longitude":20.56516282,"population":31,"stateCapital":false,"nationalCapital":false,"pk":null,"quiz":"europe","code":null,"archived":false,"percentageOfSessions":null}, {"name":"Vínġla","state":"Ionian Islands","territory":"","country":"Greece","latitude":39.74721471,"longitude":19.92673632,"population":54,"stateCapital":false,"nationalCapital":false,"pk":null,"quiz":"europe","code":null,"archived":false,"percentageOfSessions":null}, {"name":"Vinġlatúrion","state":"Ionian Islands","territory":"","country":"Greece","latitude":39.72806979,"longitude":19.88672868,"population":52,"stateCapital":false,"nationalCapital":false,"pk":null,"quiz":"europe","code":null,"archived":false,"percentageOfSessions":null}, {"name":"Viglí","state":"Ionian Islands","territory":"","country":"Greece","latitude":38.42390964,"longitude":20.54968592,"population":33,"stateCapital":false,"nationalCapital":false,"pk":null,"quiz":"europe","code":null,"archived":false,"percentageOfSessions":null}, {"name":"Virós","state":"Ionian Islands","territory":"","country":"Greece","latitude":39.58170394,"longitude":19.88090195,"population":1194,"stateCapital":false,"nationalCapital":false,"pk":null,"quiz":"europe","code":null,"archived":false,"percentageOfSessions":null}, {"name":"Vístonas","state":"Ionian Islands","territory":"","country":"Greece","latitude":39.68943015,"longitude":19.69600452,"population":87,"stateCapital":false,"nationalCapital":false,"pk":null,"quiz":"europe","code":null,"archived":false,"percentageOfSessions":null}, {"name":"Vitaládhes","state":"Ionian Islands","territory":"","country":"Greece","latitude":39.40810515,"longitude":20.02066807,"population":437,"stateCapital":false,"nationalCapital":false,"pk":null,"quiz":"europe","code":null,"archived":false,"percentageOfSessions":null}, {"name":"Vlaháta","state":"Ionian Islands","territory":"","country":"Greece","latitude":38.12043469,"longitude":20.62289731,"population":706,"stateCapital":false,"nationalCapital":false,"pk":null,"quiz":"europe","code":null,"archived":false,"percentageOfSessions":null}, {"name":"Vlahátika","state":"Ionian Islands","territory":"","country":"Greece","latitude":39.74320592,"longitude":19.92790798,"population":30,"stateCapital":false,"nationalCapital":false,"pk":null,"quiz":"europe","code":null,"archived":false,"percentageOfSessions":null}, {"name":"Vlahopulátika","state":"Ionian Islands","territory":"","country":"Greece","latitude":39.19290292,"longitude":20.16958816,"population":102,"stateCapital":false,"nationalCapital":false,"pk":null,"quiz":"europe","code":null,"archived":false,"percentageOfSessions":null}, {"name":"Vliháta","state":"Ionian Islands","territory":"","country":"Greece","latitude":38.23416963,"longitude":20.40373811,"population":60,"stateCapital":false,"nationalCapital":false,"pk":null,"quiz":"europe","code":null,"archived":false,"percentageOfSessions":null}, {"name":"Vlihón","state":"Ionian Islands","territory":"","country":"Greece","latitude":38.68039338,"longitude":20.69566527,"population":386,"stateCapital":false,"nationalCapital":false,"pk":null,"quiz":"europe","code":null,"archived":false,"percentageOfSessions":null}, {"name":"Volíme","state":"Ionian Islands","territory":"","country":"Greece","latitude":37.87240729,"longitude":20.65765026,"population":403,"stateCapital":false,"nationalCapital":false,"pk":null,"quiz":"europe","code":null,"archived":false,"percentageOfSessions":null}, {"name":"Vugiáton","state":"Ionian Islands","territory":"","country":"Greece","latitude":37.76295182,"longitude":20.80532248,"population":300,"stateCapital":false,"nationalCapital":false,"pk":null,"quiz":"europe","code":null,"archived":false,"percentageOfSessions":null}, {"name":"Vuniatádhes","state":"Ionian Islands","territory":"","country":"Greece","latitude":39.51334339,"longitude":19.87749609,"population":207,"stateCapital":false,"nationalCapital":false,"pk":null,"quiz":"europe","code":null,"archived":false,"percentageOfSessions":null}, {"name":"Vuníon","state":"Ionian Islands","territory":"","country":"Greece","latitude":39.789667,"longitude":19.85879175,"population":38,"stateCapital":false,"nationalCapital":false,"pk":null,"quiz":"europe","code":null,"archived":false,"percentageOfSessions":null}, {"name":"Vuníon","state":"Ionian Islands","territory":"","country":"Greece","latitude":38.17651746,"longitude":20.40110175,"population":158,"stateCapital":false,"nationalCapital":false,"pk":null,"quiz":"europe","code":null,"archived":false,"percentageOfSessions":null}, {"name":"Vurnikás","state":"Ionian Islands","territory":"","country":"Greece","latitude":38.66627378,"longitude":20.65371771,"population":152,"stateCapital":false,"nationalCapital":false,"pk":null,"quiz":"europe","code":null,"archived":false,"percentageOfSessions":null}, {"name":"Vranġaniótika","state":"Ionian Islands","territory":"","country":"Greece","latitude":39.46472235,"longitude":19.91117934,"population":184,"stateCapital":false,"nationalCapital":false,"pk":null,"quiz":"europe","code":null,"archived":false,"percentageOfSessions":null}, {"name":"Vrahlerí","state":"Ionian Islands","territory":"","country":"Greece","latitude":39.77950481,"longitude":19.83490752,"population":19,"stateCapital":false,"nationalCapital":false,"pk":null,"quiz":"europe","code":null,"archived":false,"percentageOfSessions":null}, {"name":"Gavrádhes","state":"Ionian Islands","territory":"","country":"Greece","latitude":39.73263148,"longitude":19.70745895,"population":69,"stateCapital":false,"nationalCapital":false,"pk":null,"quiz":"europe","code":null,"archived":false,"percentageOfSessions":null}, {"name":"Gazátika","state":"Ionian Islands","territory":"","country":"Greece","latitude":39.67357766,"longitude":19.81555107,"population":134,"stateCapital":false,"nationalCapital":false,"pk":null,"quiz":"europe","code":null,"archived":false,"percentageOfSessions":null}, {"name":"Gáios","state":"Ionian Islands","territory":"","country":"Greece","latitude":39.1935369,"longitude":20.1860967,"population":476,"stateCapital":false,"nationalCapital":false,"pk":null,"quiz":"europe","code":null,"archived":false,"percentageOfSessions":null}, {"name":"Gaitánion","state":"Ionian Islands","territory":"","country":"Greece","latitude":37.78597736,"longitude":20.87179081,"population":1898,"stateCapital":false,"nationalCapital":false,"pk":null,"quiz":"europe","code":null,"archived":false,"percentageOfSessions":null}, {"name":"Galáron","state":"Ionian Islands","territory":"","country":"Greece","latitude":37.77988681,"longitude":20.79232041,"population":277,"stateCapital":false,"nationalCapital":false,"pk":null,"quiz":"europe","code":null,"archived":false,"percentageOfSessions":null}, {"name":"Gardheládhes","state":"Ionian Islands","territory":"","country":"Greece","latitude":39.67646751,"longitude":19.74237975,"population":377,"stateCapital":false,"nationalCapital":false,"pk":null,"quiz":"europe","code":null,"archived":false,"percentageOfSessions":null}, {"name":"Gardhénos","state":"Ionian Islands","territory":"","country":"Greece","latitude":39.39239649,"longitude":20.02110319,"population":82,"stateCapital":false,"nationalCapital":false,"pk":null,"quiz":"europe","code":null,"archived":false,"percentageOfSessions":null}, {"name":"Garnádhes","state":"Ionian Islands","territory":"","country":"Greece","latitude":39.76328948,"longitude":19.66560775,"population":43,"stateCapital":false,"nationalCapital":false,"pk":null,"quiz":"europe","code":null,"archived":false,"percentageOfSessions":null}, {"name":"Gastúri","state":"Ionian Islands","territory":"","country":"Greece","latitude":39.55897051,"longitude":19.89729749,"population":667,"stateCapital":false,"nationalCapital":false,"pk":null,"quiz":"europe","code":null,"archived":false,"percentageOfSessions":null}, {"name":"Génion","state":"Ionian Islands","territory":"","country":"Greece","latitude":38.6853763,"longitude":20.7127909,"population":88,"stateCapital":false,"nationalCapital":false,"pk":null,"quiz":"europe","code":null,"archived":false,"percentageOfSessions":null}, {"name":"Germenáta","state":"Ionian Islands","territory":"","country":"Greece","latitude":38.46077701,"longitude":20.56115839,"population":106,"stateCapital":false,"nationalCapital":false,"pk":null,"quiz":"europe","code":null,"archived":false,"percentageOfSessions":null}, {"name":"Géfira","state":"Ionian Islands","territory":"","country":"Greece","latitude":39.667891,"longitude":19.72643165,"population":147,"stateCapital":false,"nationalCapital":false,"pk":null,"quiz":"europe","code":null,"archived":false,"percentageOfSessions":null}, {"name":"Giannádhes","state":"Ionian Islands","territory":"","country":"Greece","latitude":39.63007999,"longitude":19.76079906,"population":563,"stateCapital":false,"nationalCapital":false,"pk":null,"quiz":"europe","code":null,"archived":false,"percentageOfSessions":null}, {"name":"Gimárion","state":"Ionian Islands","territory":"","country":"Greece","latitude":39.74083781,"longitude":19.92620098,"population":311,"stateCapital":false,"nationalCapital":false,"pk":null,"quiz":"europe","code":null,"archived":false,"percentageOfSessions":null}, {"name":"Glifádha","state":"Ionian Islands","territory":"","country":"Greece","latitude":39.58466757,"longitude":19.81312363,"population":324,"stateCapital":false,"nationalCapital":false,"pk":null,"quiz":"europe","code":null,"archived":false,"percentageOfSessions":null}, {"name":"Guviá","state":"Ionian Islands","territory":"","country":"Greece","latitude":39.65004083,"longitude":19.84285961,"population":2764,"stateCapital":false,"nationalCapital":false,"pk":null,"quiz":"europe","code":null,"archived":false,"percentageOfSessions":null}, {"name":"Gusádhes","state":"Ionian Islands","territory":"","country":"Greece","latitude":39.77271641,"longitude":19.69762546,"population":220,"stateCapital":false,"nationalCapital":false,"pk":null,"quiz":"europe","code":null,"archived":false,"percentageOfSessions":null}, {"name":"Grammatikéika","state":"Ionian Islands","territory":"","country":"Greece","latitude":39.21299747,"longitude":20.13641624,"population":13,"stateCapital":false,"nationalCapital":false,"pk":null,"quiz":"europe","code":null,"archived":false,"percentageOfSessions":null}, {"name":"Grizáta","state":"Ionian Islands","territory":"","country":"Greece","latitude":38.21909091,"longitude":20.6392561,"population":372,"stateCapital":false,"nationalCapital":false,"pk":null,"quiz":"europe","code":null,"archived":false,"percentageOfSessions":null}, {"name":"Gírion","state":"Ionian Islands","territory":"","country":"Greece","latitude":37.79631417,"longitude":20.73402336,"population":33,"stateCapital":false,"nationalCapital":false,"pk":null,"quiz":"europe","code":null,"archived":false,"percentageOfSessions":null}, {"name":"Dhalietátika","state":"Ionian Islands","territory":"","country":"Greece","latitude":39.23539513,"longitude":20.12515697,"population":41,"stateCapital":false,"nationalCapital":false,"pk":null,"quiz":"europe","code":null,"archived":false,"percentageOfSessions":null}, {"name":"Dhamulianáta","state":"Ionian Islands","territory":"","country":"Greece","latitude":38.23573052,"longitude":20.37338362,"population":134,"stateCapital":false,"nationalCapital":false,"pk":null,"quiz":"europe","code":null,"archived":false,"percentageOfSessions":null}, {"name":"Dhavgáta","state":"Ionian Islands","territory":"","country":"Greece","latitude":38.21637523,"longitude":20.49118638,"population":65,"stateCapital":false,"nationalCapital":false,"pk":null,"quiz":"europe","code":null,"archived":false,"percentageOfSessions":null}, {"name":"Dhafnáta","state":"Ionian Islands","territory":"","country":"Greece","latitude":39.52992675,"longitude":19.9046473,"population":34,"stateCapital":false,"nationalCapital":false,"pk":null,"quiz":"europe","code":null,"archived":false,"percentageOfSessions":null}, {"name":"Dháfni","state":"Ionian Islands","territory":"","country":"Greece","latitude":39.72725295,"longitude":19.6970595,"population":224,"stateCapital":false,"nationalCapital":false,"pk":null,"quiz":"europe","code":null,"archived":false,"percentageOfSessions":null}, {"name":"Dhellaportáta","state":"Ionian Islands","territory":"","country":"Greece","latitude":38.2217079,"longitude":20.40207663,"population":11,"stateCapital":false,"nationalCapital":false,"pk":null,"quiz":"europe","code":null,"archived":false,"percentageOfSessions":null}, {"name":"Dhemutsandáta","state":"Ionian Islands","territory":"","country":"Greece","latitude":38.14898481,"longitude":20.54845287,"population":108,"stateCapital":false,"nationalCapital":false,"pk":null,"quiz":"europe","code":null,"archived":false,"percentageOfSessions":null}, {"name":"Dhendhiátika","state":"Ionian Islands","territory":"","country":"Greece","latitude":39.22877698,"longitude":20.14990214,"population":46,"stateCapital":false,"nationalCapital":false,"pk":null,"quiz":"europe","code":null,"archived":false,"percentageOfSessions":null}, {"name":"Dhesími","state":"Ionian Islands","territory":"","country":"Greece","latitude":38.67232809,"longitude":20.70610917,"population":1,"stateCapital":false,"nationalCapital":false,"pk":null,"quiz":"europe","code":null,"archived":false,"percentageOfSessions":null}, {"name":"Dhefaranáta","state":"Ionian Islands","territory":"","country":"Greece","latitude":38.38067516,"longitude":20.56187704,"population":15,"stateCapital":false,"nationalCapital":false,"pk":null,"quiz":"europe","code":null,"archived":false,"percentageOfSessions":null}, {"name":"Dhivaráta","state":"Ionian Islands","territory":"","country":"Greece","latitude":38.32840813,"longitude":20.54800658,"population":161,"stateCapital":false,"nationalCapital":false,"pk":null,"quiz":"europe","code":null,"archived":false,"percentageOfSessions":null}, {"name":"Dhigaléton","state":"Ionian Islands","territory":"","country":"Greece","latitude":38.16749869,"longitude":20.6924427,"population":323,"stateCapital":false,"nationalCapital":false,"pk":null,"quiz":"europe","code":null,"archived":false,"percentageOfSessions":null}, {"name":"Dhilináta","state":"Ionian Islands","territory":"","country":"Greece","latitude":38.22261981,"longitude":20.51512454,"population":502,"stateCapital":false,"nationalCapital":false,"pk":null,"quiz":"europe","code":null,"archived":false,"percentageOfSessions":null}, {"name":"Dhorizáta","state":"Ionian Islands","territory":"","country":"Greece","latitude":38.11826204,"longitude":20.57196997,"population":109,"stateCapital":false,"nationalCapital":false,"pk":null,"quiz":"europe","code":null,"archived":false,"percentageOfSessions":null}, {"name":"Dhukádhes","state":"Ionian Islands","territory":"","country":"Greece","latitude":39.68567922,"longitude":19.73842357,"population":633,"stateCapital":false,"nationalCapital":false,"pk":null,"quiz":"europe","code":null,"archived":false,"percentageOfSessions":null}, {"name":"Dhráganon","state":"Ionian Islands","territory":"","country":"Greece","latitude":38.68091326,"longitude":20.57428006,"population":62,"stateCapital":false,"nationalCapital":false,"pk":null,"quiz":"europe","code":null,"archived":false,"percentageOfSessions":null}, {"name":"Dhragotiná","state":"Ionian Islands","territory":"","country":"Greece","latitude":39.38060083,"longitude":20.08207823,"population":242,"stateCapital":false,"nationalCapital":false,"pk":null,"quiz":"europe","code":null,"archived":false,"percentageOfSessions":null}, {"name":"Dhrákas","state":"Ionian Islands","territory":"","country":"Greece","latitude":37.79228269,"longitude":20.77826434,"population":85,"stateCapital":false,"nationalCapital":false,"pk":null,"quiz":"europe","code":null,"archived":false,"percentageOfSessions":null}, {"name":"Dhrakopuláta","state":"Ionian Islands","territory":"","country":"Greece","latitude":38.29638097,"longitude":20.57734463,"population":19,"stateCapital":false,"nationalCapital":false,"pk":null,"quiz":"europe","code":null,"archived":false,"percentageOfSessions":null}, {"name":"Dhrapanítika","state":"Ionian Islands","territory":"","country":"Greece","latitude":38.39829199,"longitude":20.55000866,"population":2,"stateCapital":false,"nationalCapital":false,"pk":null,"quiz":"europe","code":null,"archived":false,"percentageOfSessions":null}, {"name":"Dhrápanon","state":"Ionian Islands","territory":"","country":"Greece","latitude":38.18029444,"longitude":20.49896134,"population":133,"stateCapital":false,"nationalCapital":false,"pk":null,"quiz":"europe","code":null,"archived":false,"percentageOfSessions":null}, {"name":"Dhrosáton","state":"Ionian Islands","territory":"","country":"Greece","latitude":39.73078417,"longitude":19.73541981,"population":143,"stateCapital":false,"nationalCapital":false,"pk":null,"quiz":"europe","code":null,"archived":false,"percentageOfSessions":null}, {"name":"Dhroserí","state":"Ionian Islands","territory":"","country":"Greece","latitude":39.75271729,"longitude":19.82549521,"population":24,"stateCapital":false,"nationalCapital":false,"pk":null,"quiz":"europe","code":null,"archived":false,"percentageOfSessions":null}, {"name":"Dhrosiá","state":"Ionian Islands","territory":"","country":"Greece","latitude":37.83403552,"longitude":20.82382668,"population":120,"stateCapital":false,"nationalCapital":false,"pk":null,"quiz":"europe","code":null,"archived":false,"percentageOfSessions":null}, {"name":"Dhrimón","state":"Ionian Islands","territory":"","country":"Greece","latitude":38.76859893,"longitude":20.62549156,"population":28,"stateCapital":false,"nationalCapital":false,"pk":null,"quiz":"europe","code":null,"archived":false,"percentageOfSessions":null}, {"name":"Evropúli","state":"Ionian Islands","territory":"","country":"Greece","latitude":39.62202421,"longitude":19.86511679,"population":339,"stateCapital":false,"nationalCapital":false,"pk":null,"quiz":"europe","code":null,"archived":false,"percentageOfSessions":null}, {"name":"Enġluví","state":"Ionian Islands","territory":"","country":"Greece","latitude":38.72767783,"longitude":20.6453073,"population":109,"stateCapital":false,"nationalCapital":false,"pk":null,"quiz":"europe","code":null,"archived":false,"percentageOfSessions":null}, {"name":"Eliés","state":"Ionian Islands","territory":"","country":"Greece","latitude":37.90124734,"longitude":20.67441788,"population":25,"stateCapital":false,"nationalCapital":false,"pk":null,"quiz":"europe","code":null,"archived":false,"percentageOfSessions":null}, {"name":"Eksánthia","state":"Ionian Islands","territory":"","country":"Greece","latitude":38.75388736,"longitude":20.61845082,"population":170,"stateCapital":false,"nationalCapital":false,"pk":null,"quiz":"europe","code":null,"archived":false,"percentageOfSessions":null}, {"name":"Ékso Hóra","state":"Ionian Islands","territory":"","country":"Greece","latitude":37.79797674,"longitude":20.68315477,"population":117,"stateCapital":false,"nationalCapital":false,"pk":null,"quiz":"europe","code":null,"archived":false,"percentageOfSessions":null}, {"name":"Eksogí","state":"Ionian Islands","territory":"","country":"Greece","latitude":38.45964977,"longitude":20.63100787,"population":25,"stateCapital":false,"nationalCapital":false,"pk":null,"quiz":"europe","code":null,"archived":false,"percentageOfSessions":null}, {"name":"Epanohórion","state":"Ionian Islands","territory":"","country":"Greece","latitude":38.15568747,"longitude":20.5973241,"population":33,"stateCapital":false,"nationalCapital":false,"pk":null,"quiz":"europe","code":null,"archived":false,"percentageOfSessions":null}, {"name":"Epískepsis","state":"Ionian Islands","territory":"","country":"Greece","latitude":39.7563362,"longitude":19.81524462,"population":339,"stateCapital":false,"nationalCapital":false,"pk":null,"quiz":"europe","code":null,"archived":false,"percentageOfSessions":null}, {"name":"Episkopí","state":"Ionian Islands","territory":"","country":"Greece","latitude":39.74735374,"longitude":19.76974179,"population":8,"stateCapital":false,"nationalCapital":false,"pk":null,"quiz":"europe","code":null,"archived":false,"percentageOfSessions":null}, {"name":"Episkopí","state":"Ionian Islands","territory":"","country":"Greece","latitude":38.64472549,"longitude":20.92661148,"population":56,"stateCapital":false,"nationalCapital":false,"pk":null,"quiz":"europe","code":null,"archived":false,"percentageOfSessions":null}, {"name":"Episkopianá","state":"Ionian Islands","territory":"","country":"Greece","latitude":39.49281593,"longitude":19.9168903,"population":263,"stateCapital":false,"nationalCapital":false,"pk":null,"quiz":"europe","code":null,"archived":false,"percentageOfSessions":null}, {"name":"Epískopos","state":"Ionian Islands","territory":"","country":"Greece","latitude":38.76800258,"longitude":20.71980069,"population":100,"stateCapital":false,"nationalCapital":false,"pk":null,"quiz":"europe","code":null,"archived":false,"percentageOfSessions":null}, {"name":"Erikússa","state":"Ionian Islands","territory":"","country":"Greece","latitude":39.88225616,"longitude":19.58808369,"population":506,"stateCapital":false,"nationalCapital":false,"pk":null,"quiz":"europe","code":null,"archived":false,"percentageOfSessions":null}, {"name":"Eríva","state":"Ionian Islands","territory":"","country":"Greece","latitude":39.75900219,"longitude":19.83046071,"population":27,"stateCapital":false,"nationalCapital":false,"pk":null,"quiz":"europe","code":null,"archived":false,"percentageOfSessions":null}, {"name":"Érmones","state":"Ionian Islands","territory":"","country":"Greece","latitude":39.61206839,"longitude":19.77176483,"population":33,"stateCapital":false,"nationalCapital":false,"pk":null,"quiz":"europe","code":null,"archived":false,"percentageOfSessions":null}, {"name":"Estavroménos","state":"Ionian Islands","territory":"","country":"Greece","latitude":39.5762796,"longitude":19.87144794,"population":39,"stateCapital":false,"nationalCapital":false,"pk":null,"quiz":"europe","code":null,"archived":false,"percentageOfSessions":null}, {"name":"Évgiros","state":"Ionian Islands","territory":"","country":"Greece","latitude":38.61881408,"longitude":20.65430638,"population":54,"stateCapital":false,"nationalCapital":false,"pk":null,"quiz":"europe","code":null,"archived":false,"percentageOfSessions":null}, {"name":"Evretí","state":"Ionian Islands","territory":"","country":"Greece","latitude":38.43284534,"longitude":20.58110482,"population":14,"stateCapital":false,"nationalCapital":false,"pk":null,"quiz":"europe","code":null,"archived":false,"percentageOfSessions":null}, {"name":"Zákinthos","state":"Ionian Islands","territory":"","country":"Greece","latitude":37.7848583,"longitude":20.89636203,"population":9778,"stateCapital":false,"nationalCapital":false,"pk":null,"quiz":"europe","code":null,"archived":false,"percentageOfSessions":null}, {"name":"Zóla","state":"Ionian Islands","territory":"","country":"Greece","latitude":38.30882829,"longitude":20.46816555,"population":106,"stateCapital":false,"nationalCapital":false,"pk":null,"quiz":"europe","code":null,"archived":false,"percentageOfSessions":null}, {"name":"Zigós","state":"Ionian Islands","territory":"","country":"Greece","latitude":39.72431513,"longitude":19.80073193,"population":208,"stateCapital":false,"nationalCapital":false,"pk":null,"quiz":"europe","code":null,"archived":false,"percentageOfSessions":null}, {"name":"Imeroliá","state":"Ionian Islands","territory":"","country":"Greece","latitude":39.78555342,"longitude":19.90682188,"population":125,"stateCapital":false,"nationalCapital":false,"pk":null,"quiz":"europe","code":null,"archived":false,"percentageOfSessions":null}, {"name":"Thirámonas","state":"Ionian Islands","territory":"","country":"Greece","latitude":38.07428998,"longitude":20.70606853,"population":59,"stateCapital":false,"nationalCapital":false,"pk":null,"quiz":"europe","code":null,"archived":false,"percentageOfSessions":null}, {"name":"Ieromónahos","state":"Ionian Islands","territory":"","country":"Greece","latitude":39.20117571,"longitude":20.17828584,"population":28,"stateCapital":false,"nationalCapital":false,"pk":null,"quiz":"europe","code":null,"archived":false,"percentageOfSessions":null}, {"name":"Itháki","state":"Ionian Islands","territory":"","country":"Greece","latitude":38.36109783,"longitude":20.71760738,"population":1891,"stateCapital":false,"nationalCapital":false,"pk":null,"quiz":"europe","code":null,"archived":false,"percentageOfSessions":null}, {"name":"Kavallérena","state":"Ionian Islands","territory":"","country":"Greece","latitude":39.73733637,"longitude":19.92315408,"population":19,"stateCapital":false,"nationalCapital":false,"pk":null,"quiz":"europe","code":null,"archived":false,"percentageOfSessions":null}, {"name":"Kávallos","state":"Ionian Islands","territory":"","country":"Greece","latitude":38.78471097,"longitude":20.658482,"population":182,"stateCapital":false,"nationalCapital":false,"pk":null,"quiz":"europe","code":null,"archived":false,"percentageOfSessions":null}, {"name":"Kavallúrion","state":"Ionian Islands","territory":"","country":"Greece","latitude":39.77199733,"longitude":19.75015102,"population":314,"stateCapital":false,"nationalCapital":false,"pk":null,"quiz":"europe","code":null,"archived":false,"percentageOfSessions":null}, {"name":"Kavvadhádhes","state":"Ionian Islands","territory":"","country":"Greece","latitude":39.74395532,"longitude":19.67946017,"population":464,"stateCapital":false,"nationalCapital":false,"pk":null,"quiz":"europe","code":null,"archived":false,"percentageOfSessions":null}, {"name":"Kávos","state":"Ionian Islands","territory":"","country":"Greece","latitude":39.38093598,"longitude":20.11421376,"population":979,"stateCapital":false,"nationalCapital":false,"pk":null,"quiz":"europe","code":null,"archived":false,"percentageOfSessions":null}, {"name":"Kanġátika","state":"Ionian Islands","territory":"","country":"Greece","latitude":39.21468389,"longitude":20.15897919,"population":43,"stateCapital":false,"nationalCapital":false,"pk":null,"quiz":"europe","code":null,"archived":false,"percentageOfSessions":null}, {"name":"Kalavrós","state":"Ionian Islands","territory":"","country":"Greece","latitude":38.80894373,"longitude":20.63879631,"population":22,"stateCapital":false,"nationalCapital":false,"pk":null,"quiz":"europe","code":null,"archived":false,"percentageOfSessions":null}, {"name":"Kalamákion","state":"Ionian Islands","territory":"","country":"Greece","latitude":37.74393906,"longitude":20.88984574,"population":1012,"stateCapital":false,"nationalCapital":false,"pk":null,"quiz":"europe","code":null,"archived":false,"percentageOfSessions":null}, {"name":"Kalámi","state":"Ionian Islands","territory":"","country":"Greece","latitude":39.74167866,"longitude":19.93081195,"population":29,"stateCapital":false,"nationalCapital":false,"pk":null,"quiz":"europe","code":null,"archived":false,"percentageOfSessions":null}, {"name":"Kalamítsion","state":"Ionian Islands","territory":"","country":"Greece","latitude":38.75392508,"longitude":20.60336738,"population":206,"stateCapital":false,"nationalCapital":false,"pk":null,"quiz":"europe","code":null,"archived":false,"percentageOfSessions":null}, {"name":"Kálamos","state":"Ionian Islands","territory":"","country":"Greece","latitude":38.61923794,"longitude":20.92916238,"population":473,"stateCapital":false,"nationalCapital":false,"pk":null,"quiz":"europe","code":null,"archived":false,"percentageOfSessions":null}, {"name":"Kaláta","state":"Ionian Islands","territory":"","country":"Greece","latitude":38.23897625,"longitude":20.38589883,"population":25,"stateCapital":false,"nationalCapital":false,"pk":null,"quiz":"europe","code":null,"archived":false,"percentageOfSessions":null}, {"name":"Kalafatiónes","state":"Ionian Islands","territory":"","country":"Greece","latitude":39.57766987,"longitude":19.85720091,"population":461,"stateCapital":false,"nationalCapital":false,"pk":null,"quiz":"europe","code":null,"archived":false,"percentageOfSessions":null}, {"name":"Kalipádhon","state":"Ionian Islands","territory":"","country":"Greece","latitude":37.79867442,"longitude":20.83602972,"population":704,"stateCapital":false,"nationalCapital":false,"pk":null,"quiz":"europe","code":null,"archived":false,"percentageOfSessions":null}, {"name":"Kalligónion","state":"Ionian Islands","territory":"","country":"Greece","latitude":38.81509284,"longitude":20.71105736,"population":194,"stateCapital":false,"nationalCapital":false,"pk":null,"quiz":"europe","code":null,"archived":false,"percentageOfSessions":null}, {"name":"Kallithéa","state":"Ionian Islands","territory":"","country":"Greece","latitude":37.80810477,"longitude":20.76700328,"population":238,"stateCapital":false,"nationalCapital":false,"pk":null,"quiz":"europe","code":null,"archived":false,"percentageOfSessions":null}, {"name":"Kallithéa","state":"Ionian Islands","territory":"","country":"Greece","latitude":38.69672123,"longitude":20.70379121,"population":530,"stateCapital":false,"nationalCapital":false,"pk":null,"quiz":"europe","code":null,"archived":false,"percentageOfSessions":null}, {"name":"Kallitéros","state":"Ionian Islands","territory":"","country":"Greece","latitude":37.75459766,"longitude":20.89852138,"population":643,"stateCapital":false,"nationalCapital":false,"pk":null,"quiz":"europe","code":null,"archived":false,"percentageOfSessions":null}, {"name":"Kalpáki","state":"Ionian Islands","territory":"","country":"Greece","latitude":37.75343402,"longitude":20.85347889,"population":320,"stateCapital":false,"nationalCapital":false,"pk":null,"quiz":"europe","code":null,"archived":false,"percentageOfSessions":null}, {"name":"Kamára","state":"Ionian Islands","territory":"","country":"Greece","latitude":39.55406591,"longitude":19.86358039,"population":113,"stateCapital":false,"nationalCapital":false,"pk":null,"quiz":"europe","code":null,"archived":false,"percentageOfSessions":null}, {"name":"Kaminaráta","state":"Ionian Islands","territory":"","country":"Greece","latitude":38.2199066,"longitude":20.37756587,"population":220,"stateCapital":false,"nationalCapital":false,"pk":null,"quiz":"europe","code":null,"archived":false,"percentageOfSessions":null}, {"name":"Kambíon","state":"Ionian Islands","territory":"","country":"Greece","latitude":37.77620727,"longitude":20.68344388,"population":102,"stateCapital":false,"nationalCapital":false,"pk":null,"quiz":"europe","code":null,"archived":false,"percentageOfSessions":null}, {"name":"Kambitsáta","state":"Ionian Islands","territory":"","country":"Greece","latitude":38.13468669,"longitude":20.72981157,"population":43,"stateCapital":false,"nationalCapital":false,"pk":null,"quiz":"europe","code":null,"archived":false,"percentageOfSessions":null}, {"name":"Kanakádhes","state":"Ionian Islands","territory":"","country":"Greece","latitude":39.64683639,"longitude":19.76052008,"population":200,"stateCapital":false,"nationalCapital":false,"pk":null,"quiz":"europe","code":null,"archived":false,"percentageOfSessions":null}, {"name":"Kanálion","state":"Ionian Islands","territory":"","country":"Greece","latitude":39.60652432,"longitude":19.89002017,"population":4033,"stateCapital":false,"nationalCapital":false,"pk":null,"quiz":"europe","code":null,"archived":false,"percentageOfSessions":null}, {"name":"Kapandhrítion","state":"Ionian Islands","territory":"","country":"Greece","latitude":38.12530774,"longitude":20.72442486,"population":50,"stateCapital":false,"nationalCapital":false,"pk":null,"quiz":"europe","code":null,"archived":false,"percentageOfSessions":null}, {"name":"Karavádhos","state":"Ionian Islands","territory":"","country":"Greece","latitude":38.12806271,"longitude":20.57982888,"population":446,"stateCapital":false,"nationalCapital":false,"pk":null,"quiz":"europe","code":null,"archived":false,"percentageOfSessions":null}, {"name":"Karavómilos","state":"Ionian Islands","territory":"","country":"Greece","latitude":38.25644332,"longitude":20.62298568,"population":389,"stateCapital":false,"nationalCapital":false,"pk":null,"quiz":"europe","code":null,"archived":false,"percentageOfSessions":null}, {"name":"Kardhakáta","state":"Ionian Islands","territory":"","country":"Greece","latitude":38.27537996,"longitude":20.46837664,"population":172,"stateCapital":false,"nationalCapital":false,"pk":null,"quiz":"europe","code":null,"archived":false,"percentageOfSessions":null}, {"name":"Kardhamátika","state":"Ionian Islands","territory":"","country":"Greece","latitude":39.55627651,"longitude":19.86568231,"population":7,"stateCapital":false,"nationalCapital":false,"pk":null,"quiz":"europe","code":null,"archived":false,"percentageOfSessions":null}, {"name":"Karióte","state":"Ionian Islands","territory":"","country":"Greece","latitude":38.79658567,"longitude":20.71253567,"population":516,"stateCapital":false,"nationalCapital":false,"pk":null,"quiz":"europe","code":null,"archived":false,"percentageOfSessions":null}, {"name":"Kárniaris","state":"Ionian Islands","territory":"","country":"Greece","latitude":39.81043354,"longitude":19.85880552,"population":20,"stateCapital":false,"nationalCapital":false,"pk":null,"quiz":"europe","code":null,"archived":false,"percentageOfSessions":null}, {"name":"Karusádhes","state":"Ionian Islands","territory":"","country":"Greece","latitude":39.77824011,"longitude":19.74383402,"population":975,"stateCapital":false,"nationalCapital":false,"pk":null,"quiz":"europe","code":null,"archived":false,"percentageOfSessions":null}, {"name":"Kariá","state":"Ionian Islands","territory":"","country":"Greece","latitude":38.36708259,"longitude":20.57582968,"population":32,"stateCapital":false,"nationalCapital":false,"pk":null,"quiz":"europe","code":null,"archived":false,"percentageOfSessions":null}, {"name":"Kariá","state":"Ionian Islands","territory":"","country":"Greece","latitude":38.75601339,"longitude":20.64762018,"population":593,"stateCapital":false,"nationalCapital":false,"pk":null,"quiz":"europe","code":null,"archived":false,"percentageOfSessions":null}, {"name":"Kariótikon","state":"Ionian Islands","territory":"","country":"Greece","latitude":39.76469096,"longitude":19.93092698,"population":78,"stateCapital":false,"nationalCapital":false,"pk":null,"quiz":"europe","code":null,"archived":false,"percentageOfSessions":null}, {"name":"Kassiópi","state":"Ionian Islands","territory":"","country":"Greece","latitude":39.78603831,"longitude":19.91875674,"population":799,"stateCapital":false,"nationalCapital":false,"pk":null,"quiz":"europe","code":null,"archived":false,"percentageOfSessions":null}, {"name":"Kastanéa","state":"Ionian Islands","territory":"","country":"Greece","latitude":39.58974616,"longitude":19.88185964,"population":780,"stateCapital":false,"nationalCapital":false,"pk":null,"quiz":"europe","code":null,"archived":false,"percentageOfSessions":null}, {"name":"Kastélia","state":"Ionian Islands","territory":"","country":"Greece","latitude":37.83696561,"longitude":20.79043088,"population":7,"stateCapital":false,"nationalCapital":false,"pk":null,"quiz":"europe","code":null,"archived":false,"percentageOfSessions":null}, {"name":"Kastelláni","state":"Ionian Islands","territory":"","country":"Greece","latitude":39.70848679,"longitude":19.73529679,"population":85,"stateCapital":false,"nationalCapital":false,"pk":null,"quiz":"europe","code":null,"archived":false,"percentageOfSessions":null}, {"name":"Kastelláni","state":"Ionian Islands","territory":"","country":"Greece","latitude":39.70848679,"longitude":19.73529679,"population":499,"stateCapital":false,"nationalCapital":false,"pk":null,"quiz":"europe","code":null,"archived":false,"percentageOfSessions":null}, {"name":"Kastós","state":"Ionian Islands","territory":"","country":"Greece","latitude":38.5677867,"longitude":20.90837686,"population":79,"stateCapital":false,"nationalCapital":false,"pk":null,"quiz":"europe","code":null,"archived":false,"percentageOfSessions":null}, {"name":"Kástron","state":"Ionian Islands","territory":"","country":"Greece","latitude":38.13546498,"longitude":20.55472204,"population":47,"stateCapital":false,"nationalCapital":false,"pk":null,"quiz":"europe","code":null,"archived":false,"percentageOfSessions":null}, {"name":"Katávolos","state":"Ionian Islands","territory":"","country":"Greece","latitude":39.73238371,"longitude":19.90635992,"population":19,"stateCapital":false,"nationalCapital":false,"pk":null,"quiz":"europe","code":null,"archived":false,"percentageOfSessions":null}, {"name":"Katastárion","state":"Ionian Islands","territory":"","country":"Greece","latitude":37.82889014,"longitude":20.75486538,"population":1577,"stateCapital":false,"nationalCapital":false,"pk":null,"quiz":"europe","code":null,"archived":false,"percentageOfSessions":null}, {"name":"Kateliós","state":"Ionian Islands","territory":"","country":"Greece","latitude":38.07539424,"longitude":20.75186473,"population":38,"stateCapital":false,"nationalCapital":false,"pk":null,"quiz":"europe","code":null,"archived":false,"percentageOfSessions":null}, {"name":"Katúna","state":"Ionian Islands","territory":"","country":"Greece","latitude":38.7787501,"longitude":20.7057471,"population":135,"stateCapital":false,"nationalCapital":false,"pk":null,"quiz":"europe","code":null,"archived":false,"percentageOfSessions":null}, {"name":"Katsaráta","state":"Ionian Islands","territory":"","country":"Greece","latitude":38.44744794,"longitude":20.5651365,"population":23,"stateCapital":false,"nationalCapital":false,"pk":null,"quiz":"europe","code":null,"archived":false,"percentageOfSessions":null}, {"name":"Katsimátika","state":"Ionian Islands","territory":"","country":"Greece","latitude":39.17988323,"longitude":20.19005144,"population":4,"stateCapital":false,"nationalCapital":false,"pk":null,"quiz":"europe","code":null,"archived":false,"percentageOfSessions":null}, {"name":"Káto Ágios Márkos","state":"Ionian Islands","territory":"","country":"Greece","latitude":39.69901332,"longitude":19.83613495,"population":856,"stateCapital":false,"nationalCapital":false,"pk":null,"quiz":"europe","code":null,"archived":false,"percentageOfSessions":null}, {"name":"Káto Garúna","state":"Ionian Islands","territory":"","country":"Greece","latitude":39.53741421,"longitude":19.86432373,"population":577,"stateCapital":false,"nationalCapital":false,"pk":null,"quiz":"europe","code":null,"archived":false,"percentageOfSessions":null}, {"name":"Káto Gerakárion","state":"Ionian Islands","territory":"","country":"Greece","latitude":37.81210649,"longitude":20.80487141,"population":344,"stateCapital":false,"nationalCapital":false,"pk":null,"quiz":"europe","code":null,"archived":false,"percentageOfSessions":null}, {"name":"Káto Kateliós","state":"Ionian Islands","territory":"","country":"Greece","latitude":38.0634722,"longitude":20.74866177,"population":209,"stateCapital":false,"nationalCapital":false,"pk":null,"quiz":"europe","code":null,"archived":false,"percentageOfSessions":null}, {"name":"Káto Korakiána","state":"Ionian Islands","territory":"","country":"Greece","latitude":39.68780666,"longitude":19.82567492,"population":1910,"stateCapital":false,"nationalCapital":false,"pk":null,"quiz":"europe","code":null,"archived":false,"percentageOfSessions":null}, {"name":"Káto Pavliána","state":"Ionian Islands","territory":"","country":"Greece","latitude":39.52221584,"longitude":19.86530582,"population":123,"stateCapital":false,"nationalCapital":false,"pk":null,"quiz":"europe","code":null,"archived":false,"percentageOfSessions":null}, {"name":"Káto Spíleon","state":"Ionian Islands","territory":"","country":"Greece","latitude":39.46080657,"longitude":19.93726374,"population":49,"stateCapital":false,"nationalCapital":false,"pk":null,"quiz":"europe","code":null,"archived":false,"percentageOfSessions":null}, {"name":"Katomérion","state":"Ionian Islands","territory":"","country":"Greece","latitude":38.65381942,"longitude":20.78788169,"population":410,"stateCapital":false,"nationalCapital":false,"pk":null,"quiz":"europe","code":null,"archived":false,"percentageOfSessions":null}, {"name":"Katohórion","state":"Ionian Islands","territory":"","country":"Greece","latitude":38.66445923,"longitude":20.69139758,"population":135,"stateCapital":false,"nationalCapital":false,"pk":null,"quiz":"europe","code":null,"archived":false,"percentageOfSessions":null}, {"name":"Kellía","state":"Ionian Islands","territory":"","country":"Greece","latitude":39.77720954,"longitude":19.91238573,"population":14,"stateCapital":false,"nationalCapital":false,"pk":null,"quiz":"europe","code":null,"archived":false,"percentageOfSessions":null}, {"name":"Kéndroma","state":"Ionian Islands","territory":"","country":"Greece","latitude":39.7329391,"longitude":19.92358942,"population":68,"stateCapital":false,"nationalCapital":false,"pk":null,"quiz":"europe","code":null,"archived":false,"percentageOfSessions":null}, {"name":"Keramié","state":"Ionian Islands","territory":"","country":"Greece","latitude":38.11553725,"longitude":20.55490563,"population":331,"stateCapital":false,"nationalCapital":false,"pk":null,"quiz":"europe","code":null,"archived":false,"percentageOfSessions":null}, {"name":"Keríon","state":"Ionian Islands","territory":"","country":"Greece","latitude":37.65866133,"longitude":20.81456575,"population":473,"stateCapital":false,"nationalCapital":false,"pk":null,"quiz":"europe","code":null,"archived":false,"percentageOfSessions":null}, {"name":"Kérkira","state":"Ionian Islands","territory":"","country":"Greece","latitude":39.62037361,"longitude":19.92017667,"population":25212,"stateCapital":true,"nationalCapital":false,"pk":null,"quiz":"europe","code":null,"archived":false,"percentageOfSessions":null}, {"name":"Kiónion","state":"Ionian Islands","territory":"","country":"Greece","latitude":38.44455197,"longitude":20.68898379,"population":191,"stateCapital":false,"nationalCapital":false,"pk":null,"quiz":"europe","code":null,"archived":false,"percentageOfSessions":null}, {"name":"Klísmata","state":"Ionian Islands","territory":"","country":"Greece","latitude":38.10087225,"longitude":20.55764195,"population":79,"stateCapital":false,"nationalCapital":false,"pk":null,"quiz":"europe","code":null,"archived":false,"percentageOfSessions":null}, {"name":"Klimatiá","state":"Ionian Islands","territory":"","country":"Greece","latitude":39.7402413,"longitude":19.78219522,"population":226,"stateCapital":false,"nationalCapital":false,"pk":null,"quiz":"europe","code":null,"archived":false,"percentageOfSessions":null}, {"name":"Kothréas","state":"Ionian Islands","territory":"","country":"Greece","latitude":38.39079002,"longitude":20.56229958,"population":61,"stateCapital":false,"nationalCapital":false,"pk":null,"quiz":"europe","code":null,"archived":false,"percentageOfSessions":null}, {"name":"Kilioménos","state":"Ionian Islands","territory":"","country":"Greece","latitude":37.74601741,"longitude":20.77248167,"population":399,"stateCapital":false,"nationalCapital":false,"pk":null,"quiz":"europe","code":null,"archived":false,"percentageOfSessions":null}, {"name":"Kókkini","state":"Ionian Islands","territory":"","country":"Greece","latitude":39.75202221,"longitude":19.92363336,"population":52,"stateCapital":false,"nationalCapital":false,"pk":null,"quiz":"europe","code":null,"archived":false,"percentageOfSessions":null}, {"name":"Kokkínion","state":"Ionian Islands","territory":"","country":"Greece","latitude":39.60687537,"longitude":19.8137841,"population":580,"stateCapital":false,"nationalCapital":false,"pk":null,"quiz":"europe","code":null,"archived":false,"percentageOfSessions":null}, {"name":"Kokkinógia","state":"Ionian Islands","territory":"","country":"Greece","latitude":39.60156261,"longitude":19.80561727,"population":83,"stateCapital":false,"nationalCapital":false,"pk":null,"quiz":"europe","code":null,"archived":false,"percentageOfSessions":null}, {"name":"Kokkokílas","state":"Ionian Islands","territory":"","country":"Greece","latitude":39.75705648,"longitude":19.92239624,"population":14,"stateCapital":false,"nationalCapital":false,"pk":null,"quiz":"europe","code":null,"archived":false,"percentageOfSessions":null}, {"name":"Kokoláta","state":"Ionian Islands","territory":"","country":"Greece","latitude":38.38510405,"longitude":20.56021019,"population":177,"stateCapital":false,"nationalCapital":false,"pk":null,"quiz":"europe","code":null,"archived":false,"percentageOfSessions":null}, {"name":"Kokoláta","state":"Ionian Islands","territory":"","country":"Greece","latitude":38.38510405,"longitude":20.56021019,"population":4,"stateCapital":false,"nationalCapital":false,"pk":null,"quiz":"europe","code":null,"archived":false,"percentageOfSessions":null}, {"name":"Kolétis","state":"Ionian Islands","territory":"","country":"Greece","latitude":38.08594511,"longitude":20.71901375,"population":32,"stateCapital":false,"nationalCapital":false,"pk":null,"quiz":"europe","code":null,"archived":false,"percentageOfSessions":null}, {"name":"Kolliváta","state":"Ionian Islands","territory":"","country":"Greece","latitude":38.74757741,"longitude":20.68907455,"population":6,"stateCapital":false,"nationalCapital":false,"pk":null,"quiz":"europe","code":null,"archived":false,"percentageOfSessions":null}, {"name":"Komílion","state":"Ionian Islands","territory":"","country":"Greece","latitude":38.70751002,"longitude":20.59184188,"population":42,"stateCapital":false,"nationalCapital":false,"pk":null,"quiz":"europe","code":null,"archived":false,"percentageOfSessions":null}, {"name":"Komianáta","state":"Ionian Islands","territory":"","country":"Greece","latitude":39.52675746,"longitude":19.90417717,"population":30,"stateCapital":false,"nationalCapital":false,"pk":null,"quiz":"europe","code":null,"archived":false,"percentageOfSessions":null}, {"name":"Komitáta","state":"Ionian Islands","territory":"","country":"Greece","latitude":38.35273031,"longitude":20.59650816,"population":68,"stateCapital":false,"nationalCapital":false,"pk":null,"quiz":"europe","code":null,"archived":false,"percentageOfSessions":null}, {"name":"Kombítsion","state":"Ionian Islands","territory":"","country":"Greece","latitude":39.59934525,"longitude":19.86391733,"population":729,"stateCapital":false,"nationalCapital":false,"pk":null,"quiz":"europe","code":null,"archived":false,"percentageOfSessions":null}, {"name":"Kombothekráta","state":"Ionian Islands","territory":"","country":"Greece","latitude":38.14241824,"longitude":20.50498918,"population":438,"stateCapital":false,"nationalCapital":false,"pk":null,"quiz":"europe","code":null,"archived":false,"percentageOfSessions":null}, {"name":"Konidharáta","state":"Ionian Islands","territory":"","country":"Greece","latitude":38.42486776,"longitude":20.5690273,"population":25,"stateCapital":false,"nationalCapital":false,"pk":null,"quiz":"europe","code":null,"archived":false,"percentageOfSessions":null}, {"name":"Kondárena","state":"Ionian Islands","territory":"","country":"Greece","latitude":38.62354492,"longitude":20.62867777,"population":168,"stateCapital":false,"nationalCapital":false,"pk":null,"quiz":"europe","code":null,"archived":false,"percentageOfSessions":null}, {"name":"Kondogenádha","state":"Ionian Islands","territory":"","country":"Greece","latitude":38.24838556,"longitude":20.3936026,"population":95,"stateCapital":false,"nationalCapital":false,"pk":null,"quiz":"europe","code":null,"archived":false,"percentageOfSessions":null}, {"name":"Kondogialós","state":"Ionian Islands","territory":"","country":"Greece","latitude":39.57535261,"longitude":19.8254902,"population":762,"stateCapital":false,"nationalCapital":false,"pk":null,"quiz":"europe","code":null,"archived":false,"percentageOfSessions":null}, {"name":"Kondogiannátika","state":"Ionian Islands","territory":"","country":"Greece","latitude":39.21900605,"longitude":20.16098164,"population":69,"stateCapital":false,"nationalCapital":false,"pk":null,"quiz":"europe","code":null,"archived":false,"percentageOfSessions":null}, {"name":"Kondokálion","state":"Ionian Islands","territory":"","country":"Greece","latitude":39.64252051,"longitude":19.84967123,"population":2044,"stateCapital":false,"nationalCapital":false,"pk":null,"quiz":"europe","code":null,"archived":false,"percentageOfSessions":null}, {"name":"Korakádhes","state":"Ionian Islands","territory":"","country":"Greece","latitude":39.45361187,"longitude":19.98785196,"population":29,"stateCapital":false,"nationalCapital":false,"pk":null,"quiz":"europe","code":null,"archived":false,"percentageOfSessions":null}, {"name":"Koriánna","state":"Ionian Islands","territory":"","country":"Greece","latitude":38.1087784,"longitude":20.5522117,"population":60,"stateCapital":false,"nationalCapital":false,"pk":null,"quiz":"europe","code":null,"archived":false,"percentageOfSessions":null}, {"name":"Koríthion","state":"Ionian Islands","territory":"","country":"Greece","latitude":37.912313,"longitude":20.69777677,"population":47,"stateCapital":false,"nationalCapital":false,"pk":null,"quiz":"europe","code":null,"archived":false,"percentageOfSessions":null}, {"name":"Kornáta","state":"Ionian Islands","territory":"","country":"Greece","latitude":39.51490112,"longitude":19.89962264,"population":101,"stateCapital":false,"nationalCapital":false,"pk":null,"quiz":"europe","code":null,"archived":false,"percentageOfSessions":null}, {"name":"Koróni","state":"Ionian Islands","territory":"","country":"Greece","latitude":37.86116538,"longitude":20.72647368,"population":10,"stateCapital":false,"nationalCapital":false,"pk":null,"quiz":"europe","code":null,"archived":false,"percentageOfSessions":null}, {"name":"Kuvaláta","state":"Ionian Islands","territory":"","country":"Greece","latitude":38.23974164,"longitude":20.41735409,"population":59,"stateCapital":false,"nationalCapital":false,"pk":null,"quiz":"europe","code":null,"archived":false,"percentageOfSessions":null}, {"name":"Kuknikádhes","state":"Ionian Islands","territory":"","country":"Greece","latitude":39.77094502,"longitude":19.67594965,"population":56,"stateCapital":false,"nationalCapital":false,"pk":null,"quiz":"europe","code":null,"archived":false,"percentageOfSessions":null}, {"name":"Kuluráta","state":"Ionian Islands","territory":"","country":"Greece","latitude":38.19023673,"longitude":20.66203178,"population":27,"stateCapital":false,"nationalCapital":false,"pk":null,"quiz":"europe","code":null,"archived":false,"percentageOfSessions":null}, {"name":"Kunavádhes","state":"Ionian Islands","territory":"","country":"Greece","latitude":39.75538424,"longitude":19.69466506,"population":48,"stateCapital":false,"nationalCapital":false,"pk":null,"quiz":"europe","code":null,"archived":false,"percentageOfSessions":null}, {"name":"Kunduráta","state":"Ionian Islands","territory":"","country":"Greece","latitude":38.11004324,"longitude":20.57894925,"population":60,"stateCapital":false,"nationalCapital":false,"pk":null,"quiz":"europe","code":null,"archived":false,"percentageOfSessions":null}, {"name":"Kuramádhes","state":"Ionian Islands","territory":"","country":"Greece","latitude":39.56886931,"longitude":19.85405991,"population":244,"stateCapital":false,"nationalCapital":false,"pk":null,"quiz":"europe","code":null,"archived":false,"percentageOfSessions":null}, {"name":"Kuramadhítika","state":"Ionian Islands","territory":"","country":"Greece","latitude":39.62841225,"longitude":19.80553919,"population":72,"stateCapital":false,"nationalCapital":false,"pk":null,"quiz":"europe","code":null,"archived":false,"percentageOfSessions":null}, {"name":"Kurkuléika","state":"Ionian Islands","territory":"","country":"Greece","latitude":39.62858542,"longitude":19.84069601,"population":49,"stateCapital":false,"nationalCapital":false,"pk":null,"quiz":"europe","code":null,"archived":false,"percentageOfSessions":null}, {"name":"Kurukláta","state":"Ionian Islands","territory":"","country":"Greece","latitude":38.24140715,"longitude":20.47432948,"population":76,"stateCapital":false,"nationalCapital":false,"pk":null,"quiz":"europe","code":null,"archived":false,"percentageOfSessions":null}, {"name":"Kurtéika","state":"Ionian Islands","territory":"","country":"Greece","latitude":39.20803415,"longitude":20.15591831,"population":30,"stateCapital":false,"nationalCapital":false,"pk":null,"quiz":"europe","code":null,"archived":false,"percentageOfSessions":null}, {"name":"Kuspádhes","state":"Ionian Islands","territory":"","country":"Greece","latitude":39.45096604,"longitude":19.97644073,"population":293,"stateCapital":false,"nationalCapital":false,"pk":null,"quiz":"europe","code":null,"archived":false,"percentageOfSessions":null}, {"name":"Kútsion","state":"Ionian Islands","territory":"","country":"Greece","latitude":39.21393223,"longitude":20.16817403,"population":35,"stateCapital":false,"nationalCapital":false,"pk":null,"quiz":"europe","code":null,"archived":false,"percentageOfSessions":null}, {"name":"Kopsohiládhes","state":"Ionian Islands","territory":"","country":"Greece","latitude":39.74512522,"longitude":19.72281231,"population":110,"stateCapital":false,"nationalCapital":false,"pk":null,"quiz":"europe","code":null,"archived":false,"percentageOfSessions":null}, {"name":"Krémithas","state":"Ionian Islands","territory":"","country":"Greece","latitude":39.76220808,"longitude":19.92449392,"population":35,"stateCapital":false,"nationalCapital":false,"pk":null,"quiz":"europe","code":null,"archived":false,"percentageOfSessions":null}, {"name":"Kremmídhion","state":"Ionian Islands","territory":"","country":"Greece","latitude":38.08582958,"longitude":20.74369441,"population":38,"stateCapital":false,"nationalCapital":false,"pk":null,"quiz":"europe","code":null,"archived":false,"percentageOfSessions":null}, {"name":"Kríni","state":"Ionian Islands","territory":"","country":"Greece","latitude":39.6824525,"longitude":19.68441088,"population":295,"stateCapital":false,"nationalCapital":false,"pk":null,"quiz":"europe","code":null,"archived":false,"percentageOfSessions":null}, {"name":"Kritiká","state":"Ionian Islands","territory":"","country":"Greece","latitude":39.3905473,"longitude":20.05142696,"population":452,"stateCapital":false,"nationalCapital":false,"pk":null,"quiz":"europe","code":null,"archived":false,"percentageOfSessions":null}, {"name":"Kriniás","state":"Ionian Islands","territory":"","country":"Greece","latitude":39.78445761,"longitude":19.85459044,"population":16,"stateCapital":false,"nationalCapital":false,"pk":null,"quiz":"europe","code":null,"archived":false,"percentageOfSessions":null}, {"name":"Kidhóni","state":"Ionian Islands","territory":"","country":"Greece","latitude":37.77631888,"longitude":20.88712433,"population":111,"stateCapital":false,"nationalCapital":false,"pk":null,"quiz":"europe","code":null,"archived":false,"percentageOfSessions":null}, {"name":"Kinopiáste","state":"Ionian Islands","territory":"","country":"Greece","latitude":39.56639299,"longitude":19.8826508,"population":1053,"stateCapital":false,"nationalCapital":false,"pk":null,"quiz":"europe","code":null,"archived":false,"percentageOfSessions":null}, {"name":"Kiprianádhes","state":"Ionian Islands","territory":"","country":"Greece","latitude":39.73895821,"longitude":19.76430566,"population":51,"stateCapital":false,"nationalCapital":false,"pk":null,"quiz":"europe","code":null,"archived":false,"percentageOfSessions":null}, {"name":"Kirá Hrisikú","state":"Ionian Islands","territory":"","country":"Greece","latitude":39.63661254,"longitude":19.84014629,"population":557,"stateCapital":false,"nationalCapital":false,"pk":null,"quiz":"europe","code":null,"archived":false,"percentageOfSessions":null}, {"name":"Kipséli","state":"Ionian Islands","territory":"","country":"Greece","latitude":37.81635646,"longitude":20.82152387,"population":531,"stateCapital":false,"nationalCapital":false,"pk":null,"quiz":"europe","code":null,"archived":false,"percentageOfSessions":null}, {"name":"Laganás","state":"Ionian Islands","territory":"","country":"Greece","latitude":37.72659432,"longitude":20.86464528,"population":1729,"stateCapital":false,"nationalCapital":false,"pk":null,"quiz":"europe","code":null,"archived":false,"percentageOfSessions":null}, {"name":"Lanġadhákia","state":"Ionian Islands","territory":"","country":"Greece","latitude":37.77122488,"longitude":20.80277176,"population":360,"stateCapital":false,"nationalCapital":false,"pk":null,"quiz":"europe","code":null,"archived":false,"percentageOfSessions":null}, {"name":"Lagópodhon","state":"Ionian Islands","territory":"","country":"Greece","latitude":37.75142413,"longitude":20.80974419,"population":483,"stateCapital":false,"nationalCapital":false,"pk":null,"quiz":"europe","code":null,"archived":false,"percentageOfSessions":null}, {"name":"Lazaráta","state":"Ionian Islands","territory":"","country":"Greece","latitude":38.77678297,"longitude":20.66623707,"population":524,"stateCapital":false,"nationalCapital":false,"pk":null,"quiz":"europe","code":null,"archived":false,"percentageOfSessions":null}, {"name":"Lazarátika","state":"Ionian Islands","territory":"","country":"Greece","latitude":39.77251136,"longitude":19.82159609,"population":46,"stateCapital":false,"nationalCapital":false,"pk":null,"quiz":"europe","code":null,"archived":false,"percentageOfSessions":null}, {"name":"Lakíthra","state":"Ionian Islands","territory":"","country":"Greece","latitude":38.12284304,"longitude":20.51567623,"population":624,"stateCapital":false,"nationalCapital":false,"pk":null,"quiz":"europe","code":null,"archived":false,"percentageOfSessions":null}, {"name":"Lákka","state":"Ionian Islands","territory":"","country":"Greece","latitude":39.2352044,"longitude":20.13079636,"population":239,"stateCapital":false,"nationalCapital":false,"pk":null,"quiz":"europe","code":null,"archived":false,"percentageOfSessions":null}, {"name":"Lákones","state":"Ionian Islands","territory":"","country":"Greece","latitude":39.67919384,"longitude":19.70619185,"population":377,"stateCapital":false,"nationalCapital":false,"pk":null,"quiz":"europe","code":null,"archived":false,"percentageOfSessions":null}, {"name":"Láfkion","state":"Ionian Islands","territory":"","country":"Greece","latitude":39.77128341,"longitude":19.84404267,"population":60,"stateCapital":false,"nationalCapital":false,"pk":null,"quiz":"europe","code":null,"archived":false,"percentageOfSessions":null}, {"name":"Lépedha","state":"Ionian Islands","territory":"","country":"Greece","latitude":38.17552453,"longitude":20.43743252,"population":13,"stateCapital":false,"nationalCapital":false,"pk":null,"quiz":"europe","code":null,"archived":false,"percentageOfSessions":null}, {"name":"Lefkás","state":"Ionian Islands","territory":"","country":"Greece","latitude":38.83164061,"longitude":20.70641821,"population":8611,"stateCapital":false,"nationalCapital":false,"pk":null,"quiz":"europe","code":null,"archived":false,"percentageOfSessions":null}, {"name":"Léfki","state":"Ionian Islands","territory":"","country":"Greece","latitude":38.41233776,"longitude":20.6485929,"population":35,"stateCapital":false,"nationalCapital":false,"pk":null,"quiz":"europe","code":null,"archived":false,"percentageOfSessions":null}, {"name":"Lefkímmi","state":"Ionian Islands","territory":"","country":"Greece","latitude":39.42085427,"longitude":20.0704178,"population":2891,"stateCapital":false,"nationalCapital":false,"pk":null,"quiz":"europe","code":null,"archived":false,"percentageOfSessions":null}, {"name":"Liksúrion","state":"Ionian Islands","territory":"","country":"Greece","latitude":38.19930635,"longitude":20.43587298,"population":3652,"stateCapital":false,"nationalCapital":false,"pk":null,"quiz":"europe","code":null,"archived":false,"percentageOfSessions":null}, {"name":"Liapádhes","state":"Ionian Islands","territory":"","country":"Greece","latitude":39.66577448,"longitude":19.73849618,"population":875,"stateCapital":false,"nationalCapital":false,"pk":null,"quiz":"europe","code":null,"archived":false,"percentageOfSessions":null}, {"name":"Livádhi","state":"Ionian Islands","territory":"","country":"Greece","latitude":39.76539017,"longitude":19.71409422,"population":360,"stateCapital":false,"nationalCapital":false,"pk":null,"quiz":"europe","code":null,"archived":false,"percentageOfSessions":null}, {"name":"Livádhion","state":"Ionian Islands","territory":"","country":"Greece","latitude":38.2431335,"longitude":20.42573378,"population":168,"stateCapital":false,"nationalCapital":false,"pk":null,"quiz":"europe","code":null,"archived":false,"percentageOfSessions":null}, {"name":"Lithakiá","state":"Ionian Islands","territory":"","country":"Greece","latitude":37.71664121,"longitude":20.82528251,"population":1478,"stateCapital":false,"nationalCapital":false,"pk":null,"quiz":"europe","code":null,"archived":false,"percentageOfSessions":null}, {"name":"Lithiasménos","state":"Ionian Islands","territory":"","country":"Greece","latitude":39.77575543,"longitude":19.91551304,"population":11,"stateCapital":false,"nationalCapital":false,"pk":null,"quiz":"europe","code":null,"archived":false,"percentageOfSessions":null}, {"name":"Límni","state":"Ionian Islands","territory":"","country":"Greece","latitude":39.66078133,"longitude":19.8400202,"population":1457,"stateCapital":false,"nationalCapital":false,"pk":null,"quiz":"europe","code":null,"archived":false,"percentageOfSessions":null}, {"name":"Límni Keríu","state":"Ionian Islands","territory":"","country":"Greece","latitude":37.68354579,"longitude":20.82395608,"population":253,"stateCapital":false,"nationalCapital":false,"pk":null,"quiz":"europe","code":null,"archived":false,"percentageOfSessions":null}, {"name":"Limondéϊka","state":"Ionian Islands","territory":"","country":"Greece","latitude":37.81067643,"longitude":20.84710215,"population":20,"stateCapital":false,"nationalCapital":false,"pk":null,"quiz":"europe","code":null,"archived":false,"percentageOfSessions":null}, {"name":"Línia","state":"Ionian Islands","territory":"","country":"Greece","latitude":39.43855272,"longitude":19.94124629,"population":1049,"stateCapital":false,"nationalCapital":false,"pk":null,"quiz":"europe","code":null,"archived":false,"percentageOfSessions":null},