{"cities":[{"name":"Vígla - Ágios Nílos (Ierá Moní Megístis Lávras)","state":"Mount Athos","territory":"","country":"Greece","latitude":40.13469777,"longitude":24.37314988,"population":18,"stateCapital":false,"nationalCapital":false,"pk":null,"quiz":"europe","code":null,"archived":false,"percentageOfSessions":null}, {"name":"Vuleftíria (Ierá Moní Megístis Lávras)","state":"Mount Athos","territory":"","country":"Greece","latitude":40.13368567,"longitude":24.29135247,"population":13,"stateCapital":false,"nationalCapital":false,"pk":null,"quiz":"europe","code":null,"archived":false,"percentageOfSessions":null}, {"name":"Dháfni","state":"Mount Athos","territory":"","country":"Greece","latitude":40.21014544,"longitude":24.22109833,"population":18,"stateCapital":false,"nationalCapital":false,"pk":null,"quiz":"europe","code":null,"archived":false,"percentageOfSessions":null}, {"name":"Karúlia (Ierá Moní Megístis Lávras)","state":"Mount Athos","territory":"","country":"Greece","latitude":40.12279451,"longitude":24.31761912,"population":7,"stateCapital":false,"nationalCapital":false,"pk":null,"quiz":"europe","code":null,"archived":false,"percentageOfSessions":null}, {"name":"Karié","state":"Mount Athos","territory":"","country":"Greece","latitude":40.25365454,"longitude":24.24284203,"population":192,"stateCapital":true,"nationalCapital":false,"pk":null,"quiz":"europe","code":null,"archived":false,"percentageOfSessions":null}, {"name":"Katunákia (Ierá Moní Megístis Lávras)","state":"Mount Athos","territory":"","country":"Greece","latitude":40.12029315,"longitude":24.29640724,"population":39,"stateCapital":false,"nationalCapital":false,"pk":null,"quiz":"europe","code":null,"archived":false,"percentageOfSessions":null}, {"name":"Kapsála","state":"Mount Athos","territory":"","country":"Greece","latitude":40.26840639,"longitude":24.24592648,"population":30,"stateCapital":false,"nationalCapital":false,"pk":null,"quiz":"europe","code":null,"archived":false,"percentageOfSessions":null}, {"name":"Kerasiá - Ágios Vasílios (Ierá Moní Megístis Lávras)","state":"Mount Athos","territory":"","country":"Greece","latitude":40.13006583,"longitude":24.31746225,"population":29,"stateCapital":false,"nationalCapital":false,"pk":null,"quiz":"europe","code":null,"archived":false,"percentageOfSessions":null}, {"name":"Metóhion Hurmítsis","state":"Mount Athos","territory":"","country":"Greece","latitude":40.31749713,"longitude":24.01981315,"population":18,"stateCapital":false,"nationalCapital":false,"pk":null,"quiz":"europe","code":null,"archived":false,"percentageOfSessions":null}, {"name":"Moní Agíu Dhionisíu","state":"Mount Athos","territory":"","country":"Greece","latitude":40.16573063,"longitude":24.27259829,"population":54,"stateCapital":false,"nationalCapital":false,"pk":null,"quiz":"europe","code":null,"archived":false,"percentageOfSessions":null}, {"name":"Moní Agíu Pandeleímonos","state":"Mount Athos","territory":"","country":"Greece","latitude":40.2352131,"longitude":24.2001919,"population":83,"stateCapital":false,"nationalCapital":false,"pk":null,"quiz":"europe","code":null,"archived":false,"percentageOfSessions":null}, {"name":"Moní Agíu Pávlu","state":"Mount Athos","territory":"","country":"Greece","latitude":40.15810158,"longitude":24.28690085,"population":54,"stateCapital":false,"nationalCapital":false,"pk":null,"quiz":"europe","code":null,"archived":false,"percentageOfSessions":null}, {"name":"Moní Vatopedhíu","state":"Mount Athos","territory":"","country":"Greece","latitude":40.31162208,"longitude":24.21127043,"population":180,"stateCapital":false,"nationalCapital":false,"pk":null,"quiz":"europe","code":null,"archived":false,"percentageOfSessions":null}, {"name":"Moní Dhohiaríu","state":"Mount Athos","territory":"","country":"Greece","latitude":40.26275392,"longitude":24.17164145,"population":53,"stateCapital":false,"nationalCapital":false,"pk":null,"quiz":"europe","code":null,"archived":false,"percentageOfSessions":null}, {"name":"Moní Esfigménu","state":"Mount Athos","territory":"","country":"Greece","latitude":40.34952763,"longitude":24.13652978,"population":2,"stateCapital":false,"nationalCapital":false,"pk":null,"quiz":"europe","code":null,"archived":false,"percentageOfSessions":null}, {"name":"Moní Zográfu","state":"Mount Athos","territory":"","country":"Greece","latitude":40.30228626,"longitude":24.15868027,"population":48,"stateCapital":false,"nationalCapital":false,"pk":null,"quiz":"europe","code":null,"archived":false,"percentageOfSessions":null}, {"name":"Moní Ivíron","state":"Mount Athos","territory":"","country":"Greece","latitude":40.24344806,"longitude":24.2813413,"population":39,"stateCapital":false,"nationalCapital":false,"pk":null,"quiz":"europe","code":null,"archived":false,"percentageOfSessions":null}, {"name":"Moní Karakállu","state":"Mount Athos","territory":"","country":"Greece","latitude":40.22082545,"longitude":24.30739045,"population":52,"stateCapital":false,"nationalCapital":false,"pk":null,"quiz":"europe","code":null,"archived":false,"percentageOfSessions":null}, {"name":"Moní Kutlumusíu","state":"Mount Athos","territory":"","country":"Greece","latitude":40.24935581,"longitude":24.24623806,"population":79,"stateCapital":false,"nationalCapital":false,"pk":null,"quiz":"europe","code":null,"archived":false,"percentageOfSessions":null}, {"name":"Moní Konstamonítu","state":"Mount Athos","territory":"","country":"Greece","latitude":40.28516367,"longitude":24.17350571,"population":54,"stateCapital":false,"nationalCapital":false,"pk":null,"quiz":"europe","code":null,"archived":false,"percentageOfSessions":null}, {"name":"Moní Megístis Lávras","state":"Mount Athos","territory":"","country":"Greece","latitude":40.16714252,"longitude":24.38103639,"population":85,"stateCapital":false,"nationalCapital":false,"pk":null,"quiz":"europe","code":null,"archived":false,"percentageOfSessions":null}, {"name":"Moní Ksenofóndos","state":"Mount Athos","territory":"","country":"Greece","latitude":40.25495783,"longitude":24.17733981,"population":86,"stateCapital":false,"nationalCapital":false,"pk":null,"quiz":"europe","code":null,"archived":false,"percentageOfSessions":null}, {"name":"Moní Osíu Grigoríu","state":"Mount Athos","territory":"","country":"Greece","latitude":40.17598487,"longitude":24.25672769,"population":113,"stateCapital":false,"nationalCapital":false,"pk":null,"quiz":"europe","code":null,"archived":false,"percentageOfSessions":null}, {"name":"Moní Pandokrátoros","state":"Mount Athos","territory":"","country":"Greece","latitude":40.28095816,"longitude":24.26425932,"population":55,"stateCapital":false,"nationalCapital":false,"pk":null,"quiz":"europe","code":null,"archived":false,"percentageOfSessions":null}, {"name":"Moní Símonos Pétras","state":"Mount Athos","territory":"","country":"Greece","latitude":40.18779047,"longitude":24.24488249,"population":80,"stateCapital":false,"nationalCapital":false,"pk":null,"quiz":"europe","code":null,"archived":false,"percentageOfSessions":null}, {"name":"Moní Stavronikíta","state":"Mount Athos","territory":"","country":"Greece","latitude":40.26410891,"longitude":24.27515842,"population":43,"stateCapital":false,"nationalCapital":false,"pk":null,"quiz":"europe","code":null,"archived":false,"percentageOfSessions":null}, {"name":"Moní Filothéu","state":"Mount Athos","territory":"","country":"Greece","latitude":40.22274284,"longitude":24.28782741,"population":68,"stateCapital":false,"nationalCapital":false,"pk":null,"quiz":"europe","code":null,"archived":false,"percentageOfSessions":null}, {"name":"Moní Hiliandharíu","state":"Mount Athos","territory":"","country":"Greece","latitude":40.33742995,"longitude":24.11902759,"population":76,"stateCapital":false,"nationalCapital":false,"pk":null,"quiz":"europe","code":null,"archived":false,"percentageOfSessions":null}, {"name":"Néa Skíti (Ierá Moní Agíu Pávlu)","state":"Mount Athos","territory":"","country":"Greece","latitude":40.14256765,"longitude":24.29163298,"population":44,"stateCapital":false,"nationalCapital":false,"pk":null,"quiz":"europe","code":null,"archived":false,"percentageOfSessions":null}, {"name":"Prováta - Morfonú (Ierá Moní Megístis Lávras)","state":"Mount Athos","territory":"","country":"Greece","latitude":40.21001279,"longitude":24.3204919,"population":34,"stateCapital":false,"nationalCapital":false,"pk":null,"quiz":"europe","code":null,"archived":false,"percentageOfSessions":null}, {"name":"Skíti Agías Ánnis","state":"Mount Athos","territory":"","country":"Greece","latitude":40.13745956,"longitude":24.29546361,"population":105,"stateCapital":false,"nationalCapital":false,"pk":null,"quiz":"europe","code":null,"archived":false,"percentageOfSessions":null}, {"name":"Skíti Agías Triádhos","state":"Mount Athos","territory":"","country":"Greece","latitude":40.12652193,"longitude":24.34130381,"population":29,"stateCapital":false,"nationalCapital":false,"pk":null,"quiz":"europe","code":null,"archived":false,"percentageOfSessions":null}, {"name":"Skíti Agíu Andhréu Vatopedhíu","state":"Mount Athos","territory":"","country":"Greece","latitude":40.25946037,"longitude":24.24256985,"population":53,"stateCapital":false,"nationalCapital":false,"pk":null,"quiz":"europe","code":null,"archived":false,"percentageOfSessions":null}, {"name":"Skíti Agíu Dhimitríu","state":"Mount Athos","territory":"","country":"Greece","latitude":40.2997976,"longitude":24.22036404,"population":58,"stateCapital":false,"nationalCapital":false,"pk":null,"quiz":"europe","code":null,"archived":false,"percentageOfSessions":null}, {"name":"Skíti Agíu Pandeleímonos","state":"Mount Athos","territory":"","country":"Greece","latitude":40.2495747,"longitude":24.25767359,"population":17,"stateCapital":false,"nationalCapital":false,"pk":null,"quiz":"europe","code":null,"archived":false,"percentageOfSessions":null}, {"name":"Skíti Evanġelismós tis Theotóku","state":"Mount Athos","territory":"","country":"Greece","latitude":40.24988003,"longitude":24.19746389,"population":7,"stateCapital":false,"nationalCapital":false,"pk":null,"quiz":"europe","code":null,"archived":false,"percentageOfSessions":null}, {"name":"Skíti Theotóku","state":"Mount Athos","territory":"","country":"Greece","latitude":40.14410107,"longitude":24.28892717,"population":2,"stateCapital":false,"nationalCapital":false,"pk":null,"quiz":"europe","code":null,"archived":false,"percentageOfSessions":null}, {"name":"Skíti Profítu Iliú","state":"Mount Athos","territory":"","country":"Greece","latitude":40.27832079,"longitude":24.25109957,"population":10,"stateCapital":false,"nationalCapital":false,"pk":null,"quiz":"europe","code":null,"archived":false,"percentageOfSessions":null}, {"name":"Skíti Timíu Prodhrómu Ivíron","state":"Mount Athos","territory":"","country":"Greece","latitude":40.23540385,"longitude":24.27335532,"population":4,"stateCapital":false,"nationalCapital":false,"pk":null,"quiz":"europe","code":null,"archived":false,"percentageOfSessions":null}, {"name":"Skíti Timíu Prodhrómu Megístis Lávras","state":"Mount Athos","territory":"","country":"Greece","latitude":40.14156895,"longitude":24.3828655,"population":41,"stateCapital":false,"nationalCapital":false,"pk":null,"quiz":"europe","code":null,"archived":false,"percentageOfSessions":null}],"startTimeMs":0}