{"cities":[{"name":"Avándi","state":"North Aegean","territory":"","country":"Greece","latitude":37.65261159,"longitude":26.78249985,"population":16,"stateCapital":false,"nationalCapital":false,"pk":null,"quiz":"europe","code":null,"archived":false,"percentageOfSessions":null}, {"name":"Agía Varvára","state":"North Aegean","territory":"","country":"Greece","latitude":38.96237145,"longitude":26.39909952,"population":67,"stateCapital":false,"nationalCapital":false,"pk":null,"quiz":"europe","code":null,"archived":false,"percentageOfSessions":null}, {"name":"Agía Ermióni","state":"North Aegean","territory":"","country":"Greece","latitude":38.2991784,"longitude":26.14599689,"population":545,"stateCapital":false,"nationalCapital":false,"pk":null,"quiz":"europe","code":null,"archived":false,"percentageOfSessions":null}, {"name":"Agía Zóni","state":"North Aegean","territory":"","country":"Greece","latitude":37.74931211,"longitude":27.00565147,"population":126,"stateCapital":false,"nationalCapital":false,"pk":null,"quiz":"europe","code":null,"archived":false,"percentageOfSessions":null}, {"name":"Agía Kiriakí","state":"North Aegean","territory":"","country":"Greece","latitude":37.6250089,"longitude":26.18405765,"population":3,"stateCapital":false,"nationalCapital":false,"pk":null,"quiz":"europe","code":null,"archived":false,"percentageOfSessions":null}, {"name":"Agía Kiriakí","state":"North Aegean","territory":"","country":"Greece","latitude":37.6250089,"longitude":26.18405765,"population":81,"stateCapital":false,"nationalCapital":false,"pk":null,"quiz":"europe","code":null,"archived":false,"percentageOfSessions":null}, {"name":"Agía Kiriakí","state":"North Aegean","territory":"","country":"Greece","latitude":37.69750801,"longitude":26.61518346,"population":42,"stateCapital":false,"nationalCapital":false,"pk":null,"quiz":"europe","code":null,"archived":false,"percentageOfSessions":null}, {"name":"Agía Marína","state":"North Aegean","territory":"","country":"Greece","latitude":39.06038658,"longitude":26.57511845,"population":511,"stateCapital":false,"nationalCapital":false,"pk":null,"quiz":"europe","code":null,"archived":false,"percentageOfSessions":null}, {"name":"Agía Markélla","state":"North Aegean","territory":"","country":"Greece","latitude":37.75923642,"longitude":26.94229892,"population":7,"stateCapital":false,"nationalCapital":false,"pk":null,"quiz":"europe","code":null,"archived":false,"percentageOfSessions":null}, {"name":"Agía Paraskeví","state":"North Aegean","territory":"","country":"Greece","latitude":39.2458592,"longitude":26.26817559,"population":2168,"stateCapital":false,"nationalCapital":false,"pk":null,"quiz":"europe","code":null,"archived":false,"percentageOfSessions":null}, {"name":"Agía Paraskeví","state":"North Aegean","territory":"","country":"Greece","latitude":39.2458592,"longitude":26.26817559,"population":125,"stateCapital":false,"nationalCapital":false,"pk":null,"quiz":"europe","code":null,"archived":false,"percentageOfSessions":null}, {"name":"Agía Paraskeví","state":"North Aegean","territory":"","country":"Greece","latitude":37.77722131,"longitude":26.9920026,"population":25,"stateCapital":false,"nationalCapital":false,"pk":null,"quiz":"europe","code":null,"archived":false,"percentageOfSessions":null}, {"name":"Agía Paraskeví","state":"North Aegean","territory":"","country":"Greece","latitude":38.37313455,"longitude":26.07840931,"population":13,"stateCapital":false,"nationalCapital":false,"pk":null,"quiz":"europe","code":null,"archived":false,"percentageOfSessions":null}, {"name":"Agía Sofía","state":"North Aegean","territory":"","country":"Greece","latitude":39.82720657,"longitude":25.3276289,"population":49,"stateCapital":false,"nationalCapital":false,"pk":null,"quiz":"europe","code":null,"archived":false,"percentageOfSessions":null}, {"name":"Agía Triádha","state":"North Aegean","territory":"","country":"Greece","latitude":37.74652313,"longitude":27.00626808,"population":44,"stateCapital":false,"nationalCapital":false,"pk":null,"quiz":"europe","code":null,"archived":false,"percentageOfSessions":null}, {"name":"Agiásmata (T.K.Kerámu)","state":"North Aegean","territory":"","country":"Greece","latitude":38.5843712,"longitude":25.93357366,"population":5,"stateCapital":false,"nationalCapital":false,"pk":null,"quiz":"europe","code":null,"archived":false,"percentageOfSessions":null}, {"name":"Agiásmata (T.K.Leptopódhon)","state":"North Aegean","territory":"","country":"Greece","latitude":38.5843712,"longitude":25.93357366,"population":3,"stateCapital":false,"nationalCapital":false,"pk":null,"quiz":"europe","code":null,"archived":false,"percentageOfSessions":null}, {"name":"Agiásos","state":"North Aegean","territory":"","country":"Greece","latitude":39.08090367,"longitude":26.37109626,"population":2293,"stateCapital":false,"nationalCapital":false,"pk":null,"quiz":"europe","code":null,"archived":false,"percentageOfSessions":null}, {"name":"Ágii Anárgiri","state":"North Aegean","territory":"","country":"Greece","latitude":39.86171944,"longitude":25.07293972,"population":62,"stateCapital":false,"nationalCapital":false,"pk":null,"quiz":"europe","code":null,"archived":false,"percentageOfSessions":null}, {"name":"Ágii Theódhori","state":"North Aegean","territory":"","country":"Greece","latitude":37.7410282,"longitude":26.73038124,"population":127,"stateCapital":false,"nationalCapital":false,"pk":null,"quiz":"europe","code":null,"archived":false,"percentageOfSessions":null}, {"name":"Ágion Gála","state":"North Aegean","territory":"","country":"Greece","latitude":38.5611013,"longitude":25.85790611,"population":52,"stateCapital":false,"nationalCapital":false,"pk":null,"quiz":"europe","code":null,"archived":false,"percentageOfSessions":null}, {"name":"Ágios Emilianós","state":"North Aegean","territory":"","country":"Greece","latitude":38.27686991,"longitude":26.10864329,"population":50,"stateCapital":false,"nationalCapital":false,"pk":null,"quiz":"europe","code":null,"archived":false,"percentageOfSessions":null}, {"name":"Ágios Geórgios","state":"North Aegean","territory":"","country":"Greece","latitude":39.33205549,"longitude":26.14256894,"population":24,"stateCapital":false,"nationalCapital":false,"pk":null,"quiz":"europe","code":null,"archived":false,"percentageOfSessions":null}, {"name":"Ágios Geórgios","state":"North Aegean","territory":"","country":"Greece","latitude":39.33205549,"longitude":26.14256894,"population":66,"stateCapital":false,"nationalCapital":false,"pk":null,"quiz":"europe","code":null,"archived":false,"percentageOfSessions":null}, {"name":"Ágios Geórgios Sikúsis","state":"North Aegean","territory":"","country":"Greece","latitude":38.31642723,"longitude":26.05464476,"population":570,"stateCapital":false,"nationalCapital":false,"pk":null,"quiz":"europe","code":null,"archived":false,"percentageOfSessions":null}, {"name":"Ágios Dhimítrios","state":"North Aegean","territory":"","country":"Greece","latitude":37.60653089,"longitude":26.07963982,"population":187,"stateCapital":false,"nationalCapital":false,"pk":null,"quiz":"europe","code":null,"archived":false,"percentageOfSessions":null}, {"name":"Ágios Dhimítrios","state":"North Aegean","territory":"","country":"Greece","latitude":39.91029907,"longitude":25.15395988,"population":805,"stateCapital":false,"nationalCapital":false,"pk":null,"quiz":"europe","code":null,"archived":false,"percentageOfSessions":null}, {"name":"Ágios Dhimítrios","state":"North Aegean","territory":"","country":"Greece","latitude":37.80556071,"longitude":26.73461382,"population":231,"stateCapital":false,"nationalCapital":false,"pk":null,"quiz":"europe","code":null,"archived":false,"percentageOfSessions":null}, {"name":"Ágios Dhimítrios","state":"North Aegean","territory":"","country":"Greece","latitude":38.37938759,"longitude":26.10429067,"population":37,"stateCapital":false,"nationalCapital":false,"pk":null,"quiz":"europe","code":null,"archived":false,"percentageOfSessions":null}, {"name":"Ágios Efstrátios","state":"North Aegean","territory":"","country":"Greece","latitude":39.53760162,"longitude":24.98743558,"population":249,"stateCapital":false,"nationalCapital":false,"pk":null,"quiz":"europe","code":null,"archived":false,"percentageOfSessions":null}, {"name":"Ágios Ilías","state":"North Aegean","territory":"","country":"Greece","latitude":37.80357418,"longitude":26.74184044,"population":33,"stateCapital":false,"nationalCapital":false,"pk":null,"quiz":"europe","code":null,"archived":false,"percentageOfSessions":null}, {"name":"Ágios Theódhoros","state":"North Aegean","territory":"","country":"Greece","latitude":39.96396684,"longitude":25.34898977,"population":11,"stateCapital":false,"nationalCapital":false,"pk":null,"quiz":"europe","code":null,"archived":false,"percentageOfSessions":null}, {"name":"Ágios Isídhoros","state":"North Aegean","territory":"","country":"Greece","latitude":38.96305279,"longitude":26.39623591,"population":240,"stateCapital":false,"nationalCapital":false,"pk":null,"quiz":"europe","code":null,"archived":false,"percentageOfSessions":null}, {"name":"Ágios Ioánnis","state":"North Aegean","territory":"","country":"Greece","latitude":39.90678954,"longitude":25.06905815,"population":134,"stateCapital":false,"nationalCapital":false,"pk":null,"quiz":"europe","code":null,"archived":false,"percentageOfSessions":null}, {"name":"Ágios Ioánnis","state":"North Aegean","territory":"","country":"Greece","latitude":38.20519041,"longitude":26.06818908,"population":3,"stateCapital":false,"nationalCapital":false,"pk":null,"quiz":"europe","code":null,"archived":false,"percentageOfSessions":null}, {"name":"Ágios Ioánnis Thermastís","state":"North Aegean","territory":"","country":"Greece","latitude":37.53869753,"longitude":26.49579749,"population":1,"stateCapital":false,"nationalCapital":false,"pk":null,"quiz":"europe","code":null,"archived":false,"percentageOfSessions":null}, {"name":"Ágios Kírikos","state":"North Aegean","territory":"","country":"Greece","latitude":37.60924658,"longitude":26.29067835,"population":2198,"stateCapital":false,"nationalCapital":false,"pk":null,"quiz":"europe","code":null,"archived":false,"percentageOfSessions":null}, {"name":"Ágios Konstandínos","state":"North Aegean","territory":"","country":"Greece","latitude":37.80294698,"longitude":26.81917003,"population":405,"stateCapital":false,"nationalCapital":false,"pk":null,"quiz":"europe","code":null,"archived":false,"percentageOfSessions":null}, {"name":"Ágios Minás (nisís)","state":"North Aegean","territory":"","country":"Greece","latitude":37.59334002,"longitude":26.5433922,"population":2,"stateCapital":false,"nationalCapital":false,"pk":null,"quiz":"europe","code":null,"archived":false,"percentageOfSessions":null}, {"name":"Ágios Nikólaos","state":"North Aegean","territory":"","country":"Greece","latitude":37.8094343,"longitude":26.73891637,"population":25,"stateCapital":false,"nationalCapital":false,"pk":null,"quiz":"europe","code":null,"archived":false,"percentageOfSessions":null}, {"name":"Ágios Pandeleímon","state":"North Aegean","territory":"","country":"Greece","latitude":37.60442007,"longitude":26.0954325,"population":31,"stateCapital":false,"nationalCapital":false,"pk":null,"quiz":"europe","code":null,"archived":false,"percentageOfSessions":null}, {"name":"Ágios Pandeleímon","state":"North Aegean","territory":"","country":"Greece","latitude":37.77594892,"longitude":26.67177313,"population":7,"stateCapital":false,"nationalCapital":false,"pk":null,"quiz":"europe","code":null,"archived":false,"percentageOfSessions":null}, {"name":"Ágios Pávlos","state":"North Aegean","territory":"","country":"Greece","latitude":39.13784726,"longitude":26.2376277,"population":29,"stateCapital":false,"nationalCapital":false,"pk":null,"quiz":"europe","code":null,"archived":false,"percentageOfSessions":null}, {"name":"Ágios Políkarpos","state":"North Aegean","territory":"","country":"Greece","latitude":37.60915741,"longitude":26.08950028,"population":229,"stateCapital":false,"nationalCapital":false,"pk":null,"quiz":"europe","code":null,"archived":false,"percentageOfSessions":null}, {"name":"Ágios Stéfanos","state":"North Aegean","territory":"","country":"Greece","latitude":39.29235922,"longitude":26.38627791,"population":6,"stateCapital":false,"nationalCapital":false,"pk":null,"quiz":"europe","code":null,"archived":false,"percentageOfSessions":null}, {"name":"Ágios Fokás","state":"North Aegean","territory":"","country":"Greece","latitude":39.00394475,"longitude":26.1672817,"population":16,"stateCapital":false,"nationalCapital":false,"pk":null,"quiz":"europe","code":null,"archived":false,"percentageOfSessions":null}, {"name":"Anġariónes","state":"North Aegean","territory":"","country":"Greece","latitude":39.89321191,"longitude":25.17955169,"population":121,"stateCapital":false,"nationalCapital":false,"pk":null,"quiz":"europe","code":null,"archived":false,"percentageOfSessions":null}, {"name":"Agléfiros","state":"North Aegean","territory":"","country":"Greece","latitude":39.06751791,"longitude":26.46099668,"population":23,"stateCapital":false,"nationalCapital":false,"pk":null,"quiz":"europe","code":null,"archived":false,"percentageOfSessions":null}, {"name":"Ágra","state":"North Aegean","territory":"","country":"Greece","latitude":39.15493987,"longitude":26.05816668,"population":861,"stateCapital":false,"nationalCapital":false,"pk":null,"quiz":"europe","code":null,"archived":false,"percentageOfSessions":null}, {"name":"Agrelopós","state":"North Aegean","territory":"","country":"Greece","latitude":38.47229236,"longitude":26.1126507,"population":96,"stateCapital":false,"nationalCapital":false,"pk":null,"quiz":"europe","code":null,"archived":false,"percentageOfSessions":null}, {"name":"Agriliá Kratígu","state":"North Aegean","territory":"","country":"Greece","latitude":39.02720434,"longitude":26.61118955,"population":85,"stateCapital":false,"nationalCapital":false,"pk":null,"quiz":"europe","code":null,"archived":false,"percentageOfSessions":null}, {"name":"Aerolimín","state":"North Aegean","territory":"","country":"Greece","latitude":39.92880887,"longitude":25.24543772,"population":34,"stateCapital":false,"nationalCapital":false,"pk":null,"quiz":"europe","code":null,"archived":false,"percentageOfSessions":null}, {"name":"Ái Thanásis","state":"North Aegean","territory":"","country":"Greece","latitude":37.71594684,"longitude":26.98864287,"population":21,"stateCapital":false,"nationalCapital":false,"pk":null,"quiz":"europe","code":null,"archived":false,"percentageOfSessions":null}, {"name":"Épos","state":"North Aegean","territory":"","country":"Greece","latitude":38.41714555,"longitude":26.10733519,"population":7,"stateCapital":false,"nationalCapital":false,"pk":null,"quiz":"europe","code":null,"archived":false,"percentageOfSessions":null}, {"name":"Akamátra","state":"North Aegean","territory":"","country":"Greece","latitude":37.60397706,"longitude":26.16772469,"population":194,"stateCapital":false,"nationalCapital":false,"pk":null,"quiz":"europe","code":null,"archived":false,"percentageOfSessions":null}, {"name":"Akrásion","state":"North Aegean","territory":"","country":"Greece","latitude":39.02399109,"longitude":26.30699863,"population":211,"stateCapital":false,"nationalCapital":false,"pk":null,"quiz":"europe","code":null,"archived":false,"percentageOfSessions":null}, {"name":"Alifandá","state":"North Aegean","territory":"","country":"Greece","latitude":39.10030885,"longitude":26.53094722,"population":354,"stateCapital":false,"nationalCapital":false,"pk":null,"quiz":"europe","code":null,"archived":false,"percentageOfSessions":null}, {"name":"Amádhes","state":"North Aegean","territory":"","country":"Greece","latitude":38.57023447,"longitude":26.03394595,"population":137,"stateCapital":false,"nationalCapital":false,"pk":null,"quiz":"europe","code":null,"archived":false,"percentageOfSessions":null}, {"name":"Amálon","state":"North Aegean","territory":"","country":"Greece","latitude":37.54653338,"longitude":25.99517902,"population":56,"stateCapital":false,"nationalCapital":false,"pk":null,"quiz":"europe","code":null,"archived":false,"percentageOfSessions":null}, {"name":"Ambélia","state":"North Aegean","territory":"","country":"Greece","latitude":39.30571269,"longitude":26.12744948,"population":4,"stateCapital":false,"nationalCapital":false,"pk":null,"quiz":"europe","code":null,"archived":false,"percentageOfSessions":null}, {"name":"Ambélia","state":"North Aegean","territory":"","country":"Greece","latitude":39.30571269,"longitude":26.12744948,"population":18,"stateCapital":false,"nationalCapital":false,"pk":null,"quiz":"europe","code":null,"archived":false,"percentageOfSessions":null}, {"name":"Ambelikón","state":"North Aegean","territory":"","country":"Greece","latitude":39.0549926,"longitude":26.31160894,"population":326,"stateCapital":false,"nationalCapital":false,"pk":null,"quiz":"europe","code":null,"archived":false,"percentageOfSessions":null}, {"name":"Ámbelos","state":"North Aegean","territory":"","country":"Greece","latitude":37.7994073,"longitude":26.79968264,"population":260,"stateCapital":false,"nationalCapital":false,"pk":null,"quiz":"europe","code":null,"archived":false,"percentageOfSessions":null}, {"name":"Anávatos","state":"North Aegean","territory":"","country":"Greece","latitude":38.40121081,"longitude":26.01862828,"population":1,"stateCapital":false,"nationalCapital":false,"pk":null,"quiz":"europe","code":null,"archived":false,"percentageOfSessions":null}, {"name":"Ánaksos Skutáru","state":"North Aegean","territory":"","country":"Greece","latitude":39.31481111,"longitude":26.14526804,"population":307,"stateCapital":false,"nationalCapital":false,"pk":null,"quiz":"europe","code":null,"archived":false,"percentageOfSessions":null}, {"name":"Anemóessa","state":"North Aegean","territory":"","country":"Greece","latitude":39.91338466,"longitude":25.25838074,"population":210,"stateCapital":false,"nationalCapital":false,"pk":null,"quiz":"europe","code":null,"archived":false,"percentageOfSessions":null}, {"name":"Anemótia","state":"North Aegean","territory":"","country":"Greece","latitude":39.24397317,"longitude":26.10257519,"population":458,"stateCapital":false,"nationalCapital":false,"pk":null,"quiz":"europe","code":null,"archived":false,"percentageOfSessions":null}, {"name":"Ándissa","state":"North Aegean","territory":"","country":"Greece","latitude":39.23157646,"longitude":25.97728878,"population":906,"stateCapital":false,"nationalCapital":false,"pk":null,"quiz":"europe","code":null,"archived":false,"percentageOfSessions":null}, {"name":"Andípsara (nisís)","state":"North Aegean","territory":"","country":"Greece","latitude":38.54032409,"longitude":25.51709147,"population":4,"stateCapital":false,"nationalCapital":false,"pk":null,"quiz":"europe","code":null,"archived":false,"percentageOfSessions":null}, {"name":"Áno Haramídha","state":"North Aegean","territory":"","country":"Greece","latitude":39.04809128,"longitude":26.54790549,"population":42,"stateCapital":false,"nationalCapital":false,"pk":null,"quiz":"europe","code":null,"archived":false,"percentageOfSessions":null}, {"name":"Áno Horió","state":"North Aegean","territory":"","country":"Greece","latitude":38.99550724,"longitude":26.35327171,"population":5,"stateCapital":false,"nationalCapital":false,"pk":null,"quiz":"europe","code":null,"archived":false,"percentageOfSessions":null}, {"name":"Apidhiás Lákkos","state":"North Aegean","territory":"","country":"Greece","latitude":39.05328914,"longitude":26.48991167,"population":64,"stateCapital":false,"nationalCapital":false,"pk":null,"quiz":"europe","code":null,"archived":false,"percentageOfSessions":null}, {"name":"Apothíke","state":"North Aegean","territory":"","country":"Greece","latitude":39.10712761,"longitude":26.0931522,"population":54,"stateCapital":false,"nationalCapital":false,"pk":null,"quiz":"europe","code":null,"archived":false,"percentageOfSessions":null}, {"name":"Apóstolos Pávlos","state":"North Aegean","territory":"","country":"Greece","latitude":37.64851481,"longitude":26.78512574,"population":11,"stateCapital":false,"nationalCapital":false,"pk":null,"quiz":"europe","code":null,"archived":false,"percentageOfSessions":null}, {"name":"Árgennos","state":"North Aegean","territory":"","country":"Greece","latitude":39.358433,"longitude":26.26168062,"population":208,"stateCapital":false,"nationalCapital":false,"pk":null,"quiz":"europe","code":null,"archived":false,"percentageOfSessions":null}, {"name":"Argirós","state":"North Aegean","territory":"","country":"Greece","latitude":37.7247457,"longitude":27.00529261,"population":44,"stateCapital":false,"nationalCapital":false,"pk":null,"quiz":"europe","code":null,"archived":false,"percentageOfSessions":null}, {"name":"Aréthusa","state":"North Aegean","territory":"","country":"Greece","latitude":37.61124999,"longitude":26.21906984,"population":111,"stateCapital":false,"nationalCapital":false,"pk":null,"quiz":"europe","code":null,"archived":false,"percentageOfSessions":null}, {"name":"Arísvi","state":"North Aegean","territory":"","country":"Greece","latitude":39.22761911,"longitude":26.21653168,"population":703,"stateCapital":false,"nationalCapital":false,"pk":null,"quiz":"europe","code":null,"archived":false,"percentageOfSessions":null}, {"name":"Armenistís","state":"North Aegean","territory":"","country":"Greece","latitude":37.63158526,"longitude":26.08560165,"population":197,"stateCapital":false,"nationalCapital":false,"pk":null,"quiz":"europe","code":null,"archived":false,"percentageOfSessions":null}, {"name":"Armólia","state":"North Aegean","territory":"","country":"Greece","latitude":38.24925667,"longitude":26.02972209,"population":436,"stateCapital":false,"nationalCapital":false,"pk":null,"quiz":"europe","code":null,"archived":false,"percentageOfSessions":null}, {"name":"Arhéa Ándissa","state":"North Aegean","territory":"","country":"Greece","latitude":39.27785704,"longitude":26.01571607,"population":35,"stateCapital":false,"nationalCapital":false,"pk":null,"quiz":"europe","code":null,"archived":false,"percentageOfSessions":null}, {"name":"Aspalathrókambos","state":"North Aegean","territory":"","country":"Greece","latitude":38.50784735,"longitude":26.25007732,"population":5,"stateCapital":false,"nationalCapital":false,"pk":null,"quiz":"europe","code":null,"archived":false,"percentageOfSessions":null}, {"name":"Aspropótamos","state":"North Aegean","territory":"","country":"Greece","latitude":39.27920163,"longitude":26.37537333,"population":54,"stateCapital":false,"nationalCapital":false,"pk":null,"quiz":"europe","code":null,"archived":false,"percentageOfSessions":null}, {"name":"Asprohórti","state":"North Aegean","territory":"","country":"Greece","latitude":37.77757864,"longitude":26.9812517,"population":11,"stateCapital":false,"nationalCapital":false,"pk":null,"quiz":"europe","code":null,"archived":false,"percentageOfSessions":null}, {"name":"Asómatos","state":"North Aegean","territory":"","country":"Greece","latitude":39.09878673,"longitude":26.38763699,"population":259,"stateCapital":false,"nationalCapital":false,"pk":null,"quiz":"europe","code":null,"archived":false,"percentageOfSessions":null}, {"name":"Atsikí","state":"North Aegean","territory":"","country":"Greece","latitude":39.94399361,"longitude":25.22354235,"population":830,"stateCapital":false,"nationalCapital":false,"pk":null,"quiz":"europe","code":null,"archived":false,"percentageOfSessions":null}, {"name":"Avgónima","state":"North Aegean","territory":"","country":"Greece","latitude":38.3747541,"longitude":26.01954908,"population":13,"stateCapital":false,"nationalCapital":false,"pk":null,"quiz":"europe","code":null,"archived":false,"percentageOfSessions":null}, {"name":"Avlákia","state":"North Aegean","territory":"","country":"Greece","latitude":37.79813751,"longitude":26.85505461,"population":20,"stateCapital":false,"nationalCapital":false,"pk":null,"quiz":"europe","code":null,"archived":false,"percentageOfSessions":null}, {"name":"Avlákion","state":"North Aegean","territory":"","country":"Greece","latitude":37.63186747,"longitude":26.13813642,"population":117,"stateCapital":false,"nationalCapital":false,"pk":null,"quiz":"europe","code":null,"archived":false,"percentageOfSessions":null}, {"name":"Ávlonas","state":"North Aegean","territory":"","country":"Greece","latitude":39.00864491,"longitude":26.52756115,"population":29,"stateCapital":false,"nationalCapital":false,"pk":null,"quiz":"europe","code":null,"archived":false,"percentageOfSessions":null}, {"name":"Afálonas","state":"North Aegean","territory":"","country":"Greece","latitude":39.14570064,"longitude":26.51180193,"population":475,"stateCapital":false,"nationalCapital":false,"pk":null,"quiz":"europe","code":null,"archived":false,"percentageOfSessions":null}, {"name":"Afrodhísia","state":"North Aegean","territory":"","country":"Greece","latitude":38.55262971,"longitude":25.92499532,"population":42,"stateCapital":false,"nationalCapital":false,"pk":null,"quiz":"europe","code":null,"archived":false,"percentageOfSessions":null}, {"name":"Ahladherí","state":"North Aegean","territory":"","country":"Greece","latitude":39.1517847,"longitude":26.27468585,"population":7,"stateCapital":false,"nationalCapital":false,"pk":null,"quiz":"europe","code":null,"archived":false,"percentageOfSessions":null}, {"name":"Ahliá","state":"North Aegean","territory":"","country":"Greece","latitude":39.13504727,"longitude":26.52981257,"population":116,"stateCapital":false,"nationalCapital":false,"pk":null,"quiz":"europe","code":null,"archived":false,"percentageOfSessions":null}, {"name":"Vavíli","state":"North Aegean","territory":"","country":"Greece","latitude":38.31341381,"longitude":26.09396477,"population":206,"stateCapital":false,"nationalCapital":false,"pk":null,"quiz":"europe","code":null,"archived":false,"percentageOfSessions":null}, {"name":"Vathí","state":"North Aegean","territory":"","country":"Greece","latitude":37.74548906,"longitude":26.98174201,"population":1780,"stateCapital":false,"nationalCapital":false,"pk":null,"quiz":"europe","code":null,"archived":false,"percentageOfSessions":null}, {"name":"Valeondádhes","state":"North Aegean","territory":"","country":"Greece","latitude":37.79110689,"longitude":26.82679097,"population":1,"stateCapital":false,"nationalCapital":false,"pk":null,"quiz":"europe","code":null,"archived":false,"percentageOfSessions":null}, {"name":"Vardharádhes","state":"North Aegean","territory":"","country":"Greece","latitude":37.57180607,"longitude":26.21060777,"population":4,"stateCapital":false,"nationalCapital":false,"pk":null,"quiz":"europe","code":null,"archived":false,"percentageOfSessions":null}, {"name":"Variá","state":"North Aegean","territory":"","country":"Greece","latitude":39.07760362,"longitude":26.57316905,"population":1135,"stateCapital":false,"nationalCapital":false,"pk":null,"quiz":"europe","code":null,"archived":false,"percentageOfSessions":null}, {"name":"Varélla","state":"North Aegean","territory":"","country":"Greece","latitude":37.73408023,"longitude":26.98421616,"population":106,"stateCapital":false,"nationalCapital":false,"pk":null,"quiz":"europe","code":null,"archived":false,"percentageOfSessions":null}, {"name":"Város","state":"North Aegean","territory":"","country":"Greece","latitude":39.92723302,"longitude":25.26073219,"population":192,"stateCapital":false,"nationalCapital":false,"pk":null,"quiz":"europe","code":null,"archived":false,"percentageOfSessions":null}, {"name":"Vasileónikon","state":"North Aegean","territory":"","country":"Greece","latitude":38.32647501,"longitude":26.10878287,"population":378,"stateCapital":false,"nationalCapital":false,"pk":null,"quiz":"europe","code":null,"archived":false,"percentageOfSessions":null}, {"name":"Vasiliká","state":"North Aegean","territory":"","country":"Greece","latitude":39.10065261,"longitude":26.24062737,"population":397,"stateCapital":false,"nationalCapital":false,"pk":null,"quiz":"europe","code":null,"archived":false,"percentageOfSessions":null}, {"name":"Vaterá","state":"North Aegean","territory":"","country":"Greece","latitude":39.01764701,"longitude":26.19740439,"population":212,"stateCapital":false,"nationalCapital":false,"pk":null,"quiz":"europe","code":null,"archived":false,"percentageOfSessions":null}, {"name":"Vatússa","state":"North Aegean","territory":"","country":"Greece","latitude":39.2237591,"longitude":26.05030005,"population":570,"stateCapital":false,"nationalCapital":false,"pk":null,"quiz":"europe","code":null,"archived":false,"percentageOfSessions":null}, {"name":"Vafiós","state":"North Aegean","territory":"","country":"Greece","latitude":39.33894625,"longitude":26.22050141,"population":139,"stateCapital":false,"nationalCapital":false,"pk":null,"quiz":"europe","code":null,"archived":false,"percentageOfSessions":null}, {"name":"Vaóni","state":"North Aegean","territory":"","country":"Greece","latitude":37.57342028,"longitude":26.21720644,"population":13,"stateCapital":false,"nationalCapital":false,"pk":null,"quiz":"europe","code":null,"archived":false,"percentageOfSessions":null}, {"name":"Velanidhiá (Dh.K.Marathokámbu)","state":"North Aegean","territory":"","country":"Greece","latitude":37.71083367,"longitude":26.71015676,"population":74,"stateCapital":false,"nationalCapital":false,"pk":null,"quiz":"europe","code":null,"archived":false,"percentageOfSessions":null}, {"name":"Velanidhiá (T.K.Kumeíkon)","state":"North Aegean","territory":"","country":"Greece","latitude":37.71083367,"longitude":26.71015676,"population":10,"stateCapital":false,"nationalCapital":false,"pk":null,"quiz":"europe","code":null,"archived":false,"percentageOfSessions":null}, {"name":"Ververáton","state":"North Aegean","territory":"","country":"Greece","latitude":38.33128992,"longitude":26.08484509,"population":214,"stateCapital":false,"nationalCapital":false,"pk":null,"quiz":"europe","code":null,"archived":false,"percentageOfSessions":null}, {"name":"Vergí","state":"North Aegean","territory":"","country":"Greece","latitude":37.65705466,"longitude":26.78028546,"population":14,"stateCapital":false,"nationalCapital":false,"pk":null,"quiz":"europe","code":null,"archived":false,"percentageOfSessions":null}, {"name":"Véssa","state":"North Aegean","territory":"","country":"Greece","latitude":38.29391198,"longitude":26.00664073,"population":115,"stateCapital":false,"nationalCapital":false,"pk":null,"quiz":"europe","code":null,"archived":false,"percentageOfSessions":null}, {"name":"Víkion","state":"North Aegean","territory":"","country":"Greece","latitude":38.57712168,"longitude":26.01285889,"population":125,"stateCapital":false,"nationalCapital":false,"pk":null,"quiz":"europe","code":null,"archived":false,"percentageOfSessions":null}, {"name":"Vlihádha","state":"North Aegean","territory":"","country":"Greece","latitude":38.55195239,"longitude":26.08616615,"population":23,"stateCapital":false,"nationalCapital":false,"pk":null,"quiz":"europe","code":null,"archived":false,"percentageOfSessions":null}, {"name":"Volissós","state":"North Aegean","territory":"","country":"Greece","latitude":38.48157009,"longitude":25.92453822,"population":222,"stateCapital":false,"nationalCapital":false,"pk":null,"quiz":"europe","code":null,"archived":false,"percentageOfSessions":null}, {"name":"Voroskópos","state":"North Aegean","territory":"","country":"Greece","latitude":39.85402674,"longitude":25.3466497,"population":9,"stateCapital":false,"nationalCapital":false,"pk":null,"quiz":"europe","code":null,"archived":false,"percentageOfSessions":null}, {"name":"Vudhandádhes","state":"North Aegean","territory":"","country":"Greece","latitude":37.52493656,"longitude":26.01046062,"population":8,"stateCapital":false,"nationalCapital":false,"pk":null,"quiz":"europe","code":null,"archived":false,"percentageOfSessions":null}, {"name":"Vudhótopos","state":"North Aegean","territory":"","country":"Greece","latitude":38.27934195,"longitude":26.10311457,"population":22,"stateCapital":false,"nationalCapital":false,"pk":null,"quiz":"europe","code":null,"archived":false,"percentageOfSessions":null}, {"name":"Vunária","state":"North Aegean","territory":"","country":"Greece","latitude":39.8889184,"longitude":25.18280463,"population":93,"stateCapital":false,"nationalCapital":false,"pk":null,"quiz":"europe","code":null,"archived":false,"percentageOfSessions":null}, {"name":"Vunó","state":"North Aegean","territory":"","country":"Greece","latitude":38.24207322,"longitude":26.07704525,"population":171,"stateCapital":false,"nationalCapital":false,"pk":null,"quiz":"europe","code":null,"archived":false,"percentageOfSessions":null}, {"name":"Vurlióte","state":"North Aegean","territory":"","country":"Greece","latitude":37.7825784,"longitude":26.8458849,"population":369,"stateCapital":false,"nationalCapital":false,"pk":null,"quiz":"europe","code":null,"archived":false,"percentageOfSessions":null}, {"name":"Vrakádhes","state":"North Aegean","territory":"","country":"Greece","latitude":37.57178994,"longitude":26.02827937,"population":84,"stateCapital":false,"nationalCapital":false,"pk":null,"quiz":"europe","code":null,"archived":false,"percentageOfSessions":null}, {"name":"Vrísa","state":"North Aegean","territory":"","country":"Greece","latitude":39.03744128,"longitude":26.19898332,"population":608,"stateCapital":false,"nationalCapital":false,"pk":null,"quiz":"europe","code":null,"archived":false,"percentageOfSessions":null}, {"name":"Vrondádhos","state":"North Aegean","territory":"","country":"Greece","latitude":38.40903033,"longitude":26.12672006,"population":5224,"stateCapital":false,"nationalCapital":false,"pk":null,"quiz":"europe","code":null,"archived":false,"percentageOfSessions":null}, {"name":"Vríse","state":"North Aegean","territory":"","country":"Greece","latitude":37.79740657,"longitude":26.73482223,"population":134,"stateCapital":false,"nationalCapital":false,"pk":null,"quiz":"europe","code":null,"archived":false,"percentageOfSessions":null}, {"name":"Gavvathás","state":"North Aegean","territory":"","country":"Greece","latitude":39.28121212,"longitude":25.97066867,"population":90,"stateCapital":false,"nationalCapital":false,"pk":null,"quiz":"europe","code":null,"archived":false,"percentageOfSessions":null}, {"name":"Galázio","state":"North Aegean","territory":"","country":"Greece","latitude":37.77567358,"longitude":26.99437903,"population":23,"stateCapital":false,"nationalCapital":false,"pk":null,"quiz":"europe","code":null,"archived":false,"percentageOfSessions":null}, {"name":"Gáli","state":"North Aegean","territory":"","country":"Greece","latitude":39.91217189,"longitude":25.09657003,"population":104,"stateCapital":false,"nationalCapital":false,"pk":null,"quiz":"europe","code":null,"archived":false,"percentageOfSessions":null}, {"name":"Geránia","state":"North Aegean","territory":"","country":"Greece","latitude":39.09612767,"longitude":26.4340148,"population":10,"stateCapital":false,"nationalCapital":false,"pk":null,"quiz":"europe","code":null,"archived":false,"percentageOfSessions":null}, {"name":"Girokomíon Lamandhríu","state":"North Aegean","territory":"","country":"Greece","latitude":39.08094961,"longitude":26.22047302,"population":3,"stateCapital":false,"nationalCapital":false,"pk":null,"quiz":"europe","code":null,"archived":false,"percentageOfSessions":null}, {"name":"Gialiskárion","state":"North Aegean","territory":"","country":"Greece","latitude":37.62758539,"longitude":26.10239231,"population":209,"stateCapital":false,"nationalCapital":false,"pk":null,"quiz":"europe","code":null,"archived":false,"percentageOfSessions":null}, {"name":"Gialú Pigádhi","state":"North Aegean","territory":"","country":"Greece","latitude":39.11005836,"longitude":26.42434008,"population":13,"stateCapital":false,"nationalCapital":false,"pk":null,"quiz":"europe","code":null,"archived":false,"percentageOfSessions":null}, {"name":"Giósonas","state":"North Aegean","territory":"","country":"Greece","latitude":38.56288789,"longitude":26.07539481,"population":20,"stateCapital":false,"nationalCapital":false,"pk":null,"quiz":"europe","code":null,"archived":false,"percentageOfSessions":null}, {"name":"Giónidhes","state":"North Aegean","territory":"","country":"Greece","latitude":37.7095872,"longitude":26.8568524,"population":51,"stateCapital":false,"nationalCapital":false,"pk":null,"quiz":"europe","code":null,"archived":false,"percentageOfSessions":null}, {"name":"Gláros","state":"North Aegean","territory":"","country":"Greece","latitude":39.10653696,"longitude":26.18345744,"population":9,"stateCapital":false,"nationalCapital":false,"pk":null,"quiz":"europe","code":null,"archived":false,"percentageOfSessions":null}, {"name":"Grídhia","state":"North Aegean","territory":"","country":"Greece","latitude":38.20670176,"longitude":26.09563334,"population":18,"stateCapital":false,"nationalCapital":false,"pk":null,"quiz":"europe","code":null,"archived":false,"percentageOfSessions":null}, {"name":"Dháfia","state":"North Aegean","territory":"","country":"Greece","latitude":39.2384414,"longitude":26.19821301,"population":979,"stateCapital":false,"nationalCapital":false,"pk":null,"quiz":"europe","code":null,"archived":false,"percentageOfSessions":null}, {"name":"Dháfni","state":"North Aegean","territory":"","country":"Greece","latitude":37.59899907,"longitude":26.15837355,"population":119,"stateCapital":false,"nationalCapital":false,"pk":null,"quiz":"europe","code":null,"archived":false,"percentageOfSessions":null}, {"name":"Dháfni","state":"North Aegean","territory":"","country":"Greece","latitude":39.94732299,"longitude":25.16568051,"population":156,"stateCapital":false,"nationalCapital":false,"pk":null,"quiz":"europe","code":null,"archived":false,"percentageOfSessions":null}, {"name":"Dhafnoliés","state":"North Aegean","territory":"","country":"Greece","latitude":37.57769636,"longitude":26.48035639,"population":2,"stateCapital":false,"nationalCapital":false,"pk":null,"quiz":"europe","code":null,"archived":false,"percentageOfSessions":null}, {"name":"Dhafnón","state":"North Aegean","territory":"","country":"Greece","latitude":38.34450605,"longitude":26.0779137,"population":388,"stateCapital":false,"nationalCapital":false,"pk":null,"quiz":"europe","code":null,"archived":false,"percentageOfSessions":null}, {"name":"Dhekákia","state":"North Aegean","territory":"","country":"Greece","latitude":37.62369674,"longitude":26.17723832,"population":4,"stateCapital":false,"nationalCapital":false,"pk":null,"quiz":"europe","code":null,"archived":false,"percentageOfSessions":null}, {"name":"Dhiefhá","state":"North Aegean","territory":"","country":"Greece","latitude":38.47071832,"longitude":25.97549599,"population":47,"stateCapital":false,"nationalCapital":false,"pk":null,"quiz":"europe","code":null,"archived":false,"percentageOfSessions":null}, {"name":"Dhótia","state":"North Aegean","territory":"","country":"Greece","latitude":38.1710737,"longitude":26.01173702,"population":24,"stateCapital":false,"nationalCapital":false,"pk":null,"quiz":"europe","code":null,"archived":false,"percentageOfSessions":null}, {"name":"Dhrakéi","state":"North Aegean","territory":"","country":"Greece","latitude":37.75714405,"longitude":26.60944787,"population":97,"stateCapital":false,"nationalCapital":false,"pk":null,"quiz":"europe","code":null,"archived":false,"percentageOfSessions":null}, {"name":"Dhrosiá","state":"North Aegean","territory":"","country":"Greece","latitude":37.7303272,"longitude":26.99348521,"population":66,"stateCapital":false,"nationalCapital":false,"pk":null,"quiz":"europe","code":null,"archived":false,"percentageOfSessions":null}, {"name":"Dhróta","state":"North Aegean","territory":"","country":"Greece","latitude":39.01086782,"longitude":26.28377768,"population":3,"stateCapital":false,"nationalCapital":false,"pk":null,"quiz":"europe","code":null,"archived":false,"percentageOfSessions":null}, {"name":"Dhrútsulas","state":"North Aegean","territory":"","country":"Greece","latitude":37.60365728,"longitude":26.1875908,"population":10,"stateCapital":false,"nationalCapital":false,"pk":null,"quiz":"europe","code":null,"archived":false,"percentageOfSessions":null}, {"name":"Egrigóros","state":"North Aegean","territory":"","country":"Greece","latitude":38.57260229,"longitude":25.91537025,"population":46,"stateCapital":false,"nationalCapital":false,"pk":null,"quiz":"europe","code":null,"archived":false,"percentageOfSessions":null}, {"name":"Ezúsa","state":"North Aegean","territory":"","country":"Greece","latitude":38.51935055,"longitude":25.8448773,"population":2,"stateCapital":false,"nationalCapital":false,"pk":null,"quiz":"europe","code":null,"archived":false,"percentageOfSessions":null}, {"name":"Eláta","state":"North Aegean","territory":"","country":"Greece","latitude":38.28347195,"longitude":25.98679154,"population":293,"stateCapital":false,"nationalCapital":false,"pk":null,"quiz":"europe","code":null,"archived":false,"percentageOfSessions":null}, {"name":"Emboriós","state":"North Aegean","territory":"","country":"Greece","latitude":38.18502047,"longitude":26.02551958,"population":45,"stateCapital":false,"nationalCapital":false,"pk":null,"quiz":"europe","code":null,"archived":false,"percentageOfSessions":null}, {"name":"Ékso Dhidhíma","state":"North Aegean","territory":"","country":"Greece","latitude":38.26690944,"longitude":26.07305087,"population":40,"stateCapital":false,"nationalCapital":false,"pk":null,"quiz":"europe","code":null,"archived":false,"percentageOfSessions":null}, {"name":"Eresós","state":"North Aegean","territory":"","country":"Greece","latitude":39.16861076,"longitude":25.93182431,"population":1071,"stateCapital":false,"nationalCapital":false,"pk":null,"quiz":"europe","code":null,"archived":false,"percentageOfSessions":null}, {"name":"Evanġelístria","state":"North Aegean","territory":"","country":"Greece","latitude":38.96174562,"longitude":26.42565669,"population":13,"stateCapital":false,"nationalCapital":false,"pk":null,"quiz":"europe","code":null,"archived":false,"percentageOfSessions":null}, {"name":"Évdhilos","state":"North Aegean","territory":"","country":"Greece","latitude":37.62969729,"longitude":26.17551463,"population":492,"stateCapital":false,"nationalCapital":false,"pk":null,"quiz":"europe","code":null,"archived":false,"percentageOfSessions":null}, {"name":"Efthalú","state":"North Aegean","territory":"","country":"Greece","latitude":39.37494275,"longitude":26.21108954,"population":34,"stateCapital":false,"nationalCapital":false,"pk":null,"quiz":"europe","code":null,"archived":false,"percentageOfSessions":null}, {"name":"Evriakí","state":"North Aegean","territory":"","country":"Greece","latitude":39.0591535,"longitude":26.48479727,"population":114,"stateCapital":false,"nationalCapital":false,"pk":null,"quiz":"europe","code":null,"archived":false,"percentageOfSessions":null}, {"name":"Zervú","state":"North Aegean","territory":"","country":"Greece","latitude":37.73445019,"longitude":26.93701354,"population":34,"stateCapital":false,"nationalCapital":false,"pk":null,"quiz":"europe","code":null,"archived":false,"percentageOfSessions":null}, {"name":"Zifiás","state":"North Aegean","territory":"","country":"Greece","latitude":38.32526955,"longitude":26.07748203,"population":128,"stateCapital":false,"nationalCapital":false,"pk":null,"quiz":"europe","code":null,"archived":false,"percentageOfSessions":null}, {"name":"Zoodhóhos Pigí","state":"North Aegean","territory":"","country":"Greece","latitude":37.7665596,"longitude":27.02603219,"population":6,"stateCapital":false,"nationalCapital":false,"pk":null,"quiz":"europe","code":null,"archived":false,"percentageOfSessions":null}, {"name":"Iréon","state":"North Aegean","territory":"","country":"Greece","latitude":37.66235603,"longitude":26.88130763,"population":776,"stateCapital":false,"nationalCapital":false,"pk":null,"quiz":"europe","code":null,"archived":false,"percentageOfSessions":null}, {"name":"Thános","state":"North Aegean","territory":"","country":"Greece","latitude":39.85266099,"longitude":25.08683515,"population":424,"stateCapital":false,"nationalCapital":false,"pk":null,"quiz":"europe","code":null,"archived":false,"percentageOfSessions":null}, {"name":"Thérma","state":"North Aegean","territory":"","country":"Greece","latitude":37.62160434,"longitude":26.30249098,"population":127,"stateCapital":false,"nationalCapital":false,"pk":null,"quiz":"europe","code":null,"archived":false,"percentageOfSessions":null}, {"name":"Thérma Lefkádhos","state":"North Aegean","territory":"","country":"Greece","latitude":37.5998859,"longitude":26.27310277,"population":27,"stateCapital":false,"nationalCapital":false,"pk":null,"quiz":"europe","code":null,"archived":false,"percentageOfSessions":null}, {"name":"Thermopigés","state":"North Aegean","territory":"","country":"Greece","latitude":39.09834727,"longitude":26.19878875,"population":6,"stateCapital":false,"nationalCapital":false,"pk":null,"quiz":"europe","code":null,"archived":false,"percentageOfSessions":null}, {"name":"Tholopotámion","state":"North Aegean","territory":"","country":"Greece","latitude":38.29281809,"longitude":26.07124146,"population":644,"stateCapital":false,"nationalCapital":false,"pk":null,"quiz":"europe","code":null,"archived":false,"percentageOfSessions":null}, {"name":"Thímena (nisís)","state":"North Aegean","territory":"","country":"Greece","latitude":37.5793865,"longitude":26.44930219,"population":135,"stateCapital":false,"nationalCapital":false,"pk":null,"quiz":"europe","code":null,"archived":false,"percentageOfSessions":null}, {"name":"Thimianá","state":"North Aegean","territory":"","country":"Greece","latitude":38.31031592,"longitude":26.13147205,"population":1536,"stateCapital":false,"nationalCapital":false,"pk":null,"quiz":"europe","code":null,"archived":false,"percentageOfSessions":null}, {"name":"Ierá Moní Limónos","state":"North Aegean","territory":"","country":"Greece","latitude":39.24574983,"longitude":26.16960346,"population":17,"stateCapital":false,"nationalCapital":false,"pk":null,"quiz":"europe","code":null,"archived":false,"percentageOfSessions":null}, {"name":"Íppion","state":"North Aegean","territory":"","country":"Greece","latitude":39.11413932,"longitude":26.41085485,"population":799,"stateCapital":false,"nationalCapital":false,"pk":null,"quiz":"europe","code":null,"archived":false,"percentageOfSessions":null}, {"name":"Isómata","state":"North Aegean","territory":"","country":"Greece","latitude":37.70475467,"longitude":26.65152935,"population":6,"stateCapital":false,"nationalCapital":false,"pk":null,"quiz":"europe","code":null,"archived":false,"percentageOfSessions":null}, {"name":"Kagiáni","state":"North Aegean","territory":"","country":"Greece","latitude":39.11871838,"longitude":26.41710672,"population":10,"stateCapital":false,"nationalCapital":false,"pk":null,"quiz":"europe","code":null,"archived":false,"percentageOfSessions":null}, {"name":"Kalamonári","state":"North Aegean","territory":"","country":"Greece","latitude":37.56245905,"longitude":26.11406404,"population":14,"stateCapital":false,"nationalCapital":false,"pk":null,"quiz":"europe","code":null,"archived":false,"percentageOfSessions":null}, {"name":"Kálamos","state":"North Aegean","territory":"","country":"Greece","latitude":37.53145726,"longitude":25.99578043,"population":7,"stateCapital":false,"nationalCapital":false,"pk":null,"quiz":"europe","code":null,"archived":false,"percentageOfSessions":null}, {"name":"Kalamurídha","state":"North Aegean","territory":"","country":"Greece","latitude":37.63026754,"longitude":26.12231406,"population":10,"stateCapital":false,"nationalCapital":false,"pk":null,"quiz":"europe","code":null,"archived":false,"percentageOfSessions":null}, {"name":"Kalamotí","state":"North Aegean","territory":"","country":"Greece","latitude":38.23136732,"longitude":26.04233431,"population":590,"stateCapital":false,"nationalCapital":false,"pk":null,"quiz":"europe","code":null,"archived":false,"percentageOfSessions":null}, {"name":"Kallithéa","state":"North Aegean","territory":"","country":"Greece","latitude":39.89989236,"longitude":25.20788175,"population":163,"stateCapital":false,"nationalCapital":false,"pk":null,"quiz":"europe","code":null,"archived":false,"percentageOfSessions":null}, {"name":"Kallithéa","state":"North Aegean","territory":"","country":"Greece","latitude":37.73051678,"longitude":26.5810647,"population":140,"stateCapital":false,"nationalCapital":false,"pk":null,"quiz":"europe","code":null,"archived":false,"percentageOfSessions":null}, {"name":"Kallimasiá","state":"North Aegean","territory":"","country":"Greece","latitude":38.29148672,"longitude":26.0997544,"population":951,"stateCapital":false,"nationalCapital":false,"pk":null,"quiz":"europe","code":null,"archived":false,"percentageOfSessions":null}, {"name":"Kalliópi","state":"North Aegean","territory":"","country":"Greece","latitude":39.91760333,"longitude":25.33996341,"population":207,"stateCapital":false,"nationalCapital":false,"pk":null,"quiz":"europe","code":null,"archived":false,"percentageOfSessions":null}, {"name":"Kalloní","state":"North Aegean","territory":"","country":"Greece","latitude":39.23104327,"longitude":26.205189,"population":1956,"stateCapital":false,"nationalCapital":false,"pk":null,"quiz":"europe","code":null,"archived":false,"percentageOfSessions":null}, {"name":"Kaló Limáni","state":"North Aegean","territory":"","country":"Greece","latitude":39.28932793,"longitude":26.04267697,"population":16,"stateCapital":false,"nationalCapital":false,"pk":null,"quiz":"europe","code":null,"archived":false,"percentageOfSessions":null}, {"name":"Kalogerikó","state":"North Aegean","territory":"","country":"Greece","latitude":37.67102259,"longitude":26.77090439,"population":9,"stateCapital":false,"nationalCapital":false,"pk":null,"quiz":"europe","code":null,"archived":false,"percentageOfSessions":null}, {"name":"Kamára","state":"North Aegean","territory":"","country":"Greece","latitude":37.74765538,"longitude":26.91746073,"population":259,"stateCapital":false,"nationalCapital":false,"pk":null,"quiz":"europe","code":null,"archived":false,"percentageOfSessions":null}, {"name":"Kamára","state":"North Aegean","territory":"","country":"Greece","latitude":37.74765538,"longitude":26.91746073,"population":5,"stateCapital":false,"nationalCapital":false,"pk":null,"quiz":"europe","code":null,"archived":false,"percentageOfSessions":null}, {"name":"Kamári","state":"North Aegean","territory":"","country":"Greece","latitude":37.59721231,"longitude":26.53089569,"population":14,"stateCapital":false,"nationalCapital":false,"pk":null,"quiz":"europe","code":null,"archived":false,"percentageOfSessions":null}, {"name":"Kamínia","state":"North Aegean","territory":"","country":"Greece","latitude":39.86153167,"longitude":25.32198754,"population":236,"stateCapital":false,"nationalCapital":false,"pk":null,"quiz":"europe","code":null,"archived":false,"percentageOfSessions":null}, {"name":"Kámba","state":"North Aegean","territory":"","country":"Greece","latitude":37.59760161,"longitude":26.24712349,"population":1,"stateCapital":false,"nationalCapital":false,"pk":null,"quiz":"europe","code":null,"archived":false,"percentageOfSessions":null}, {"name":"Kambí Fúrnon","state":"North Aegean","territory":"","country":"Greece","latitude":37.56721749,"longitude":26.47640715,"population":18,"stateCapital":false,"nationalCapital":false,"pk":null,"quiz":"europe","code":null,"archived":false,"percentageOfSessions":null}, {"name":"Kambí Hrisomiléas","state":"North Aegean","territory":"","country":"Greece","latitude":37.62666921,"longitude":26.50197622,"population":42,"stateCapital":false,"nationalCapital":false,"pk":null,"quiz":"europe","code":null,"archived":false,"percentageOfSessions":null}, {"name":"Kambiá","state":"North Aegean","territory":"","country":"Greece","latitude":38.56982623,"longitude":25.98030278,"population":50,"stateCapital":false,"nationalCapital":false,"pk":null,"quiz":"europe","code":null,"archived":false,"percentageOfSessions":null}, {"name":"Kámbos","state":"North Aegean","territory":"","country":"Greece","latitude":39.27116921,"longitude":25.98735067,"population":101,"stateCapital":false,"nationalCapital":false,"pk":null,"quiz":"europe","code":null,"archived":false,"percentageOfSessions":null}, {"name":"Kámbos","state":"North Aegean","territory":"","country":"Greece","latitude":37.62385006,"longitude":26.15623494,"population":208,"stateCapital":false,"nationalCapital":false,"pk":null,"quiz":"europe","code":null,"archived":false,"percentageOfSessions":null}, {"name":"Kámbos","state":"North Aegean","territory":"","country":"Greece","latitude":37.70731339,"longitude":26.66992586,"population":105,"stateCapital":false,"nationalCapital":false,"pk":null,"quiz":"europe","code":null,"archived":false,"percentageOfSessions":null}, {"name":"Kámbos (Dh.K.Marathokámbu)","state":"North Aegean","territory":"","country":"Greece","latitude":37.70731339,"longitude":26.66992586,"population":489,"stateCapital":false,"nationalCapital":false,"pk":null,"quiz":"europe","code":null,"archived":false,"percentageOfSessions":null}, {"name":"Kámbos (T.K.Skureíkon)","state":"North Aegean","territory":"","country":"Greece","latitude":37.70731339,"longitude":26.66992586,"population":11,"stateCapital":false,"nationalCapital":false,"pk":null,"quiz":"europe","code":null,"archived":false,"percentageOfSessions":null}, {"name":"Kandrí","state":"North Aegean","territory":"","country":"Greece","latitude":39.20370505,"longitude":26.27479468,"population":18,"stateCapital":false,"nationalCapital":false,"pk":null,"quiz":"europe","code":null,"archived":false,"percentageOfSessions":null}, {"name":"Kápi","state":"North Aegean","territory":"","country":"Greece","latitude":39.33132599,"longitude":26.30846385,"population":542,"stateCapital":false,"nationalCapital":false,"pk":null,"quiz":"europe","code":null,"archived":false,"percentageOfSessions":null}, {"name":"Karavóstamon","state":"North Aegean","territory":"","country":"Greece","latitude":37.63015014,"longitude":26.21648634,"population":491,"stateCapital":false,"nationalCapital":false,"pk":null,"quiz":"europe","code":null,"archived":false,"percentageOfSessions":null}, {"name":"Kardhámila","state":"North Aegean","territory":"","country":"Greece","latitude":38.5265043,"longitude":26.09019151,"population":664,"stateCapital":false,"nationalCapital":false,"pk":null,"quiz":"europe","code":null,"archived":false,"percentageOfSessions":null}, {"name":"Karés","state":"North Aegean","territory":"","country":"Greece","latitude":37.58251264,"longitude":26.07277102,"population":21,"stateCapital":false,"nationalCapital":false,"pk":null,"quiz":"europe","code":null,"archived":false,"percentageOfSessions":null}, {"name":"Karíni","state":"North Aegean","territory":"","country":"Greece","latitude":39.12037496,"longitude":26.39087835,"population":5,"stateCapital":false,"nationalCapital":false,"pk":null,"quiz":"europe","code":null,"archived":false,"percentageOfSessions":null}, {"name":"Kariónas","state":"North Aegean","territory":"","country":"Greece","latitude":39.01216801,"longitude":26.4283858,"population":7,"stateCapital":false,"nationalCapital":false,"pk":null,"quiz":"europe","code":null,"archived":false,"percentageOfSessions":null}, {"name":"Karkinágrion","state":"North Aegean","territory":"","country":"Greece","latitude":37.51483648,"longitude":26.01960102,"population":197,"stateCapital":false,"nationalCapital":false,"pk":null,"quiz":"europe","code":null,"archived":false,"percentageOfSessions":null}, {"name":"Karpásion","state":"North Aegean","territory":"","country":"Greece","latitude":39.93096698,"longitude":25.23138734,"population":181,"stateCapital":false,"nationalCapital":false,"pk":null,"quiz":"europe","code":null,"archived":false,"percentageOfSessions":null}, {"name":"Karpóvulos","state":"North Aegean","territory":"","country":"Greece","latitude":37.69171115,"longitude":26.96138346,"population":29,"stateCapital":false,"nationalCapital":false,"pk":null,"quiz":"europe","code":null,"archived":false,"percentageOfSessions":null}, {"name":"Karié","state":"North Aegean","territory":"","country":"Greece","latitude":38.38807016,"longitude":26.09722442,"population":606,"stateCapital":false,"nationalCapital":false,"pk":null,"quiz":"europe","code":null,"archived":false,"percentageOfSessions":null}, {"name":"Karínda","state":"North Aegean","territory":"","country":"Greece","latitude":38.19214977,"longitude":25.9516595,"population":6,"stateCapital":false,"nationalCapital":false,"pk":null,"quiz":"europe","code":null,"archived":false,"percentageOfSessions":null}, {"name":"Karfás","state":"North Aegean","territory":"","country":"Greece","latitude":38.31683501,"longitude":26.15073422,"population":633,"stateCapital":false,"nationalCapital":false,"pk":null,"quiz":"europe","code":null,"archived":false,"percentageOfSessions":null}, {"name":"Káspakas","state":"North Aegean","territory":"","country":"Greece","latitude":39.91148932,"longitude":25.08191317,"population":522,"stateCapital":false,"nationalCapital":false,"pk":null,"quiz":"europe","code":null,"archived":false,"percentageOfSessions":null}, {"name":"Kastanéa","state":"North Aegean","territory":"","country":"Greece","latitude":37.75091118,"longitude":26.68093279,"population":148,"stateCapital":false,"nationalCapital":false,"pk":null,"quiz":"europe","code":null,"archived":false,"percentageOfSessions":null}, {"name":"Kastaniés","state":"North Aegean","territory":"","country":"Greece","latitude":37.59542362,"longitude":26.09121824,"population":148,"stateCapital":false,"nationalCapital":false,"pk":null,"quiz":"europe","code":null,"archived":false,"percentageOfSessions":null}, {"name":"Kástron","state":"North Aegean","territory":"","country":"Greece","latitude":38.5206175,"longitude":26.20467539,"population":28,"stateCapital":false,"nationalCapital":false,"pk":null,"quiz":"europe","code":null,"archived":false,"percentageOfSessions":null}, {"name":"Katávasis","state":"North Aegean","territory":"","country":"Greece","latitude":38.46103398,"longitude":25.97066916,"population":13,"stateCapital":false,"nationalCapital":false,"pk":null,"quiz":"europe","code":null,"archived":false,"percentageOfSessions":null}, {"name":"Katálakkon","state":"North Aegean","territory":"","country":"Greece","latitude":39.96199723,"longitude":25.1510644,"population":46,"stateCapital":false,"nationalCapital":false,"pk":null,"quiz":"europe","code":null,"archived":false,"percentageOfSessions":null}, {"name":"Katarráktis","state":"North Aegean","territory":"","country":"Greece","latitude":38.26236252,"longitude":26.10066834,"population":396,"stateCapital":false,"nationalCapital":false,"pk":null,"quiz":"europe","code":null,"archived":false,"percentageOfSessions":null}, {"name":"Katafígion","state":"North Aegean","territory":"","country":"Greece","latitude":37.64211386,"longitude":26.30436286,"population":61,"stateCapital":false,"nationalCapital":false,"pk":null,"quiz":"europe","code":null,"archived":false,"percentageOfSessions":null}, {"name":"Kato Lomvardhádhes","state":"North Aegean","territory":"","country":"Greece","latitude":37.62382608,"longitude":26.0895778,"population":17,"stateCapital":false,"nationalCapital":false,"pk":null,"quiz":"europe","code":null,"archived":false,"percentageOfSessions":null}, {"name":"Káto Ráhes","state":"North Aegean","territory":"","country":"Greece","latitude":37.62180659,"longitude":26.06417215,"population":47,"stateCapital":false,"nationalCapital":false,"pk":null,"quiz":"europe","code":null,"archived":false,"percentageOfSessions":null}, {"name":"Káto Stavrós","state":"North Aegean","territory":"","country":"Greece","latitude":39.03627761,"longitude":26.27068196,"population":31,"stateCapital":false,"nationalCapital":false,"pk":null,"quiz":"europe","code":null,"archived":false,"percentageOfSessions":null}, {"name":"Káto Trítos","state":"North Aegean","territory":"","country":"Greece","latitude":39.08422166,"longitude":26.43140036,"population":507,"stateCapital":false,"nationalCapital":false,"pk":null,"quiz":"europe","code":null,"archived":false,"percentageOfSessions":null}, {"name":"Káto Horíon","state":"North Aegean","territory":"","country":"Greece","latitude":38.98103058,"longitude":26.34961612,"population":34,"stateCapital":false,"nationalCapital":false,"pk":null,"quiz":"europe","code":null,"archived":false,"percentageOfSessions":null}, {"name":"Kédhron","state":"North Aegean","territory":"","country":"Greece","latitude":39.10147304,"longitude":26.50766642,"population":85,"stateCapital":false,"nationalCapital":false,"pk":null,"quiz":"europe","code":null,"archived":false,"percentageOfSessions":null}, {"name":"Kédhron","state":"North Aegean","territory":"","country":"Greece","latitude":37.76767608,"longitude":26.92364399,"population":105,"stateCapital":false,"nationalCapital":false,"pk":null,"quiz":"europe","code":null,"archived":false,"percentageOfSessions":null}, {"name":"Keramía","state":"North Aegean","territory":"","country":"Greece","latitude":39.12256813,"longitude":26.42163498,"population":368,"stateCapital":false,"nationalCapital":false,"pk":null,"quiz":"europe","code":null,"archived":false,"percentageOfSessions":null}, {"name":"Keramía","state":"North Aegean","territory":"","country":"Greece","latitude":38.29625053,"longitude":26.13680882,"population":11,"stateCapital":false,"nationalCapital":false,"pk":null,"quiz":"europe","code":null,"archived":false,"percentageOfSessions":null}, {"name":"Keramidhú","state":"North Aegean","territory":"","country":"Greece","latitude":37.57031768,"longitude":26.43998977,"population":7,"stateCapital":false,"nationalCapital":false,"pk":null,"quiz":"europe","code":null,"archived":false,"percentageOfSessions":null}, {"name":"Keramíon","state":"North Aegean","territory":"","country":"Greece","latitude":37.62345435,"longitude":26.18645327,"population":98,"stateCapital":false,"nationalCapital":false,"pk":null,"quiz":"europe","code":null,"archived":false,"percentageOfSessions":null}, {"name":"Kerámion","state":"North Aegean","territory":"","country":"Greece","latitude":39.21363669,"longitude":26.20539406,"population":598,"stateCapital":false,"nationalCapital":false,"pk":null,"quiz":"europe","code":null,"archived":false,"percentageOfSessions":null}, {"name":"Kéramos","state":"North Aegean","territory":"","country":"Greece","latitude":38.55304952,"longitude":25.93441028,"population":99,"stateCapital":false,"nationalCapital":false,"pk":null,"quiz":"europe","code":null,"archived":false,"percentageOfSessions":null}, {"name":"Kehrádha","state":"North Aegean","territory":"","country":"Greece","latitude":39.30209415,"longitude":26.11059031,"population":32,"stateCapital":false,"nationalCapital":false,"pk":null,"quiz":"europe","code":null,"archived":false,"percentageOfSessions":null}, {"name":"Kipurié","state":"North Aegean","territory":"","country":"Greece","latitude":38.50508495,"longitude":25.99022644,"population":9,"stateCapital":false,"nationalCapital":false,"pk":null,"quiz":"europe","code":null,"archived":false,"percentageOfSessions":null}, {"name":"Kiónion","state":"North Aegean","territory":"","country":"Greece","latitude":37.66392118,"longitude":26.27859831,"population":36,"stateCapital":false,"nationalCapital":false,"pk":null,"quiz":"europe","code":null,"archived":false,"percentageOfSessions":null}, {"name":"Klió","state":"North Aegean","territory":"","country":"Greece","latitude":39.34412772,"longitude":26.31983279,"population":351,"stateCapital":false,"nationalCapital":false,"pk":null,"quiz":"europe","code":null,"archived":false,"percentageOfSessions":null}, {"name":"Klíma","state":"North Aegean","territory":"","country":"Greece","latitude":37.70668469,"longitude":27.03897728,"population":25,"stateCapital":false,"nationalCapital":false,"pk":null,"quiz":"europe","code":null,"archived":false,"percentageOfSessions":null}, {"name":"Kiní","state":"North Aegean","territory":"","country":"Greece","latitude":38.2482602,"longitude":26.06846206,"population":147,"stateCapital":false,"nationalCapital":false,"pk":null,"quiz":"europe","code":null,"archived":false,"percentageOfSessions":null}, {"name":"Kokkárion","state":"North Aegean","territory":"","country":"Greece","latitude":37.77651117,"longitude":26.88931508,"population":1628,"stateCapital":false,"nationalCapital":false,"pk":null,"quiz":"europe","code":null,"archived":false,"percentageOfSessions":null}, {"name":"Kolóna","state":"North Aegean","territory":"","country":"Greece","latitude":37.66983605,"longitude":26.88394729,"population":28,"stateCapital":false,"nationalCapital":false,"pk":null,"quiz":"europe","code":null,"archived":false,"percentageOfSessions":null}, {"name":"Kondéika","state":"North Aegean","territory":"","country":"Greece","latitude":37.75449554,"longitude":26.73609845,"population":291,"stateCapital":false,"nationalCapital":false,"pk":null,"quiz":"europe","code":null,"archived":false,"percentageOfSessions":null}, {"name":"Kondakéika","state":"North Aegean","territory":"","country":"Greece","latitude":37.79992463,"longitude":26.74238446,"population":517,"stateCapital":false,"nationalCapital":false,"pk":null,"quiz":"europe","code":null,"archived":false,"percentageOfSessions":null}, {"name":"Kondiás","state":"North Aegean","territory":"","country":"Greece","latitude":39.86232026,"longitude":25.14740441,"population":567,"stateCapital":false,"nationalCapital":false,"pk":null,"quiz":"europe","code":null,"archived":false,"percentageOfSessions":null}, {"name":"Kondopúlion","state":"North Aegean","territory":"","country":"Greece","latitude":39.92458797,"longitude":25.33256243,"population":619,"stateCapital":false,"nationalCapital":false,"pk":null,"quiz":"europe","code":null,"archived":false,"percentageOfSessions":null}, {"name":"Kornós","state":"North Aegean","territory":"","country":"Greece","latitude":39.91630278,"longitude":25.1167751,"population":241,"stateCapital":false,"nationalCapital":false,"pk":null,"quiz":"europe","code":null,"archived":false,"percentageOfSessions":null}, {"name":"Kortisónas","state":"North Aegean","territory":"","country":"Greece","latitude":39.97252368,"longitude":25.40250011,"population":2,"stateCapital":false,"nationalCapital":false,"pk":null,"quiz":"europe","code":null,"archived":false,"percentageOfSessions":null}, {"name":"Koskinás","state":"North Aegean","territory":"","country":"Greece","latitude":38.46799388,"longitude":25.93484583,"population":27,"stateCapital":false,"nationalCapital":false,"pk":null,"quiz":"europe","code":null,"archived":false,"percentageOfSessions":null}, {"name":"Kosmadhéi","state":"North Aegean","territory":"","country":"Greece","latitude":37.75767178,"longitude":26.6586218,"population":82,"stateCapital":false,"nationalCapital":false,"pk":null,"quiz":"europe","code":null,"archived":false,"percentageOfSessions":null}, {"name":"Kosmádhos","state":"North Aegean","territory":"","country":"Greece","latitude":38.56323592,"longitude":25.88397093,"population":27,"stateCapital":false,"nationalCapital":false,"pk":null,"quiz":"europe","code":null,"archived":false,"percentageOfSessions":null}, {"name":"Kosíkia","state":"North Aegean","territory":"","country":"Greece","latitude":37.58742491,"longitude":26.16068222,"population":81,"stateCapital":false,"nationalCapital":false,"pk":null,"quiz":"europe","code":null,"archived":false,"percentageOfSessions":null}, {"name":"Kótsinas","state":"North Aegean","territory":"","country":"Greece","latitude":39.93730866,"longitude":25.28368601,"population":6,"stateCapital":false,"nationalCapital":false,"pk":null,"quiz":"europe","code":null,"archived":false,"percentageOfSessions":null}, {"name":"Kuméika","state":"North Aegean","territory":"","country":"Greece","latitude":37.70769476,"longitude":26.74613068,"population":315,"stateCapital":false,"nationalCapital":false,"pk":null,"quiz":"europe","code":null,"archived":false,"percentageOfSessions":null}, {"name":"Kumaradhéi","state":"North Aegean","territory":"","country":"Greece","latitude":37.70331376,"longitude":26.83573254,"population":120,"stateCapital":false,"nationalCapital":false,"pk":null,"quiz":"europe","code":null,"archived":false,"percentageOfSessions":null}, {"name":"Kumariónas","state":"North Aegean","territory":"","country":"Greece","latitude":37.74419646,"longitude":26.97086725,"population":109,"stateCapital":false,"nationalCapital":false,"pk":null,"quiz":"europe","code":null,"archived":false,"percentageOfSessions":null}, {"name":"Kuniádhi","state":"North Aegean","territory":"","country":"Greece","latitude":37.58063319,"longitude":26.03408907,"population":33,"stateCapital":false,"nationalCapital":false,"pk":null,"quiz":"europe","code":null,"archived":false,"percentageOfSessions":null}, {"name":"Kurnéla","state":"North Aegean","territory":"","country":"Greece","latitude":38.99471077,"longitude":26.33390922,"population":2,"stateCapital":false,"nationalCapital":false,"pk":null,"quiz":"europe","code":null,"archived":false,"percentageOfSessions":null}, {"name":"Kurúnia","state":"North Aegean","territory":"","country":"Greece","latitude":38.56447403,"longitude":25.91157398,"population":105,"stateCapital":false,"nationalCapital":false,"pk":null,"quiz":"europe","code":null,"archived":false,"percentageOfSessions":null}, {"name":"Kufó Vunó","state":"North Aegean","territory":"","country":"Greece","latitude":39.08787159,"longitude":26.42449966,"population":118,"stateCapital":false,"nationalCapital":false,"pk":null,"quiz":"europe","code":null,"archived":false,"percentageOfSessions":null}, {"name":"Kremastí","state":"North Aegean","territory":"","country":"Greece","latitude":37.6310002,"longitude":26.14595427,"population":8,"stateCapital":false,"nationalCapital":false,"pk":null,"quiz":"europe","code":null,"archived":false,"percentageOfSessions":null}, {"name":"Kiparíssi Arethúsis","state":"North Aegean","territory":"","country":"Greece","latitude":37.61683964,"longitude":26.20477148,"population":16,"stateCapital":false,"nationalCapital":false,"pk":null,"quiz":"europe","code":null,"archived":false,"percentageOfSessions":null}, {"name":"Kiparíssion","state":"North Aegean","territory":"","country":"Greece","latitude":37.62189442,"longitude":26.19300748,"population":6,"stateCapital":false,"nationalCapital":false,"pk":null,"quiz":"europe","code":null,"archived":false,"percentageOfSessions":null}, {"name":"Kírgianni","state":"North Aegean","territory":"","country":"Greece","latitude":37.66257742,"longitude":26.77644736,"population":25,"stateCapital":false,"nationalCapital":false,"pk":null,"quiz":"europe","code":null,"archived":false,"percentageOfSessions":null}, {"name":"Kómi","state":"North Aegean","territory":"","country":"Greece","latitude":39.182037,"longitude":26.40487348,"population":136,"stateCapital":false,"nationalCapital":false,"pk":null,"quiz":"europe","code":null,"archived":false,"percentageOfSessions":null}, {"name":"Kómi","state":"North Aegean","territory":"","country":"Greece","latitude":38.19965216,"longitude":26.04389327,"population":133,"stateCapital":false,"nationalCapital":false,"pk":null,"quiz":"europe","code":null,"archived":false,"percentageOfSessions":null}, {"name":"Lanġádha","state":"North Aegean","territory":"","country":"Greece","latitude":38.99192604,"longitude":26.44778696,"population":3,"stateCapital":false,"nationalCapital":false,"pk":null,"quiz":"europe","code":null,"archived":false,"percentageOfSessions":null}, {"name":"Lanġádha","state":"North Aegean","territory":"","country":"Greece","latitude":38.99192604,"longitude":26.44778696,"population":4,"stateCapital":false,"nationalCapital":false,"pk":null,"quiz":"europe","code":null,"archived":false,"percentageOfSessions":null}, {"name":"Lanġádha","state":"North Aegean","territory":"","country":"Greece","latitude":37.54623812,"longitude":26.0192534,"population":4,"stateCapital":false,"nationalCapital":false,"pk":null,"quiz":"europe","code":null,"archived":false,"percentageOfSessions":null}, {"name":"Lanġádha","state":"North Aegean","territory":"","country":"Greece","latitude":38.47572882,"longitude":26.12137581,"population":724,"stateCapital":false,"nationalCapital":false,"pk":null,"quiz":"europe","code":null,"archived":false,"percentageOfSessions":null}, {"name":"Lámbu Míli","state":"North Aegean","territory":"","country":"Greece","latitude":39.14192539,"longitude":26.4024965,"population":89,"stateCapital":false,"nationalCapital":false,"pk":null,"quiz":"europe","code":null,"archived":false,"percentageOfSessions":null}, {"name":"Lardhádhes","state":"North Aegean","territory":"","country":"Greece","latitude":37.62945827,"longitude":26.29053753,"population":11,"stateCapital":false,"nationalCapital":false,"pk":null,"quiz":"europe","code":null,"archived":false,"percentageOfSessions":null}, {"name":"Lárisos","state":"North Aegean","territory":"","country":"Greece","latitude":39.12394284,"longitude":26.46722914,"population":162,"stateCapital":false,"nationalCapital":false,"pk":null,"quiz":"europe","code":null,"archived":false,"percentageOfSessions":null}, {"name":"Lársos","state":"North Aegean","territory":"","country":"Greece","latitude":39.11642295,"longitude":26.44748706,"population":19,"stateCapital":false,"nationalCapital":false,"pk":null,"quiz":"europe","code":null,"archived":false,"percentageOfSessions":null}, {"name":"Lafiónas","state":"North Aegean","territory":"","country":"Greece","latitude":39.30031427,"longitude":26.17722812,"population":151,"stateCapital":false,"nationalCapital":false,"pk":null,"quiz":"europe","code":null,"archived":false,"percentageOfSessions":null}, {"name":"Lapsahádhes","state":"North Aegean","territory":"","country":"Greece","latitude":37.60757166,"longitude":26.10991533,"population":16,"stateCapital":false,"nationalCapital":false,"pk":null,"quiz":"europe","code":null,"archived":false,"percentageOfSessions":null}, {"name":"Léka","state":"North Aegean","territory":"","country":"Greece","latitude":37.77116408,"longitude":26.68471993,"population":408,"stateCapital":false,"nationalCapital":false,"pk":null,"quiz":"europe","code":null,"archived":false,"percentageOfSessions":null}, {"name":"Lepétimnos","state":"North Aegean","territory":"","country":"Greece","latitude":39.36047426,"longitude":26.27336747,"population":164,"stateCapital":false,"nationalCapital":false,"pk":null,"quiz":"europe","code":null,"archived":false,"percentageOfSessions":null}, {"name":"Leptópodha","state":"North Aegean","territory":"","country":"Greece","latitude":38.57011145,"longitude":25.94806237,"population":86,"stateCapital":false,"nationalCapital":false,"pk":null,"quiz":"europe","code":null,"archived":false,"percentageOfSessions":null}, {"name":"Lefkoniá","state":"North Aegean","territory":"","country":"Greece","latitude":38.33033587,"longitude":26.1473951,"population":122,"stateCapital":false,"nationalCapital":false,"pk":null,"quiz":"europe","code":null,"archived":false,"percentageOfSessions":null}, {"name":"Límnos","state":"North Aegean","territory":"","country":"Greece","latitude":38.4709398,"longitude":25.91035073,"population":13,"stateCapital":false,"nationalCapital":false,"pk":null,"quiz":"europe","code":null,"archived":false,"percentageOfSessions":null}, {"name":"Livadháki","state":"North Aegean","territory":"","country":"Greece","latitude":37.80549993,"longitude":26.80882396,"population":27,"stateCapital":false,"nationalCapital":false,"pk":null,"quiz":"europe","code":null,"archived":false,"percentageOfSessions":null}, {"name":"Livádhia","state":"North Aegean","territory":"","country":"Greece","latitude":39.12675322,"longitude":26.21342736,"population":11,"stateCapital":false,"nationalCapital":false,"pk":null,"quiz":"europe","code":null,"archived":false,"percentageOfSessions":null}, {"name":"Livádhion","state":"North Aegean","territory":"","country":"Greece","latitude":37.5810744,"longitude":26.23716357,"population":5,"stateCapital":false,"nationalCapital":false,"pk":null,"quiz":"europe","code":null,"archived":false,"percentageOfSessions":null}, {"name":"Livadhohórion","state":"North Aegean","territory":"","country":"Greece","latitude":39.9066847,"longitude":25.19856351,"population":225,"stateCapital":false,"nationalCapital":false,"pk":null,"quiz":"europe","code":null,"archived":false,"percentageOfSessions":null}, {"name":"Ligonári","state":"North Aegean","territory":"","country":"Greece","latitude":38.97503252,"longitude":26.5012431,"population":7,"stateCapital":false,"nationalCapital":false,"pk":null,"quiz":"europe","code":null,"archived":false,"percentageOfSessions":null}, {"name":"Lithíon","state":"North Aegean","territory":"","country":"Greece","latitude":38.32861232,"longitude":25.99863268,"population":400,"stateCapital":false,"nationalCapital":false,"pk":null,"quiz":"europe","code":null,"archived":false,"percentageOfSessions":null}, {"name":"Lilikás","state":"North Aegean","territory":"","country":"Greece","latitude":38.20444415,"longitude":26.06037516,"population":3,"stateCapital":false,"nationalCapital":false,"pk":null,"quiz":"europe","code":null,"archived":false,"percentageOfSessions":null}, {"name":"Limánion","state":"North Aegean","territory":"","country":"Greece","latitude":39.34347353,"longitude":26.35605239,"population":2,"stateCapital":false,"nationalCapital":false,"pk":null,"quiz":"europe","code":null,"archived":false,"percentageOfSessions":null}, {"name":"Limenária","state":"North Aegean","territory":"","country":"Greece","latitude":39.90063479,"longitude":25.06936186,"population":33,"stateCapital":false,"nationalCapital":false,"pk":null,"quiz":"europe","code":null,"archived":false,"percentageOfSessions":null}, {"name":"Liménas","state":"North Aegean","territory":"","country":"Greece","latitude":38.28353655,"longitude":25.92875343,"population":72,"stateCapital":false,"nationalCapital":false,"pk":null,"quiz":"europe","code":null,"archived":false,"percentageOfSessions":null}, {"name":"Liménas Lithíu","state":"North Aegean","territory":"","country":"Greece","latitude":38.33826377,"longitude":25.99334563,"population":1,"stateCapital":false,"nationalCapital":false,"pk":null,"quiz":"europe","code":null,"archived":false,"percentageOfSessions":null}, {"name":"Limiá","state":"North Aegean","territory":"","country":"Greece","latitude":38.46926067,"longitude":25.91634043,"population":31,"stateCapital":false,"nationalCapital":false,"pk":null,"quiz":"europe","code":null,"archived":false,"percentageOfSessions":null}, {"name":"Limniónas","state":"North Aegean","territory":"","country":"Greece","latitude":37.69247004,"longitude":26.62892161,"population":35,"stateCapital":false,"nationalCapital":false,"pk":null,"quiz":"europe","code":null,"archived":false,"percentageOfSessions":null}, {"name":"Limnonáki","state":"North Aegean","territory":"","country":"Greece","latitude":37.65731069,"longitude":26.77816973,"population":14,"stateCapital":false,"nationalCapital":false,"pk":null,"quiz":"europe","code":null,"archived":false,"percentageOfSessions":null}, {"name":"Lisvórion","state":"North Aegean","territory":"","country":"Greece","latitude":39.10256395,"longitude":26.21667642,"population":400,"stateCapital":false,"nationalCapital":false,"pk":null,"quiz":"europe","code":null,"archived":false,"percentageOfSessions":null}, {"name":"Lomvardhádhes","state":"North Aegean","territory":"","country":"Greece","latitude":37.61430316,"longitude":26.08592407,"population":27,"stateCapital":false,"nationalCapital":false,"pk":null,"quiz":"europe","code":null,"archived":false,"percentageOfSessions":null}, {"name":"Lutrá","state":"North Aegean","territory":"","country":"Greece","latitude":39.05436935,"longitude":26.54261937,"population":1075,"stateCapital":false,"nationalCapital":false,"pk":null,"quiz":"europe","code":null,"archived":false,"percentageOfSessions":null}, {"name":"Lutrópolis Thermís","state":"North Aegean","territory":"","country":"Greece","latitude":39.17722875,"longitude":26.48368581,"population":887,"stateCapital":false,"nationalCapital":false,"pk":null,"quiz":"europe","code":null,"archived":false,"percentageOfSessions":null}, {"name":"Ligerí","state":"North Aegean","territory":"","country":"Greece","latitude":39.26745892,"longitude":25.96448425,"population":43,"stateCapital":false,"nationalCapital":false,"pk":null,"quiz":"europe","code":null,"archived":false,"percentageOfSessions":null}, {"name":"Líhna","state":"North Aegean","territory":"","country":"Greece","latitude":39.91308495,"longitude":25.26600888,"population":109,"stateCapital":false,"nationalCapital":false,"pk":null,"quiz":"europe","code":null,"archived":false,"percentageOfSessions":null}, {"name":"Manġanítis","state":"North Aegean","territory":"","country":"Greece","latitude":37.55721363,"longitude":26.11723598,"population":157,"stateCapital":false,"nationalCapital":false,"pk":null,"quiz":"europe","code":null,"archived":false,"percentageOfSessions":null}, {"name":"Managrós","state":"North Aegean","territory":"","country":"Greece","latitude":38.46184671,"longitude":25.94071492,"population":9,"stateCapital":false,"nationalCapital":false,"pk":null,"quiz":"europe","code":null,"archived":false,"percentageOfSessions":null}, {"name":"Mandhriá","state":"North Aegean","territory":"","country":"Greece","latitude":37.61709416,"longitude":26.10986099,"population":70,"stateCapital":false,"nationalCapital":false,"pk":null,"quiz":"europe","code":null,"archived":false,"percentageOfSessions":null}, {"name":"Manolátes","state":"North Aegean","territory":"","country":"Greece","latitude":37.78308546,"longitude":26.82508594,"population":131,"stateCapital":false,"nationalCapital":false,"pk":null,"quiz":"europe","code":null,"archived":false,"percentageOfSessions":null}, {"name":"Mandamádhos","state":"North Aegean","territory":"","country":"Greece","latitude":39.30806923,"longitude":26.33388167,"population":926,"stateCapital":false,"nationalCapital":false,"pk":null,"quiz":"europe","code":null,"archived":false,"percentageOfSessions":null}, {"name":"Marathókambos","state":"North Aegean","territory":"","country":"Greece","latitude":37.72456911,"longitude":26.68755907,"population":1060,"stateCapital":false,"nationalCapital":false,"pk":null,"quiz":"europe","code":null,"archived":false,"percentageOfSessions":null}, {"name":"Márathon","state":"North Aegean","territory":"","country":"Greece","latitude":37.61347627,"longitude":26.14043586,"population":50,"stateCapital":false,"nationalCapital":false,"pk":null,"quiz":"europe","code":null,"archived":false,"percentageOfSessions":null}, {"name":"Mármaro","state":"North Aegean","territory":"","country":"Greece","latitude":39.1327892,"longitude":26.50471114,"population":114,"stateCapital":false,"nationalCapital":false,"pk":null,"quiz":"europe","code":null,"archived":false,"percentageOfSessions":null}, {"name":"Mármaron","state":"North Aegean","territory":"","country":"Greece","latitude":38.54123802,"longitude":26.10571898,"population":853,"stateCapital":false,"nationalCapital":false,"pk":null,"quiz":"europe","code":null,"archived":false,"percentageOfSessions":null}, {"name":"Mavradzéi","state":"North Aegean","territory":"","country":"Greece","latitude":37.7158892,"longitude":26.86182114,"population":190,"stateCapital":false,"nationalCapital":false,"pk":null,"quiz":"europe","code":null,"archived":false,"percentageOfSessions":null}, {"name":"Mavráton","state":"North Aegean","territory":"","country":"Greece","latitude":37.63143072,"longitude":26.2817123,"population":51,"stateCapital":false,"nationalCapital":false,"pk":null,"quiz":"europe","code":null,"archived":false,"percentageOfSessions":null}, {"name":"Mavriannós","state":"North Aegean","territory":"","country":"Greece","latitude":37.56814381,"longitude":26.00628866,"population":7,"stateCapital":false,"nationalCapital":false,"pk":null,"quiz":"europe","code":null,"archived":false,"percentageOfSessions":null}, {"name":"Mavrikáton","state":"North Aegean","territory":"","country":"Greece","latitude":37.63752369,"longitude":26.29630968,"population":10,"stateCapital":false,"nationalCapital":false,"pk":null,"quiz":"europe","code":null,"archived":false,"percentageOfSessions":null}, {"name":"Megáli Límni","state":"North Aegean","territory":"","country":"Greece","latitude":39.1014098,"longitude":26.32449641,"population":1,"stateCapital":false,"nationalCapital":false,"pk":null,"quiz":"europe","code":null,"archived":false,"percentageOfSessions":null}, {"name":"Megalohórion","state":"North Aegean","territory":"","country":"Greece","latitude":39.01631679,"longitude":26.36497593,"population":321,"stateCapital":false,"nationalCapital":false,"pk":null,"quiz":"europe","code":null,"archived":false,"percentageOfSessions":null}, {"name":"Melaniós","state":"North Aegean","territory":"","country":"Greece","latitude":38.54199778,"longitude":25.84324312,"population":27,"stateCapital":false,"nationalCapital":false,"pk":null,"quiz":"europe","code":null,"archived":false,"percentageOfSessions":null}, {"name":"Melínda","state":"North Aegean","territory":"","country":"Greece","latitude":38.98449865,"longitude":26.31231691,"population":8,"stateCapital":false,"nationalCapital":false,"pk":null,"quiz":"europe","code":null,"archived":false,"percentageOfSessions":null}, {"name":"Merikúnda","state":"North Aegean","territory":"","country":"Greece","latitude":38.27208789,"longitude":25.88815242,"population":13,"stateCapital":false,"nationalCapital":false,"pk":null,"quiz":"europe","code":null,"archived":false,"percentageOfSessions":null}, {"name":"Mésa","state":"North Aegean","territory":"","country":"Greece","latitude":39.18990837,"longitude":26.29960088,"population":21,"stateCapital":false,"nationalCapital":false,"pk":null,"quiz":"europe","code":null,"archived":false,"percentageOfSessions":null}, {"name":"Mésa Dhidhíma","state":"North Aegean","territory":"","country":"Greece","latitude":38.27350895,"longitude":26.0752845,"population":166,"stateCapital":false,"nationalCapital":false,"pk":null,"quiz":"europe","code":null,"archived":false,"percentageOfSessions":null}, {"name":"Mesagrós","state":"North Aegean","territory":"","country":"Greece","latitude":39.03484464,"longitude":26.4429139,"population":618,"stateCapital":false,"nationalCapital":false,"pk":null,"quiz":"europe","code":null,"archived":false,"percentageOfSessions":null}, {"name":"Mesógion","state":"North Aegean","territory":"","country":"Greece","latitude":37.72534662,"longitude":26.82228187,"population":109,"stateCapital":false,"nationalCapital":false,"pk":null,"quiz":"europe","code":null,"archived":false,"percentageOfSessions":null}, {"name":"Mesókambos","state":"North Aegean","territory":"","country":"Greece","latitude":37.71202352,"longitude":26.97293058,"population":109,"stateCapital":false,"nationalCapital":false,"pk":null,"quiz":"europe","code":null,"archived":false,"percentageOfSessions":null}, {"name":"Mesótopos","state":"North Aegean","territory":"","country":"Greece","latitude":39.12860604,"longitude":26.00251635,"population":769,"stateCapital":false,"nationalCapital":false,"pk":null,"quiz":"europe","code":null,"archived":false,"percentageOfSessions":null}, {"name":"Mestá","state":"North Aegean","territory":"","country":"Greece","latitude":38.25778331,"longitude":25.91998922,"population":331,"stateCapital":false,"nationalCapital":false,"pk":null,"quiz":"europe","code":null,"archived":false,"percentageOfSessions":null}, {"name":"Míthimna","state":"North Aegean","territory":"","country":"Greece","latitude":39.36571904,"longitude":26.17323718,"population":1390,"stateCapital":false,"nationalCapital":false,"pk":null,"quiz":"europe","code":null,"archived":false,"percentageOfSessions":null}, {"name":"Milée","state":"North Aegean","territory":"","country":"Greece","latitude":38.99559346,"longitude":26.40893742,"population":10,"stateCapital":false,"nationalCapital":false,"pk":null,"quiz":"europe","code":null,"archived":false,"percentageOfSessions":null}, {"name":"Mileopón","state":"North Aegean","territory":"","country":"Greece","latitude":37.63506703,"longitude":26.24412112,"population":32,"stateCapital":false,"nationalCapital":false,"pk":null,"quiz":"europe","code":null,"archived":false,"percentageOfSessions":null}, {"name":"Miradhéllia","state":"North Aegean","territory":"","country":"Greece","latitude":39.32686117,"longitude":26.18233546,"population":62,"stateCapital":false,"nationalCapital":false,"pk":null,"quiz":"europe","code":null,"archived":false,"percentageOfSessions":null}, {"name":"Mistegná","state":"North Aegean","territory":"","country":"Greece","latitude":39.20954962,"longitude":26.45920361,"population":403,"stateCapital":false,"nationalCapital":false,"pk":null,"quiz":"europe","code":null,"archived":false,"percentageOfSessions":null}, {"name":"Moní Agías Matrónis Halándhron","state":"North Aegean","territory":"","country":"Greece","latitude":38.2765144,"longitude":26.08136542,"population":1,"stateCapital":false,"nationalCapital":false,"pk":null,"quiz":"europe","code":null,"archived":false,"percentageOfSessions":null}, {"name":"Moní Agías Triádhos","state":"North Aegean","territory":"","country":"Greece","latitude":37.7061528,"longitude":26.93708771,"population":31,"stateCapital":false,"nationalCapital":false,"pk":null,"quiz":"europe","code":null,"archived":false,"percentageOfSessions":null}, {"name":"Moní Agíu Ioánnu Theológu","state":"North Aegean","territory":"","country":"Greece","latitude":39.22928202,"longitude":25.93411482,"population":19,"stateCapital":false,"nationalCapital":false,"pk":null,"quiz":"europe","code":null,"archived":false,"percentageOfSessions":null}, {"name":"Moní Agíu Márku","state":"North Aegean","territory":"","country":"Greece","latitude":38.37717107,"longitude":26.06923861,"population":2,"stateCapital":false,"nationalCapital":false,"pk":null,"quiz":"europe","code":null,"archived":false,"percentageOfSessions":null}, {"name":"Moní Agíu Miná","state":"North Aegean","territory":"","country":"Greece","latitude":38.29945073,"longitude":26.1169862,"population":30,"stateCapital":false,"nationalCapital":false,"pk":null,"quiz":"europe","code":null,"archived":false,"percentageOfSessions":null}, {"name":"Moní Agíu Rafaíl","state":"North Aegean","territory":"","country":"Greece","latitude":39.1696126,"longitude":26.47838697,"population":54,"stateCapital":false,"nationalCapital":false,"pk":null,"quiz":"europe","code":null,"archived":false,"percentageOfSessions":null}, {"name":"Moní Agíon Patéron","state":"North Aegean","territory":"","country":"Greece","latitude":38.36936629,"longitude":26.04594854,"population":4,"stateCapital":false,"nationalCapital":false,"pk":null,"quiz":"europe","code":null,"archived":false,"percentageOfSessions":null}, {"name":"Moní Vrondá","state":"North Aegean","territory":"","country":"Greece","latitude":37.77111069,"longitude":26.85315732,"population":16,"stateCapital":false,"nationalCapital":false,"pk":null,"quiz":"europe","code":null,"archived":false,"percentageOfSessions":null}, {"name":"Moní Lefkádhos Evanġelismós","state":"North Aegean","territory":"","country":"Greece","latitude":37.59746935,"longitude":26.26443001,"population":15,"stateCapital":false,"nationalCapital":false,"pk":null,"quiz":"europe","code":null,"archived":false,"percentageOfSessions":null}, {"name":"Moní Megális Panagías","state":"North Aegean","territory":"","country":"Greece","latitude":37.69385461,"longitude":26.84078108,"population":7,"stateCapital":false,"nationalCapital":false,"pk":null,"quiz":"europe","code":null,"archived":false,"percentageOfSessions":null}, {"name":"Moní Mirsinidhíu","state":"North Aegean","territory":"","country":"Greece","latitude":38.42768951,"longitude":26.13779887,"population":2,"stateCapital":false,"nationalCapital":false,"pk":null,"quiz":"europe","code":null,"archived":false,"percentageOfSessions":null}, {"name":"Moní Panagías Mirsiniotíssis Limónos","state":"North Aegean","territory":"","country":"Greece","latitude":39.2480788,"longitude":26.19912815,"population":6,"stateCapital":false,"nationalCapital":false,"pk":null,"quiz":"europe","code":null,"archived":false,"percentageOfSessions":null}, {"name":"Moní Profítu Iliú","state":"North Aegean","territory":"","country":"Greece","latitude":37.77304589,"longitude":26.71633873,"population":73,"stateCapital":false,"nationalCapital":false,"pk":null,"quiz":"europe","code":null,"archived":false,"percentageOfSessions":null}, {"name":"Moní Taksiarhón","state":"North Aegean","territory":"","country":"Greece","latitude":38.24256616,"longitude":26.08954278,"population":3,"stateCapital":false,"nationalCapital":false,"pk":null,"quiz":"europe","code":null,"archived":false,"percentageOfSessions":null}, {"name":"Moní Timíu Stavrú","state":"North Aegean","territory":"","country":"Greece","latitude":37.70619888,"longitude":26.86960837,"population":3,"stateCapital":false,"nationalCapital":false,"pk":null,"quiz":"europe","code":null,"archived":false,"percentageOfSessions":null}, {"name":"Monokámbion","state":"North Aegean","territory":"","country":"Greece","latitude":37.64763204,"longitude":26.26645311,"population":73,"stateCapital":false,"nationalCapital":false,"pk":null,"quiz":"europe","code":null,"archived":false,"percentageOfSessions":null}, {"name":"Monoliá","state":"North Aegean","territory":"","country":"Greece","latitude":38.27891785,"longitude":26.11136265,"population":83,"stateCapital":false,"nationalCapital":false,"pk":null,"quiz":"europe","code":null,"archived":false,"percentageOfSessions":null}, {"name":"Mória","state":"North Aegean","territory":"","country":"Greece","latitude":39.12965815,"longitude":26.51463793,"population":1163,"stateCapital":false,"nationalCapital":false,"pk":null,"quiz":"europe","code":null,"archived":false,"percentageOfSessions":null}, {"name":"Múdhros","state":"North Aegean","territory":"","country":"Greece","latitude":39.87236485,"longitude":25.27006259,"population":952,"stateCapital":false,"nationalCapital":false,"pk":null,"quiz":"europe","code":null,"archived":false,"percentageOfSessions":null}, {"name":"Balí","state":"North Aegean","territory":"","country":"Greece","latitude":37.59110577,"longitude":26.51246154,"population":2,"stateCapital":false,"nationalCapital":false,"pk":null,"quiz":"europe","code":null,"archived":false,"percentageOfSessions":null}, {"name":"Balíni","state":"North Aegean","territory":"","country":"Greece","latitude":39.29046764,"longitude":26.06209481,"population":20,"stateCapital":false,"nationalCapital":false,"pk":null,"quiz":"europe","code":null,"archived":false,"percentageOfSessions":null}, {"name":"Míli","state":"North Aegean","territory":"","country":"Greece","latitude":37.6784994,"longitude":26.85638176,"population":249,"stateCapital":false,"nationalCapital":false,"pk":null,"quiz":"europe","code":null,"archived":false,"percentageOfSessions":null}, {"name":"Mírina","state":"North Aegean","territory":"","country":"Greece","latitude":39.87249684,"longitude":25.06089351,"population":5552,"stateCapital":false,"nationalCapital":false,"pk":null,"quiz":"europe","code":null,"archived":false,"percentageOfSessions":null}, {"name":"Mirmínġion","state":"North Aegean","territory":"","country":"Greece","latitude":38.28205948,"longitude":26.07324389,"population":93,"stateCapital":false,"nationalCapital":false,"pk":null,"quiz":"europe","code":null,"archived":false,"percentageOfSessions":null}, {"name":"Mitilíni","state":"North Aegean","territory":"","country":"Greece","latitude":39.10534273,"longitude":26.55382284,"population":27545,"stateCapital":true,"nationalCapital":false,"pk":null,"quiz":"europe","code":null,"archived":false,"percentageOfSessions":null}, {"name":"Mitilinií","state":"North Aegean","territory":"","country":"Greece","latitude":37.7252034,"longitude":26.90599472,"population":1866,"stateCapital":false,"nationalCapital":false,"pk":null,"quiz":"europe","code":null,"archived":false,"percentageOfSessions":null}, {"name":"Mihós","state":"North Aegean","territory":"","country":"Greece","latitude":39.08251357,"longitude":26.42458565,"population":102,"stateCapital":false,"nationalCapital":false,"pk":null,"quiz":"europe","code":null,"archived":false,"percentageOfSessions":null}, {"name":"Moraitohóri","state":"North Aegean","territory":"","country":"Greece","latitude":37.7434366,"longitude":26.97837629,"population":30,"stateCapital":false,"nationalCapital":false,"pk":null,"quiz":"europe","code":null,"archived":false,"percentageOfSessions":null}, {"name":"Nánuras","state":"North Aegean","territory":"","country":"Greece","latitude":37.59502438,"longitude":26.03333194,"population":3,"stateCapital":false,"nationalCapital":false,"pk":null,"quiz":"europe","code":null,"archived":false,"percentageOfSessions":null}, {"name":"Nápi","state":"North Aegean","territory":"","country":"Greece","latitude":39.26780656,"longitude":26.28437207,"population":252,"stateCapital":false,"nationalCapital":false,"pk":null,"quiz":"europe","code":null,"archived":false,"percentageOfSessions":null}, {"name":"Néa Kútali","state":"North Aegean","territory":"","country":"Greece","latitude":39.89091442,"longitude":25.20271688,"population":463,"stateCapital":false,"nationalCapital":false,"pk":null,"quiz":"europe","code":null,"archived":false,"percentageOfSessions":null}, {"name":"Néa Moní","state":"North Aegean","territory":"","country":"Greece","latitude":38.37190632,"longitude":26.054004,"population":2,"stateCapital":false,"nationalCapital":false,"pk":null,"quiz":"europe","code":null,"archived":false,"percentageOfSessions":null}, {"name":"Néa Póli","state":"North Aegean","territory":"","country":"Greece","latitude":37.69251539,"longitude":26.91879328,"population":76,"stateCapital":false,"nationalCapital":false,"pk":null,"quiz":"europe","code":null,"archived":false,"percentageOfSessions":null}, {"name":"Néa Potamiá","state":"North Aegean","territory":"","country":"Greece","latitude":38.51696172,"longitude":25.94233159,"population":63,"stateCapital":false,"nationalCapital":false,"pk":null,"quiz":"europe","code":null,"archived":false,"percentageOfSessions":null}, {"name":"Née Kidhoníe","state":"North Aegean","territory":"","country":"Greece","latitude":39.22368143,"longitude":26.43815111,"population":485,"stateCapital":false,"nationalCapital":false,"pk":null,"quiz":"europe","code":null,"archived":false,"percentageOfSessions":null}, {"name":"Neápolis","state":"North Aegean","territory":"","country":"Greece","latitude":39.06851556,"longitude":26.58569538,"population":455,"stateCapital":false,"nationalCapital":false,"pk":null,"quiz":"europe","code":null,"archived":false,"percentageOfSessions":null}, {"name":"Nektá","state":"North Aegean","territory":"","country":"Greece","latitude":38.20525203,"longitude":26.07304387,"population":6,"stateCapital":false,"nationalCapital":false,"pk":null,"quiz":"europe","code":null,"archived":false,"percentageOfSessions":null}, {"name":"Nénita","state":"North Aegean","territory":"","country":"Greece","latitude":38.23601631,"longitude":26.0918623,"population":907,"stateCapital":false,"nationalCapital":false,"pk":null,"quiz":"europe","code":null,"archived":false,"percentageOfSessions":null}, {"name":"Nenitúria","state":"North Aegean","territory":"","country":"Greece","latitude":38.56590562,"longitude":25.87682861,"population":53,"stateCapital":false,"nationalCapital":false,"pk":null,"quiz":"europe","code":null,"archived":false,"percentageOfSessions":null}, {"name":"Néo Pedhinó","state":"North Aegean","territory":"","country":"Greece","latitude":39.88954722,"longitude":25.19301652,"population":157,"stateCapital":false,"nationalCapital":false,"pk":null,"quiz":"europe","code":null,"archived":false,"percentageOfSessions":null}, {"name":"Néon Karlovásion","state":"North Aegean","territory":"","country":"Greece","latitude":37.78804201,"longitude":26.70243229,"population":6662,"stateCapital":false,"nationalCapital":false,"pk":null,"quiz":"europe","code":null,"archived":false,"percentageOfSessions":null},