{"cities":[{"name":"Adhámion","state":"Peloponnese","territory":"","country":"Greece","latitude":37.5699845,"longitude":23.07122873,"population":314,"stateCapital":false,"nationalCapital":false,"pk":null,"quiz":"europe","code":null,"archived":false,"percentageOfSessions":null}, {"name":"Adhiákopos","state":"Peloponnese","territory":"","country":"Greece","latitude":36.5555717,"longitude":23.05249858,"population":10,"stateCapital":false,"nationalCapital":false,"pk":null,"quiz":"europe","code":null,"archived":false,"percentageOfSessions":null}, {"name":"Adhrianí","state":"Peloponnese","territory":"","country":"Greece","latitude":36.87097957,"longitude":21.87330946,"population":107,"stateCapital":false,"nationalCapital":false,"pk":null,"quiz":"europe","code":null,"archived":false,"percentageOfSessions":null}, {"name":"Aerodhrómio","state":"Peloponnese","territory":"","country":"Greece","latitude":37.6627974,"longitude":22.69859917,"population":111,"stateCapital":false,"nationalCapital":false,"pk":null,"quiz":"europe","code":null,"archived":false,"percentageOfSessions":null}, {"name":"Aetofoliá","state":"Peloponnese","territory":"","country":"Greece","latitude":37.0863681,"longitude":21.86587542,"population":81,"stateCapital":false,"nationalCapital":false,"pk":null,"quiz":"europe","code":null,"archived":false,"percentageOfSessions":null}, {"name":"Aetohórion","state":"Peloponnese","territory":"","country":"Greece","latitude":37.39224593,"longitude":22.59570746,"population":19,"stateCapital":false,"nationalCapital":false,"pk":null,"quiz":"europe","code":null,"archived":false,"percentageOfSessions":null}, {"name":"Aetorráhi","state":"Peloponnese","territory":"","country":"Greece","latitude":37.66949404,"longitude":21.92311454,"population":104,"stateCapital":false,"nationalCapital":false,"pk":null,"quiz":"europe","code":null,"archived":false,"percentageOfSessions":null}, {"name":"Aetós","state":"Peloponnese","territory":"","country":"Greece","latitude":37.24376786,"longitude":21.83236863,"population":397,"stateCapital":false,"nationalCapital":false,"pk":null,"quiz":"europe","code":null,"archived":false,"percentageOfSessions":null}, {"name":"Afisíon","state":"Peloponnese","territory":"","country":"Greece","latitude":37.08756564,"longitude":22.4478258,"population":624,"stateCapital":false,"nationalCapital":false,"pk":null,"quiz":"europe","code":null,"archived":false,"percentageOfSessions":null}, {"name":"Agalianí","state":"Peloponnese","territory":"","country":"Greece","latitude":37.34723287,"longitude":21.7268025,"population":203,"stateCapital":false,"nationalCapital":false,"pk":null,"quiz":"europe","code":null,"archived":false,"percentageOfSessions":null}, {"name":"Agálo","state":"Peloponnese","territory":"","country":"Greece","latitude":37.58548845,"longitude":21.95418697,"population":21,"stateCapital":false,"nationalCapital":false,"pk":null,"quiz":"europe","code":null,"archived":false,"percentageOfSessions":null}, {"name":"Ageranós","state":"Peloponnese","territory":"","country":"Greece","latitude":36.69370817,"longitude":22.52489762,"population":15,"stateCapital":false,"nationalCapital":false,"pk":null,"quiz":"europe","code":null,"archived":false,"percentageOfSessions":null}, {"name":"Agía Anastasía","state":"Peloponnese","territory":"","country":"Greece","latitude":37.38438047,"longitude":22.73863905,"population":18,"stateCapital":false,"nationalCapital":false,"pk":null,"quiz":"europe","code":null,"archived":false,"percentageOfSessions":null}, {"name":"Agía Ekateríni","state":"Peloponnese","territory":"","country":"Greece","latitude":37.66584339,"longitude":22.70495359,"population":50,"stateCapital":false,"nationalCapital":false,"pk":null,"quiz":"europe","code":null,"archived":false,"percentageOfSessions":null}, {"name":"Agía Ekateríni","state":"Peloponnese","territory":"","country":"Greece","latitude":37.66584339,"longitude":22.70495359,"population":15,"stateCapital":false,"nationalCapital":false,"pk":null,"quiz":"europe","code":null,"archived":false,"percentageOfSessions":null}, {"name":"Agía Iríni","state":"Peloponnese","territory":"","country":"Greece","latitude":37.09527545,"longitude":22.3662773,"population":172,"stateCapital":false,"nationalCapital":false,"pk":null,"quiz":"europe","code":null,"archived":false,"percentageOfSessions":null}, {"name":"Agía Kiriakí","state":"Peloponnese","territory":"","country":"Greece","latitude":36.52715408,"longitude":22.37077001,"population":99,"stateCapital":false,"nationalCapital":false,"pk":null,"quiz":"europe","code":null,"archived":false,"percentageOfSessions":null}, {"name":"Agía Kiriakí","state":"Peloponnese","territory":"","country":"Greece","latitude":36.52715408,"longitude":22.37077001,"population":53,"stateCapital":false,"nationalCapital":false,"pk":null,"quiz":"europe","code":null,"archived":false,"percentageOfSessions":null}, {"name":"Agía Kiriakí","state":"Peloponnese","territory":"","country":"Greece","latitude":37.11743993,"longitude":21.57500931,"population":195,"stateCapital":false,"nationalCapital":false,"pk":null,"quiz":"europe","code":null,"archived":false,"percentageOfSessions":null}, {"name":"Agía Marína","state":"Peloponnese","territory":"","country":"Greece","latitude":37.92856795,"longitude":22.81268782,"population":107,"stateCapital":false,"nationalCapital":false,"pk":null,"quiz":"europe","code":null,"archived":false,"percentageOfSessions":null}, {"name":"Agía Marína","state":"Peloponnese","territory":"","country":"Greece","latitude":36.84850874,"longitude":22.44468294,"population":14,"stateCapital":false,"nationalCapital":false,"pk":null,"quiz":"europe","code":null,"archived":false,"percentageOfSessions":null}, {"name":"Agía Paraskeví","state":"Peloponnese","territory":"","country":"Greece","latitude":37.63291751,"longitude":23.13995076,"population":20,"stateCapital":false,"nationalCapital":false,"pk":null,"quiz":"europe","code":null,"archived":false,"percentageOfSessions":null}, {"name":"Agía Paraskeví","state":"Peloponnese","territory":"","country":"Greece","latitude":37.63291751,"longitude":23.13995076,"population":209,"stateCapital":false,"nationalCapital":false,"pk":null,"quiz":"europe","code":null,"archived":false,"percentageOfSessions":null}, {"name":"Agía Paraskeví","state":"Peloponnese","territory":"","country":"Greece","latitude":37.8788673,"longitude":22.95686528,"population":63,"stateCapital":false,"nationalCapital":false,"pk":null,"quiz":"europe","code":null,"archived":false,"percentageOfSessions":null}, {"name":"Agía Paraskeví","state":"Peloponnese","territory":"","country":"Greece","latitude":36.66323082,"longitude":23.02518132,"population":106,"stateCapital":false,"nationalCapital":false,"pk":null,"quiz":"europe","code":null,"archived":false,"percentageOfSessions":null}, {"name":"Agía Pethaméni","state":"Peloponnese","territory":"","country":"Greece","latitude":37.13524204,"longitude":21.57060945,"population":23,"stateCapital":false,"nationalCapital":false,"pk":null,"quiz":"europe","code":null,"archived":false,"percentageOfSessions":null}, {"name":"Agía Sofía","state":"Peloponnese","territory":"","country":"Greece","latitude":37.42863085,"longitude":22.54509902,"population":77,"stateCapital":false,"nationalCapital":false,"pk":null,"quiz":"europe","code":null,"archived":false,"percentageOfSessions":null}, {"name":"Agía Sofía","state":"Peloponnese","territory":"","country":"Greece","latitude":36.89286046,"longitude":22.24341681,"population":9,"stateCapital":false,"nationalCapital":false,"pk":null,"quiz":"europe","code":null,"archived":false,"percentageOfSessions":null}, {"name":"Agía Sotíra","state":"Peloponnese","territory":"","country":"Greece","latitude":38.05077175,"longitude":23.02305807,"population":258,"stateCapital":false,"nationalCapital":false,"pk":null,"quiz":"europe","code":null,"archived":false,"percentageOfSessions":null}, {"name":"Agía Sotíra","state":"Peloponnese","territory":"","country":"Greece","latitude":36.96925557,"longitude":21.88541076,"population":116,"stateCapital":false,"nationalCapital":false,"pk":null,"quiz":"europe","code":null,"archived":false,"percentageOfSessions":null}, {"name":"Agía Triádha","state":"Peloponnese","territory":"","country":"Greece","latitude":37.63429799,"longitude":22.80477497,"population":1142,"stateCapital":false,"nationalCapital":false,"pk":null,"quiz":"europe","code":null,"archived":false,"percentageOfSessions":null}, {"name":"Agía Triádha","state":"Peloponnese","territory":"","country":"Greece","latitude":36.81145159,"longitude":21.93133183,"population":38,"stateCapital":false,"nationalCapital":false,"pk":null,"quiz":"europe","code":null,"archived":false,"percentageOfSessions":null}, {"name":"Agía Triás","state":"Peloponnese","territory":"","country":"Greece","latitude":37.07038535,"longitude":22.21571319,"population":3,"stateCapital":false,"nationalCapital":false,"pk":null,"quiz":"europe","code":null,"archived":false,"percentageOfSessions":null}, {"name":"Agía Varvára","state":"Peloponnese","territory":"","country":"Greece","latitude":37.28009314,"longitude":22.34553763,"population":43,"stateCapital":false,"nationalCapital":false,"pk":null,"quiz":"europe","code":null,"archived":false,"percentageOfSessions":null}, {"name":"Agía Varvára","state":"Peloponnese","territory":"","country":"Greece","latitude":36.58679938,"longitude":22.39310536,"population":9,"stateCapital":false,"nationalCapital":false,"pk":null,"quiz":"europe","code":null,"archived":false,"percentageOfSessions":null}, {"name":"Agiannákis","state":"Peloponnese","territory":"","country":"Greece","latitude":37.34709344,"longitude":21.69564943,"population":37,"stateCapital":false,"nationalCapital":false,"pk":null,"quiz":"europe","code":null,"archived":false,"percentageOfSessions":null}, {"name":"Agiánnis","state":"Peloponnese","territory":"","country":"Greece","latitude":37.29689093,"longitude":21.81790549,"population":6,"stateCapital":false,"nationalCapital":false,"pk":null,"quiz":"europe","code":null,"archived":false,"percentageOfSessions":null}, {"name":"Ágii Anárgiri","state":"Peloponnese","territory":"","country":"Greece","latitude":37.35160702,"longitude":23.24062845,"population":200,"stateCapital":false,"nationalCapital":false,"pk":null,"quiz":"europe","code":null,"archived":false,"percentageOfSessions":null}, {"name":"Ágii Anárgiri","state":"Peloponnese","territory":"","country":"Greece","latitude":37.02400327,"longitude":22.62106622,"population":333,"stateCapital":false,"nationalCapital":false,"pk":null,"quiz":"europe","code":null,"archived":false,"percentageOfSessions":null}, {"name":"Ágii Anárgiri","state":"Peloponnese","territory":"","country":"Greece","latitude":36.79099842,"longitude":21.89198403,"population":35,"stateCapital":false,"nationalCapital":false,"pk":null,"quiz":"europe","code":null,"archived":false,"percentageOfSessions":null}, {"name":"Ágii Apóstoli","state":"Peloponnese","territory":"","country":"Greece","latitude":36.54722743,"longitude":23.02700842,"population":540,"stateCapital":false,"nationalCapital":false,"pk":null,"quiz":"europe","code":null,"archived":false,"percentageOfSessions":null}, {"name":"Ágii Apóstoli","state":"Peloponnese","territory":"","country":"Greece","latitude":37.06439781,"longitude":21.79851032,"population":15,"stateCapital":false,"nationalCapital":false,"pk":null,"quiz":"europe","code":null,"archived":false,"percentageOfSessions":null}, {"name":"Ágii Asómati","state":"Peloponnese","territory":"","country":"Greece","latitude":37.3299538,"longitude":22.68937801,"population":3,"stateCapital":false,"nationalCapital":false,"pk":null,"quiz":"europe","code":null,"archived":false,"percentageOfSessions":null}, {"name":"Ágii Pándes","state":"Peloponnese","territory":"","country":"Greece","latitude":37.03938062,"longitude":22.13445171,"population":21,"stateCapital":false,"nationalCapital":false,"pk":null,"quiz":"europe","code":null,"archived":false,"percentageOfSessions":null}, {"name":"Ágii Taksiárhe","state":"Peloponnese","territory":"","country":"Greece","latitude":36.83524789,"longitude":22.67950198,"population":147,"stateCapital":false,"nationalCapital":false,"pk":null,"quiz":"europe","code":null,"archived":false,"percentageOfSessions":null}, {"name":"Ágii Theódhori","state":"Peloponnese","territory":"","country":"Greece","latitude":37.92467633,"longitude":23.14020721,"population":4634,"stateCapital":false,"nationalCapital":false,"pk":null,"quiz":"europe","code":null,"archived":false,"percentageOfSessions":null}, {"name":"Ágii Theódhori","state":"Peloponnese","territory":"","country":"Greece","latitude":37.31242854,"longitude":21.95819656,"population":44,"stateCapital":false,"nationalCapital":false,"pk":null,"quiz":"europe","code":null,"archived":false,"percentageOfSessions":null}, {"name":"Agionérion","state":"Peloponnese","territory":"","country":"Greece","latitude":37.63923066,"longitude":21.87519976,"population":64,"stateCapital":false,"nationalCapital":false,"pk":null,"quiz":"europe","code":null,"archived":false,"percentageOfSessions":null}, {"name":"Agionórion","state":"Peloponnese","territory":"","country":"Greece","latitude":37.75153603,"longitude":22.878586,"population":310,"stateCapital":false,"nationalCapital":false,"pk":null,"quiz":"europe","code":null,"archived":false,"percentageOfSessions":null}, {"name":"Agiorgítika","state":"Peloponnese","territory":"","country":"Greece","latitude":37.49421422,"longitude":22.48295191,"population":248,"stateCapital":false,"nationalCapital":false,"pk":null,"quiz":"europe","code":null,"archived":false,"percentageOfSessions":null}, {"name":"Ágios Adhrianós","state":"Peloponnese","territory":"","country":"Greece","latitude":37.5972437,"longitude":22.84366358,"population":1096,"stateCapital":false,"nationalCapital":false,"pk":null,"quiz":"europe","code":null,"archived":false,"percentageOfSessions":null}, {"name":"Ágios Andhréas","state":"Peloponnese","territory":"","country":"Greece","latitude":37.34188556,"longitude":22.76231898,"population":995,"stateCapital":false,"nationalCapital":false,"pk":null,"quiz":"europe","code":null,"archived":false,"percentageOfSessions":null}, {"name":"Ágios Andhréas","state":"Peloponnese","territory":"","country":"Greece","latitude":37.62869597,"longitude":23.08889436,"population":61,"stateCapital":false,"nationalCapital":false,"pk":null,"quiz":"europe","code":null,"archived":false,"percentageOfSessions":null}, {"name":"Ágios Andhréas","state":"Peloponnese","territory":"","country":"Greece","latitude":36.90413385,"longitude":22.70883112,"population":22,"stateCapital":false,"nationalCapital":false,"pk":null,"quiz":"europe","code":null,"archived":false,"percentageOfSessions":null}, {"name":"Ágios Andónios","state":"Peloponnese","territory":"","country":"Greece","latitude":37.55381078,"longitude":22.9460262,"population":35,"stateCapital":false,"nationalCapital":false,"pk":null,"quiz":"europe","code":null,"archived":false,"percentageOfSessions":null}, {"name":"Ágios Athanásios","state":"Peloponnese","territory":"","country":"Greece","latitude":37.64524394,"longitude":22.04396516,"population":11,"stateCapital":false,"nationalCapital":false,"pk":null,"quiz":"europe","code":null,"archived":false,"percentageOfSessions":null}, {"name":"Ágios Athanásios","state":"Peloponnese","territory":"","country":"Greece","latitude":37.34372639,"longitude":21.94875074,"population":34,"stateCapital":false,"nationalCapital":false,"pk":null,"quiz":"europe","code":null,"archived":false,"percentageOfSessions":null}, {"name":"Ágios Dhimítrios","state":"Peloponnese","territory":"","country":"Greece","latitude":37.8942744,"longitude":22.97123619,"population":75,"stateCapital":false,"nationalCapital":false,"pk":null,"quiz":"europe","code":null,"archived":false,"percentageOfSessions":null}, {"name":"Ágios Dhimítrios","state":"Peloponnese","territory":"","country":"Greece","latitude":36.9323412,"longitude":22.81899033,"population":759,"stateCapital":false,"nationalCapital":false,"pk":null,"quiz":"europe","code":null,"archived":false,"percentageOfSessions":null}, {"name":"Ágios Dhimítrios","state":"Peloponnese","territory":"","country":"Greece","latitude":36.9323412,"longitude":22.81899033,"population":182,"stateCapital":false,"nationalCapital":false,"pk":null,"quiz":"europe","code":null,"archived":false,"percentageOfSessions":null}, {"name":"Ágios Dhimítrios","state":"Peloponnese","territory":"","country":"Greece","latitude":36.80883767,"longitude":22.29503115,"population":22,"stateCapital":false,"nationalCapital":false,"pk":null,"quiz":"europe","code":null,"archived":false,"percentageOfSessions":null}, {"name":"Ágios Dhimítrios","state":"Peloponnese","territory":"","country":"Greece","latitude":36.80883767,"longitude":22.29503115,"population":34,"stateCapital":false,"nationalCapital":false,"pk":null,"quiz":"europe","code":null,"archived":false,"percentageOfSessions":null}, {"name":"Ágios Efstrátios","state":"Peloponnese","territory":"","country":"Greece","latitude":36.7498477,"longitude":22.50770774,"population":20,"stateCapital":false,"nationalCapital":false,"pk":null,"quiz":"europe","code":null,"archived":false,"percentageOfSessions":null}, {"name":"Ágios Elisséos","state":"Peloponnese","territory":"","country":"Greece","latitude":36.57075368,"longitude":22.96142396,"population":15,"stateCapital":false,"nationalCapital":false,"pk":null,"quiz":"europe","code":null,"archived":false,"percentageOfSessions":null}, {"name":"Ágios Emilianós","state":"Peloponnese","territory":"","country":"Greece","latitude":37.29326198,"longitude":23.18944474,"population":42,"stateCapital":false,"nationalCapital":false,"pk":null,"quiz":"europe","code":null,"archived":false,"percentageOfSessions":null}, {"name":"Ágios Fanúrios","state":"Peloponnese","territory":"","country":"Greece","latitude":37.04637979,"longitude":22.11400917,"population":61,"stateCapital":false,"nationalCapital":false,"pk":null,"quiz":"europe","code":null,"archived":false,"percentageOfSessions":null}, {"name":"Ágios Flóros","state":"Peloponnese","territory":"","country":"Greece","latitude":37.16694414,"longitude":22.02504485,"population":195,"stateCapital":false,"nationalCapital":false,"pk":null,"quiz":"europe","code":null,"archived":false,"percentageOfSessions":null}, {"name":"Ágios Fokás","state":"Peloponnese","territory":"","country":"Greece","latitude":36.59397143,"longitude":23.05515058,"population":20,"stateCapital":false,"nationalCapital":false,"pk":null,"quiz":"europe","code":null,"archived":false,"percentageOfSessions":null}, {"name":"Ágios Geórgios","state":"Peloponnese","territory":"","country":"Greece","latitude":37.6429643,"longitude":22.57328013,"population":17,"stateCapital":false,"nationalCapital":false,"pk":null,"quiz":"europe","code":null,"archived":false,"percentageOfSessions":null}, {"name":"Ágios Geórgios","state":"Peloponnese","territory":"","country":"Greece","latitude":36.5223875,"longitude":22.38376089,"population":256,"stateCapital":false,"nationalCapital":false,"pk":null,"quiz":"europe","code":null,"archived":false,"percentageOfSessions":null}, {"name":"Ágios Geórgios","state":"Peloponnese","territory":"","country":"Greece","latitude":36.5223875,"longitude":22.38376089,"population":499,"stateCapital":false,"nationalCapital":false,"pk":null,"quiz":"europe","code":null,"archived":false,"percentageOfSessions":null}, {"name":"Ágios Geórgios","state":"Peloponnese","territory":"","country":"Greece","latitude":37.3049574,"longitude":21.85086353,"population":79,"stateCapital":false,"nationalCapital":false,"pk":null,"quiz":"europe","code":null,"archived":false,"percentageOfSessions":null}, {"name":"Ágios Geórgios","state":"Peloponnese","territory":"","country":"Greece","latitude":37.3049574,"longitude":21.85086353,"population":13,"stateCapital":false,"nationalCapital":false,"pk":null,"quiz":"europe","code":null,"archived":false,"percentageOfSessions":null}, {"name":"Ágios Geórgios (T.K.Agíu Georgíu)","state":"Peloponnese","territory":"","country":"Greece","latitude":37.41579365,"longitude":22.58459436,"population":3,"stateCapital":false,"nationalCapital":false,"pk":null,"quiz":"europe","code":null,"archived":false,"percentageOfSessions":null}, {"name":"Ágios Geórgios (T.K.Kítas)","state":"Peloponnese","territory":"","country":"Greece","latitude":36.5223875,"longitude":22.38376089,"population":23,"stateCapital":false,"nationalCapital":false,"pk":null,"quiz":"europe","code":null,"archived":false,"percentageOfSessions":null}, {"name":"Ágios Geórgios (T.K.Mínas)","state":"Peloponnese","territory":"","country":"Greece","latitude":36.5223875,"longitude":22.38376089,"population":4,"stateCapital":false,"nationalCapital":false,"pk":null,"quiz":"europe","code":null,"archived":false,"percentageOfSessions":null}, {"name":"Ágios Harálambos","state":"Peloponnese","territory":"","country":"Greece","latitude":37.92006281,"longitude":23.0306824,"population":246,"stateCapital":false,"nationalCapital":false,"pk":null,"quiz":"europe","code":null,"archived":false,"percentageOfSessions":null}, {"name":"Ágios Hristóforos","state":"Peloponnese","territory":"","country":"Greece","latitude":37.27484541,"longitude":22.83802139,"population":9,"stateCapital":false,"nationalCapital":false,"pk":null,"quiz":"europe","code":null,"archived":false,"percentageOfSessions":null}, {"name":"Ágios Hristóforos","state":"Peloponnese","territory":"","country":"Greece","latitude":36.9612673,"longitude":22.49242714,"population":466,"stateCapital":false,"nationalCapital":false,"pk":null,"quiz":"europe","code":null,"archived":false,"percentageOfSessions":null}, {"name":"Ágios Ioánnis","state":"Peloponnese","territory":"","country":"Greece","latitude":37.3576747,"longitude":22.63319779,"population":71,"stateCapital":false,"nationalCapital":false,"pk":null,"quiz":"europe","code":null,"archived":false,"percentageOfSessions":null}, {"name":"Ágios Ioánnis","state":"Peloponnese","territory":"","country":"Greece","latitude":37.45319989,"longitude":23.10088131,"population":9,"stateCapital":false,"nationalCapital":false,"pk":null,"quiz":"europe","code":null,"archived":false,"percentageOfSessions":null}, {"name":"Ágios Ioánnis","state":"Peloponnese","territory":"","country":"Greece","latitude":37.77366856,"longitude":22.96272755,"population":375,"stateCapital":false,"nationalCapital":false,"pk":null,"quiz":"europe","code":null,"archived":false,"percentageOfSessions":null}, {"name":"Ágios Ioánnis","state":"Peloponnese","territory":"","country":"Greece","latitude":36.83838508,"longitude":22.77723962,"population":316,"stateCapital":false,"nationalCapital":false,"pk":null,"quiz":"europe","code":null,"archived":false,"percentageOfSessions":null}, {"name":"Ágios Ioánnis","state":"Peloponnese","territory":"","country":"Greece","latitude":36.83838508,"longitude":22.77723962,"population":6,"stateCapital":false,"nationalCapital":false,"pk":null,"quiz":"europe","code":null,"archived":false,"percentageOfSessions":null}, {"name":"Ágios Ioánnis","state":"Peloponnese","territory":"","country":"Greece","latitude":36.83838508,"longitude":22.77723962,"population":414,"stateCapital":false,"nationalCapital":false,"pk":null,"quiz":"europe","code":null,"archived":false,"percentageOfSessions":null}, {"name":"Ágios Ioánnis","state":"Peloponnese","territory":"","country":"Greece","latitude":36.83838508,"longitude":22.77723962,"population":633,"stateCapital":false,"nationalCapital":false,"pk":null,"quiz":"europe","code":null,"archived":false,"percentageOfSessions":null}, {"name":"Ágios Ioánnis","state":"Peloponnese","territory":"","country":"Greece","latitude":36.80544888,"longitude":21.92843292,"population":15,"stateCapital":false,"nationalCapital":false,"pk":null,"quiz":"europe","code":null,"archived":false,"percentageOfSessions":null}, {"name":"Ágios Ioánnis Arhéas Iréas","state":"Peloponnese","territory":"","country":"Greece","latitude":37.61082821,"longitude":21.86214943,"population":84,"stateCapital":false,"nationalCapital":false,"pk":null,"quiz":"europe","code":null,"archived":false,"percentageOfSessions":null}, {"name":"Ágios Ioánnis Theológos","state":"Peloponnese","territory":"","country":"Greece","latitude":37.13770014,"longitude":22.44924533,"population":216,"stateCapital":false,"nationalCapital":false,"pk":null,"quiz":"europe","code":null,"archived":false,"percentageOfSessions":null}, {"name":"Ágios Ioánnis Theológos","state":"Peloponnese","territory":"","country":"Greece","latitude":37.09404779,"longitude":22.22948316,"population":6,"stateCapital":false,"nationalCapital":false,"pk":null,"quiz":"europe","code":null,"archived":false,"percentageOfSessions":null}, {"name":"Ágios Isídhoros","state":"Peloponnese","territory":"","country":"Greece","latitude":36.7963095,"longitude":21.91309405,"population":17,"stateCapital":false,"nationalCapital":false,"pk":null,"quiz":"europe","code":null,"archived":false,"percentageOfSessions":null}, {"name":"Ágios Kiprianós","state":"Peloponnese","territory":"","country":"Greece","latitude":36.50016831,"longitude":22.48453948,"population":18,"stateCapital":false,"nationalCapital":false,"pk":null,"quiz":"europe","code":null,"archived":false,"percentageOfSessions":null}, {"name":"Ágios Konstandínos","state":"Peloponnese","territory":"","country":"Greece","latitude":37.52217914,"longitude":22.39283794,"population":718,"stateCapital":false,"nationalCapital":false,"pk":null,"quiz":"europe","code":null,"archived":false,"percentageOfSessions":null}, {"name":"Ágios Konstandínos","state":"Peloponnese","territory":"","country":"Greece","latitude":36.76464708,"longitude":22.56099224,"population":61,"stateCapital":false,"nationalCapital":false,"pk":null,"quiz":"europe","code":null,"archived":false,"percentageOfSessions":null}, {"name":"Ágios Konstandínos","state":"Peloponnese","territory":"","country":"Greece","latitude":36.76464708,"longitude":22.56099224,"population":62,"stateCapital":false,"nationalCapital":false,"pk":null,"quiz":"europe","code":null,"archived":false,"percentageOfSessions":null}, {"name":"Ágios Konstandínos","state":"Peloponnese","territory":"","country":"Greece","latitude":37.15575006,"longitude":22.02575244,"population":105,"stateCapital":false,"nationalCapital":false,"pk":null,"quiz":"europe","code":null,"archived":false,"percentageOfSessions":null}, {"name":"Ágios Konstandínos","state":"Peloponnese","territory":"","country":"Greece","latitude":37.15575006,"longitude":22.02575244,"population":97,"stateCapital":false,"nationalCapital":false,"pk":null,"quiz":"europe","code":null,"archived":false,"percentageOfSessions":null}, {"name":"Ágios Kosmás","state":"Peloponnese","territory":"","country":"Greece","latitude":37.90824385,"longitude":22.96412193,"population":81,"stateCapital":false,"nationalCapital":false,"pk":null,"quiz":"europe","code":null,"archived":false,"percentageOfSessions":null}, {"name":"Ágios Mámas","state":"Peloponnese","territory":"","country":"Greece","latitude":36.62569371,"longitude":22.94741417,"population":37,"stateCapital":false,"nationalCapital":false,"pk":null,"quiz":"europe","code":null,"archived":false,"percentageOfSessions":null}, {"name":"Ágios Nikólaos","state":"Peloponnese","territory":"","country":"Greece","latitude":37.82661204,"longitude":21.84650568,"population":46,"stateCapital":false,"nationalCapital":false,"pk":null,"quiz":"europe","code":null,"archived":false,"percentageOfSessions":null}, {"name":"Ágios Nikólaos","state":"Peloponnese","territory":"","country":"Greece","latitude":37.82661204,"longitude":21.84650568,"population":39,"stateCapital":false,"nationalCapital":false,"pk":null,"quiz":"europe","code":null,"archived":false,"percentageOfSessions":null}, {"name":"Ágios Nikólaos","state":"Peloponnese","territory":"","country":"Greece","latitude":37.7633351,"longitude":22.47766506,"population":7,"stateCapital":false,"nationalCapital":false,"pk":null,"quiz":"europe","code":null,"archived":false,"percentageOfSessions":null}, {"name":"Ágios Nikólaos","state":"Peloponnese","territory":"","country":"Greece","latitude":37.7633351,"longitude":22.47766506,"population":8,"stateCapital":false,"nationalCapital":false,"pk":null,"quiz":"europe","code":null,"archived":false,"percentageOfSessions":null}, {"name":"Ágios Nikólaos","state":"Peloponnese","territory":"","country":"Greece","latitude":36.82811618,"longitude":22.43921422,"population":2,"stateCapital":false,"nationalCapital":false,"pk":null,"quiz":"europe","code":null,"archived":false,"percentageOfSessions":null}, {"name":"Ágios Nikólaos","state":"Peloponnese","territory":"","country":"Greece","latitude":36.82811618,"longitude":22.43921422,"population":207,"stateCapital":false,"nationalCapital":false,"pk":null,"quiz":"europe","code":null,"archived":false,"percentageOfSessions":null}, {"name":"Ágios Nikólaos","state":"Peloponnese","territory":"","country":"Greece","latitude":36.82811618,"longitude":22.43921422,"population":555,"stateCapital":false,"nationalCapital":false,"pk":null,"quiz":"europe","code":null,"archived":false,"percentageOfSessions":null}, {"name":"Ágios Nikólaos","state":"Peloponnese","territory":"","country":"Greece","latitude":36.82811618,"longitude":22.43921422,"population":143,"stateCapital":false,"nationalCapital":false,"pk":null,"quiz":"europe","code":null,"archived":false,"percentageOfSessions":null}, {"name":"Ágios Nikólaos","state":"Peloponnese","territory":"","country":"Greece","latitude":36.82184106,"longitude":22.28001224,"population":316,"stateCapital":false,"nationalCapital":false,"pk":null,"quiz":"europe","code":null,"archived":false,"percentageOfSessions":null}, {"name":"Ágios Nikólaos","state":"Peloponnese","territory":"","country":"Greece","latitude":36.82184106,"longitude":22.28001224,"population":13,"stateCapital":false,"nationalCapital":false,"pk":null,"quiz":"europe","code":null,"archived":false,"percentageOfSessions":null}, {"name":"Ágios Níkon","state":"Peloponnese","territory":"","country":"Greece","latitude":36.74916583,"longitude":22.33451947,"population":78,"stateCapital":false,"nationalCapital":false,"pk":null,"quiz":"europe","code":null,"archived":false,"percentageOfSessions":null}, {"name":"Ágios Pandeleímon","state":"Peloponnese","territory":"","country":"Greece","latitude":37.30698578,"longitude":22.69315171,"population":70,"stateCapital":false,"nationalCapital":false,"pk":null,"quiz":"europe","code":null,"archived":false,"percentageOfSessions":null}, {"name":"Ágios Pétros","state":"Peloponnese","territory":"","country":"Greece","latitude":37.32347951,"longitude":22.54526724,"population":760,"stateCapital":false,"nationalCapital":false,"pk":null,"quiz":"europe","code":null,"archived":false,"percentageOfSessions":null}, {"name":"Ágios Pétros","state":"Peloponnese","territory":"","country":"Greece","latitude":37.76553643,"longitude":23.15851565,"population":20,"stateCapital":false,"nationalCapital":false,"pk":null,"quiz":"europe","code":null,"archived":false,"percentageOfSessions":null}, {"name":"Ágios Pétros","state":"Peloponnese","territory":"","country":"Greece","latitude":37.29360288,"longitude":21.84724355,"population":45,"stateCapital":false,"nationalCapital":false,"pk":null,"quiz":"europe","code":null,"archived":false,"percentageOfSessions":null}, {"name":"Ágios Sóstis","state":"Peloponnese","territory":"","country":"Greece","latitude":37.47512914,"longitude":22.41327646,"population":144,"stateCapital":false,"nationalCapital":false,"pk":null,"quiz":"europe","code":null,"archived":false,"percentageOfSessions":null}, {"name":"Ágios Sóstis","state":"Peloponnese","territory":"","country":"Greece","latitude":37.44157737,"longitude":21.95333837,"population":100,"stateCapital":false,"nationalCapital":false,"pk":null,"quiz":"europe","code":null,"archived":false,"percentageOfSessions":null}, {"name":"Ágios Stéfanos","state":"Peloponnese","territory":"","country":"Greece","latitude":37.4260939,"longitude":22.73170825,"population":3,"stateCapital":false,"nationalCapital":false,"pk":null,"quiz":"europe","code":null,"archived":false,"percentageOfSessions":null}, {"name":"Ágios Stéfanos","state":"Peloponnese","territory":"","country":"Greece","latitude":37.6063967,"longitude":22.61613933,"population":12,"stateCapital":false,"nationalCapital":false,"pk":null,"quiz":"europe","code":null,"archived":false,"percentageOfSessions":null}, {"name":"Ágios Stéfanos","state":"Peloponnese","territory":"","country":"Greece","latitude":36.63837561,"longitude":23.01787169,"population":56,"stateCapital":false,"nationalCapital":false,"pk":null,"quiz":"europe","code":null,"archived":false,"percentageOfSessions":null}, {"name":"Ágios Stéfanos","state":"Peloponnese","territory":"","country":"Greece","latitude":37.04857807,"longitude":21.64020209,"population":27,"stateCapital":false,"nationalCapital":false,"pk":null,"quiz":"europe","code":null,"archived":false,"percentageOfSessions":null}, {"name":"Ágios Vasílios","state":"Peloponnese","territory":"","country":"Greece","latitude":37.18425778,"longitude":22.68779245,"population":80,"stateCapital":false,"nationalCapital":false,"pk":null,"quiz":"europe","code":null,"archived":false,"percentageOfSessions":null}, {"name":"Ágios Vasílios","state":"Peloponnese","territory":"","country":"Greece","latitude":37.18425778,"longitude":22.68779245,"population":179,"stateCapital":false,"nationalCapital":false,"pk":null,"quiz":"europe","code":null,"archived":false,"percentageOfSessions":null}, {"name":"Ágios Vasílios","state":"Peloponnese","territory":"","country":"Greece","latitude":37.79118788,"longitude":22.80066976,"population":1251,"stateCapital":false,"nationalCapital":false,"pk":null,"quiz":"europe","code":null,"archived":false,"percentageOfSessions":null}, {"name":"Ágios Vasílios","state":"Peloponnese","territory":"","country":"Greece","latitude":36.84141753,"longitude":22.27205626,"population":159,"stateCapital":false,"nationalCapital":false,"pk":null,"quiz":"europe","code":null,"archived":false,"percentageOfSessions":null}, {"name":"Ágios Vasílios","state":"Peloponnese","territory":"","country":"Greece","latitude":36.84141753,"longitude":22.27205626,"population":11,"stateCapital":false,"nationalCapital":false,"pk":null,"quiz":"europe","code":null,"archived":false,"percentageOfSessions":null}, {"name":"Ágios Vasílios (T.K.Agíu Vasilíu)","state":"Peloponnese","territory":"","country":"Greece","latitude":36.75376695,"longitude":22.52363653,"population":125,"stateCapital":false,"nationalCapital":false,"pk":null,"quiz":"europe","code":null,"archived":false,"percentageOfSessions":null}, {"name":"Ágios Vasílios (T.K.Neohoríu)","state":"Peloponnese","territory":"","country":"Greece","latitude":36.75376695,"longitude":22.52363653,"population":15,"stateCapital":false,"nationalCapital":false,"pk":null,"quiz":"europe","code":null,"archived":false,"percentageOfSessions":null}, {"name":"Ágios Vlássis","state":"Peloponnese","territory":"","country":"Greece","latitude":37.7904301,"longitude":23.07197787,"population":39,"stateCapital":false,"nationalCapital":false,"pk":null,"quiz":"europe","code":null,"archived":false,"percentageOfSessions":null}, {"name":"Agnándion","state":"Peloponnese","territory":"","country":"Greece","latitude":36.89951786,"longitude":21.87250519,"population":23,"stateCapital":false,"nationalCapital":false,"pk":null,"quiz":"europe","code":null,"archived":false,"percentageOfSessions":null}, {"name":"Agóriani","state":"Peloponnese","territory":"","country":"Greece","latitude":37.20420439,"longitude":22.26776544,"population":159,"stateCapital":false,"nationalCapital":false,"pk":null,"quiz":"europe","code":null,"archived":false,"percentageOfSessions":null}, {"name":"Agriakóna","state":"Peloponnese","territory":"","country":"Greece","latitude":37.30926028,"longitude":22.27936811,"population":39,"stateCapital":false,"nationalCapital":false,"pk":null,"quiz":"europe","code":null,"archived":false,"percentageOfSessions":null}, {"name":"Agriáni","state":"Peloponnese","territory":"","country":"Greece","latitude":37.12594232,"longitude":22.58614073,"population":101,"stateCapital":false,"nationalCapital":false,"pk":null,"quiz":"europe","code":null,"archived":false,"percentageOfSessions":null}, {"name":"Agridhákion","state":"Peloponnese","territory":"","country":"Greece","latitude":37.72393643,"longitude":22.14396429,"population":1,"stateCapital":false,"nationalCapital":false,"pk":null,"quiz":"europe","code":null,"archived":false,"percentageOfSessions":null}, {"name":"Agrídhion","state":"Peloponnese","territory":"","country":"Greece","latitude":37.76365842,"longitude":22.14811333,"population":48,"stateCapital":false,"nationalCapital":false,"pk":null,"quiz":"europe","code":null,"archived":false,"percentageOfSessions":null}, {"name":"Agriliá","state":"Peloponnese","territory":"","country":"Greece","latitude":37.09437023,"longitude":21.96564497,"population":133,"stateCapital":false,"nationalCapital":false,"pk":null,"quiz":"europe","code":null,"archived":false,"percentageOfSessions":null}, {"name":"Agriliés","state":"Peloponnese","territory":"","country":"Greece","latitude":37.21280771,"longitude":22.06894082,"population":18,"stateCapital":false,"nationalCapital":false,"pk":null,"quiz":"europe","code":null,"archived":false,"percentageOfSessions":null}, {"name":"Agrilítsa","state":"Peloponnese","territory":"","country":"Greece","latitude":37.62051801,"longitude":22.59615797,"population":158,"stateCapital":false,"nationalCapital":false,"pk":null,"quiz":"europe","code":null,"archived":false,"percentageOfSessions":null}, {"name":"Ágrilos","state":"Peloponnese","territory":"","country":"Greece","latitude":37.13525575,"longitude":22.07290574,"population":140,"stateCapital":false,"nationalCapital":false,"pk":null,"quiz":"europe","code":null,"archived":false,"percentageOfSessions":null}, {"name":"Ágrilos","state":"Peloponnese","territory":"","country":"Greece","latitude":37.13525575,"longitude":22.07290574,"population":126,"stateCapital":false,"nationalCapital":false,"pk":null,"quiz":"europe","code":null,"archived":false,"percentageOfSessions":null}, {"name":"Agrilóvunon","state":"Peloponnese","territory":"","country":"Greece","latitude":37.296453,"longitude":21.94135837,"population":91,"stateCapital":false,"nationalCapital":false,"pk":null,"quiz":"europe","code":null,"archived":false,"percentageOfSessions":null}, {"name":"Agriómata","state":"Peloponnese","territory":"","country":"Greece","latitude":37.02374371,"longitude":22.17832201,"population":106,"stateCapital":false,"nationalCapital":false,"pk":null,"quiz":"europe","code":null,"archived":false,"percentageOfSessions":null}, {"name":"Ahladhítsa","state":"Peloponnese","territory":"","country":"Greece","latitude":37.4020544,"longitude":23.28072766,"population":148,"stateCapital":false,"nationalCapital":false,"pk":null,"quiz":"europe","code":null,"archived":false,"percentageOfSessions":null}, {"name":"Ahladhohórion","state":"Peloponnese","territory":"","country":"Greece","latitude":36.9248881,"longitude":21.90094044,"population":135,"stateCapital":false,"nationalCapital":false,"pk":null,"quiz":"europe","code":null,"archived":false,"percentageOfSessions":null}, {"name":"Ahladhókambos","state":"Peloponnese","territory":"","country":"Greece","latitude":37.52264812,"longitude":22.58030861,"population":499,"stateCapital":false,"nationalCapital":false,"pk":null,"quiz":"europe","code":null,"archived":false,"percentageOfSessions":null}, {"name":"Ahúri","state":"Peloponnese","territory":"","country":"Greece","latitude":37.24715824,"longitude":22.32657103,"population":2,"stateCapital":false,"nationalCapital":false,"pk":null,"quiz":"europe","code":null,"archived":false,"percentageOfSessions":null}, {"name":"Ái Giánna","state":"Peloponnese","territory":"","country":"Greece","latitude":36.87604091,"longitude":22.2456709,"population":25,"stateCapital":false,"nationalCapital":false,"pk":null,"quiz":"europe","code":null,"archived":false,"percentageOfSessions":null}, {"name":"Aidhónia","state":"Peloponnese","territory":"","country":"Greece","latitude":37.83946311,"longitude":22.57600097,"population":200,"stateCapital":false,"nationalCapital":false,"pk":null,"quiz":"europe","code":null,"archived":false,"percentageOfSessions":null}, {"name":"Ákova","state":"Peloponnese","territory":"","country":"Greece","latitude":37.6422135,"longitude":22.68527143,"population":167,"stateCapital":false,"nationalCapital":false,"pk":null,"quiz":"europe","code":null,"archived":false,"percentageOfSessions":null}, {"name":"Akovítika","state":"Peloponnese","territory":"","country":"Greece","latitude":37.03747014,"longitude":22.0751177,"population":594,"stateCapital":false,"nationalCapital":false,"pk":null,"quiz":"europe","code":null,"archived":false,"percentageOfSessions":null}, {"name":"Ákovos","state":"Peloponnese","territory":"","country":"Greece","latitude":37.19105364,"longitude":22.16125652,"population":225,"stateCapital":false,"nationalCapital":false,"pk":null,"quiz":"europe","code":null,"archived":false,"percentageOfSessions":null}, {"name":"Ákra","state":"Peloponnese","territory":"","country":"Greece","latitude":37.47297651,"longitude":22.42885041,"population":4,"stateCapital":false,"nationalCapital":false,"pk":null,"quiz":"europe","code":null,"archived":false,"percentageOfSessions":null}, {"name":"Akritohórion","state":"Peloponnese","territory":"","country":"Greece","latitude":36.79484634,"longitude":21.84136873,"population":192,"stateCapital":false,"nationalCapital":false,"pk":null,"quiz":"europe","code":null,"archived":false,"percentageOfSessions":null}, {"name":"Akrogiálio","state":"Peloponnese","territory":"","country":"Greece","latitude":36.47296025,"longitude":22.4895678,"population":12,"stateCapital":false,"nationalCapital":false,"pk":null,"quiz":"europe","code":null,"archived":false,"percentageOfSessions":null}, {"name":"Akrogiálion","state":"Peloponnese","territory":"","country":"Greece","latitude":36.95316212,"longitude":22.14240716,"population":137,"stateCapital":false,"nationalCapital":false,"pk":null,"quiz":"europe","code":null,"archived":false,"percentageOfSessions":null}, {"name":"Aktí Ídhras","state":"Peloponnese","territory":"","country":"Greece","latitude":37.41113493,"longitude":23.33216422,"population":7,"stateCapital":false,"nationalCapital":false,"pk":null,"quiz":"europe","code":null,"archived":false,"percentageOfSessions":null}, {"name":"Alagonía","state":"Peloponnese","territory":"","country":"Greece","latitude":37.10510632,"longitude":22.24398332,"population":144,"stateCapital":false,"nationalCapital":false,"pk":null,"quiz":"europe","code":null,"archived":false,"percentageOfSessions":null}, {"name":"Alamánnos","state":"Peloponnese","territory":"","country":"Greece","latitude":37.84263941,"longitude":22.9086005,"population":170,"stateCapital":false,"nationalCapital":false,"pk":null,"quiz":"europe","code":null,"archived":false,"percentageOfSessions":null}, {"name":"Aléa","state":"Peloponnese","territory":"","country":"Greece","latitude":37.45225326,"longitude":22.4198619,"population":193,"stateCapital":false,"nationalCapital":false,"pk":null,"quiz":"europe","code":null,"archived":false,"percentageOfSessions":null}, {"name":"Aléa","state":"Peloponnese","territory":"","country":"Greece","latitude":37.74929591,"longitude":22.42489021,"population":103,"stateCapital":false,"nationalCapital":false,"pk":null,"quiz":"europe","code":null,"archived":false,"percentageOfSessions":null}, {"name":"Alepohórion","state":"Peloponnese","territory":"","country":"Greece","latitude":37.35310475,"longitude":22.40624607,"population":119,"stateCapital":false,"nationalCapital":false,"pk":null,"quiz":"europe","code":null,"archived":false,"percentageOfSessions":null}, {"name":"Alepohórion","state":"Peloponnese","territory":"","country":"Greece","latitude":36.95125104,"longitude":22.76344766,"population":114,"stateCapital":false,"nationalCapital":false,"pk":null,"quiz":"europe","code":null,"archived":false,"percentageOfSessions":null}, {"name":"Alevrú","state":"Peloponnese","territory":"","country":"Greece","latitude":37.18046369,"longitude":22.28885952,"population":89,"stateCapital":false,"nationalCapital":false,"pk":null,"quiz":"europe","code":null,"archived":false,"percentageOfSessions":null}, {"name":"Álika","state":"Peloponnese","territory":"","country":"Greece","latitude":36.46859772,"longitude":22.42848871,"population":80,"stateCapital":false,"nationalCapital":false,"pk":null,"quiz":"europe","code":null,"archived":false,"percentageOfSessions":null}, {"name":"Alimákion","state":"Peloponnese","territory":"","country":"Greece","latitude":37.26528556,"longitude":21.75996861,"population":7,"stateCapital":false,"nationalCapital":false,"pk":null,"quiz":"europe","code":null,"archived":false,"percentageOfSessions":null}, {"name":"Alimonéika","state":"Peloponnese","territory":"","country":"Greece","latitude":36.97646447,"longitude":22.16119048,"population":15,"stateCapital":false,"nationalCapital":false,"pk":null,"quiz":"europe","code":null,"archived":false,"percentageOfSessions":null}, {"name":"Alípa","state":"Peloponnese","territory":"","country":"Greece","latitude":36.56547213,"longitude":22.47520076,"population":43,"stateCapital":false,"nationalCapital":false,"pk":null,"quiz":"europe","code":null,"archived":false,"percentageOfSessions":null}, {"name":"Alkióna","state":"Peloponnese","territory":"","country":"Greece","latitude":38.06943063,"longitude":22.97791308,"population":10,"stateCapital":false,"nationalCapital":false,"pk":null,"quiz":"europe","code":null,"archived":false,"percentageOfSessions":null}, {"name":"Allagí","state":"Peloponnese","territory":"","country":"Greece","latitude":37.23881014,"longitude":22.01105191,"population":98,"stateCapital":false,"nationalCapital":false,"pk":null,"quiz":"europe","code":null,"archived":false,"percentageOfSessions":null}, {"name":"Almirós","state":"Peloponnese","territory":"","country":"Greece","latitude":37.56552764,"longitude":22.71754413,"population":11,"stateCapital":false,"nationalCapital":false,"pk":null,"quiz":"europe","code":null,"archived":false,"percentageOfSessions":null}, {"name":"Alónia","state":"Peloponnese","territory":"","country":"Greece","latitude":37.12764767,"longitude":22.00735575,"population":161,"stateCapital":false,"nationalCapital":false,"pk":null,"quiz":"europe","code":null,"archived":false,"percentageOfSessions":null}, {"name":"Alonístena","state":"Peloponnese","territory":"","country":"Greece","latitude":37.62293014,"longitude":22.21998126,"population":124,"stateCapital":false,"nationalCapital":false,"pk":null,"quiz":"europe","code":null,"archived":false,"percentageOfSessions":null}, {"name":"Altomirá","state":"Peloponnese","territory":"","country":"Greece","latitude":36.96814117,"longitude":22.22952971,"population":56,"stateCapital":false,"nationalCapital":false,"pk":null,"quiz":"europe","code":null,"archived":false,"percentageOfSessions":null}, {"name":"Amarianós","state":"Peloponnese","territory":"","country":"Greece","latitude":37.64135411,"longitude":22.88075009,"population":92,"stateCapital":false,"nationalCapital":false,"pk":null,"quiz":"europe","code":null,"archived":false,"percentageOfSessions":null}, {"name":"Ambelákion","state":"Peloponnese","territory":"","country":"Greece","latitude":37.3824564,"longitude":22.2903922,"population":35,"stateCapital":false,"nationalCapital":false,"pk":null,"quiz":"europe","code":null,"archived":false,"percentageOfSessions":null}, {"name":"Ambelióna","state":"Peloponnese","territory":"","country":"Greece","latitude":37.43309563,"longitude":21.9468076,"population":110,"stateCapital":false,"nationalCapital":false,"pk":null,"quiz":"europe","code":null,"archived":false,"percentageOfSessions":null}, {"name":"Ambelófiton","state":"Peloponnese","territory":"","country":"Greece","latitude":37.05144319,"longitude":21.69297623,"population":263,"stateCapital":false,"nationalCapital":false,"pk":null,"quiz":"europe","code":null,"archived":false,"percentageOfSessions":null}, {"name":"Ambelókipi","state":"Peloponnese","territory":"","country":"Greece","latitude":36.90349031,"longitude":21.82790519,"population":35,"stateCapital":false,"nationalCapital":false,"pk":null,"quiz":"europe","code":null,"archived":false,"percentageOfSessions":null}, {"name":"Ambelórahi","state":"Peloponnese","territory":"","country":"Greece","latitude":37.10515803,"longitude":21.97429227,"population":23,"stateCapital":false,"nationalCapital":false,"pk":null,"quiz":"europe","code":null,"archived":false,"percentageOfSessions":null}, {"name":"Amfithéa","state":"Peloponnese","territory":"","country":"Greece","latitude":38.05445268,"longitude":22.53432743,"population":28,"stateCapital":false,"nationalCapital":false,"pk":null,"quiz":"europe","code":null,"archived":false,"percentageOfSessions":null}, {"name":"Amfithéa","state":"Peloponnese","territory":"","country":"Greece","latitude":37.08853138,"longitude":21.96572634,"population":380,"stateCapital":false,"nationalCapital":false,"pk":null,"quiz":"europe","code":null,"archived":false,"percentageOfSessions":null}, {"name":"Amfithéa","state":"Peloponnese","territory":"","country":"Greece","latitude":37.08853138,"longitude":21.96572634,"population":7,"stateCapital":false,"nationalCapital":false,"pk":null,"quiz":"europe","code":null,"archived":false,"percentageOfSessions":null}, {"name":"Amigdhaléa","state":"Peloponnese","territory":"","country":"Greece","latitude":37.07558522,"longitude":22.896159,"population":67,"stateCapital":false,"nationalCapital":false,"pk":null,"quiz":"europe","code":null,"archived":false,"percentageOfSessions":null}, {"name":"Amigdhaléa","state":"Peloponnese","territory":"","country":"Greece","latitude":37.84569762,"longitude":22.31580817,"population":13,"stateCapital":false,"nationalCapital":false,"pk":null,"quiz":"europe","code":null,"archived":false,"percentageOfSessions":null}, {"name":"Amigdhalítsa","state":"Peloponnese","territory":"","country":"Greece","latitude":37.67822125,"longitude":22.83472506,"population":160,"stateCapital":false,"nationalCapital":false,"pk":null,"quiz":"europe","code":null,"archived":false,"percentageOfSessions":null}, {"name":"Amíkle","state":"Peloponnese","territory":"","country":"Greece","latitude":37.02421571,"longitude":22.43443676,"population":701,"stateCapital":false,"nationalCapital":false,"pk":null,"quiz":"europe","code":null,"archived":false,"percentageOfSessions":null}, {"name":"Ammólaka","state":"Peloponnese","territory":"","country":"Greece","latitude":36.97510316,"longitude":21.90154497,"population":4,"stateCapital":false,"nationalCapital":false,"pk":null,"quiz":"europe","code":null,"archived":false,"percentageOfSessions":null}, {"name":"Ámmos","state":"Peloponnese","territory":"","country":"Greece","latitude":37.10423899,"longitude":21.9994296,"population":183,"stateCapital":false,"nationalCapital":false,"pk":null,"quiz":"europe","code":null,"archived":false,"percentageOfSessions":null}, {"name":"Amuláki","state":"Peloponnese","territory":"","country":"Greece","latitude":36.80498653,"longitude":21.78257296,"population":13,"stateCapital":false,"nationalCapital":false,"pk":null,"quiz":"europe","code":null,"archived":false,"percentageOfSessions":null}, {"name":"Análipsis","state":"Peloponnese","territory":"","country":"Greece","latitude":37.01777533,"longitude":21.96761387,"population":412,"stateCapital":false,"nationalCapital":false,"pk":null,"quiz":"europe","code":null,"archived":false,"percentageOfSessions":null}, {"name":"Anastasopuléika","state":"Peloponnese","territory":"","country":"Greece","latitude":37.65103606,"longitude":23.08611284,"population":2,"stateCapital":false,"nationalCapital":false,"pk":null,"quiz":"europe","code":null,"archived":false,"percentageOfSessions":null}, {"name":"Anatolikí Milítsa","state":"Peloponnese","territory":"","country":"Greece","latitude":36.86717774,"longitude":21.84414763,"population":109,"stateCapital":false,"nationalCapital":false,"pk":null,"quiz":"europe","code":null,"archived":false,"percentageOfSessions":null}, {"name":"Anatolikón","state":"Peloponnese","territory":"","country":"Greece","latitude":36.95215289,"longitude":22.25389763,"population":69,"stateCapital":false,"nationalCapital":false,"pk":null,"quiz":"europe","code":null,"archived":false,"percentageOfSessions":null}, {"name":"Anavrití","state":"Peloponnese","territory":"","country":"Greece","latitude":37.02812215,"longitude":22.37110503,"population":47,"stateCapital":false,"nationalCapital":false,"pk":null,"quiz":"europe","code":null,"archived":false,"percentageOfSessions":null}, {"name":"Anavritón","state":"Peloponnese","territory":"","country":"Greece","latitude":37.33741065,"longitude":22.23382577,"population":52,"stateCapital":false,"nationalCapital":false,"pk":null,"quiz":"europe","code":null,"archived":false,"percentageOfSessions":null}, {"name":"Andhanía","state":"Peloponnese","territory":"","country":"Greece","latitude":37.26478429,"longitude":21.9831112,"population":114,"stateCapital":false,"nationalCapital":false,"pk":null,"quiz":"europe","code":null,"archived":false,"percentageOfSessions":null}, {"name":"Andhrítsa","state":"Peloponnese","territory":"","country":"Greece","latitude":37.46781215,"longitude":22.60720451,"population":38,"stateCapital":false,"nationalCapital":false,"pk":null,"quiz":"europe","code":null,"archived":false,"percentageOfSessions":null}, {"name":"Andhrúsa","state":"Peloponnese","territory":"","country":"Greece","latitude":37.10723429,"longitude":21.94178381,"population":540,"stateCapital":false,"nationalCapital":false,"pk":null,"quiz":"europe","code":null,"archived":false,"percentageOfSessions":null}, {"name":"Andikálamos","state":"Peloponnese","territory":"","country":"Greece","latitude":37.06657587,"longitude":22.06244264,"population":515,"stateCapital":false,"nationalCapital":false,"pk":null,"quiz":"europe","code":null,"archived":false,"percentageOfSessions":null}, {"name":"Anemodhúrion","state":"Peloponnese","territory":"","country":"Greece","latitude":37.35816668,"longitude":22.21541531,"population":80,"stateCapital":false,"nationalCapital":false,"pk":null,"quiz":"europe","code":null,"archived":false,"percentageOfSessions":null}, {"name":"Anemómilos","state":"Peloponnese","territory":"","country":"Greece","latitude":37.1325513,"longitude":22.00488553,"population":107,"stateCapital":false,"nationalCapital":false,"pk":null,"quiz":"europe","code":null,"archived":false,"percentageOfSessions":null}, {"name":"Anemómilos","state":"Peloponnese","territory":"","country":"Greece","latitude":37.1325513,"longitude":22.00488553,"population":24,"stateCapital":false,"nationalCapital":false,"pk":null,"quiz":"europe","code":null,"archived":false,"percentageOfSessions":null}, {"name":"Anġelókastron","state":"Peloponnese","territory":"","country":"Greece","latitude":37.74252385,"longitude":23.00298165,"population":373,"stateCapital":false,"nationalCapital":false,"pk":null,"quiz":"europe","code":null,"archived":false,"percentageOfSessions":null}, {"name":"Anġelóna","state":"Peloponnese","territory":"","country":"Greece","latitude":36.74880974,"longitude":22.96732885,"population":454,"stateCapital":false,"nationalCapital":false,"pk":null,"quiz":"europe","code":null,"archived":false,"percentageOfSessions":null}, {"name":"Anġiadhákion","state":"Peloponnese","territory":"","country":"Greece","latitude":36.56560837,"longitude":22.39990926,"population":8,"stateCapital":false,"nationalCapital":false,"pk":null,"quiz":"europe","code":null,"archived":false,"percentageOfSessions":null}, {"name":"Ánidhron","state":"Peloponnese","territory":"","country":"Greece","latitude":37.19060046,"longitude":21.79609027,"population":2,"stateCapital":false,"nationalCapital":false,"pk":null,"quiz":"europe","code":null,"archived":false,"percentageOfSessions":null}, {"name":"Anífion","state":"Peloponnese","territory":"","country":"Greece","latitude":37.65560518,"longitude":22.78835941,"population":751,"stateCapital":false,"nationalCapital":false,"pk":null,"quiz":"europe","code":null,"archived":false,"percentageOfSessions":null}, {"name":"Áno Almirí","state":"Peloponnese","territory":"","country":"Greece","latitude":37.83296077,"longitude":23.01204064,"population":31,"stateCapital":false,"nationalCapital":false,"pk":null,"quiz":"europe","code":null,"archived":false,"percentageOfSessions":null}, {"name":"Áno Ámfia","state":"Peloponnese","territory":"","country":"Greece","latitude":37.10638125,"longitude":22.06880777,"population":313,"stateCapital":false,"nationalCapital":false,"pk":null,"quiz":"europe","code":null,"archived":false,"percentageOfSessions":null}, {"name":"Áno Arfará","state":"Peloponnese","territory":"","country":"Greece","latitude":37.16997082,"longitude":22.12443116,"population":25,"stateCapital":false,"nationalCapital":false,"pk":null,"quiz":"europe","code":null,"archived":false,"percentageOfSessions":null}, {"name":"Áno Bularií","state":"Peloponnese","territory":"","country":"Greece","latitude":36.48931967,"longitude":22.4132404,"population":21,"stateCapital":false,"nationalCapital":false,"pk":null,"quiz":"europe","code":null,"archived":false,"percentageOfSessions":null}, {"name":"Áno Dholí","state":"Peloponnese","territory":"","country":"Greece","latitude":36.93546874,"longitude":22.17468606,"population":74,"stateCapital":false,"nationalCapital":false,"pk":null,"quiz":"europe","code":null,"archived":false,"percentageOfSessions":null}, {"name":"Áno Dholianá","state":"Peloponnese","territory":"","country":"Greece","latitude":37.38411695,"longitude":22.49650112,"population":93,"stateCapital":false,"nationalCapital":false,"pk":null,"quiz":"europe","code":null,"archived":false,"percentageOfSessions":null}, {"name":"Áno Dhórion","state":"Peloponnese","territory":"","country":"Greece","latitude":37.33495422,"longitude":21.84706185,"population":159,"stateCapital":false,"nationalCapital":false,"pk":null,"quiz":"europe","code":null,"archived":false,"percentageOfSessions":null}, {"name":"Áno Egialós","state":"Peloponnese","territory":"","country":"Greece","latitude":38.11349544,"longitude":22.38979068,"population":132,"stateCapital":false,"nationalCapital":false,"pk":null,"quiz":"europe","code":null,"archived":false,"percentageOfSessions":null}, {"name":"Ano Gardhenítsa","state":"Peloponnese","territory":"","country":"Greece","latitude":36.53011895,"longitude":22.40104764,"population":34,"stateCapital":false,"nationalCapital":false,"pk":null,"quiz":"europe","code":null,"archived":false,"percentageOfSessions":null}, {"name":"Áno Giannéi","state":"Peloponnese","territory":"","country":"Greece","latitude":37.22549359,"longitude":22.19734784,"population":35,"stateCapital":false,"nationalCapital":false,"pk":null,"quiz":"europe","code":null,"archived":false,"percentageOfSessions":null}, {"name":"Áno Glikóvrisi","state":"Peloponnese","territory":"","country":"Greece","latitude":36.82852333,"longitude":22.80036457,"population":19,"stateCapital":false,"nationalCapital":false,"pk":null,"quiz":"europe","code":null,"archived":false,"percentageOfSessions":null}, {"name":"Áno Kalívia","state":"Peloponnese","territory":"","country":"Greece","latitude":37.7715577,"longitude":22.07672368,"population":2,"stateCapital":false,"nationalCapital":false,"pk":null,"quiz":"europe","code":null,"archived":false,"percentageOfSessions":null}, {"name":"Áno Kalívia","state":"Peloponnese","territory":"","country":"Greece","latitude":37.7715577,"longitude":22.07672368,"population":2,"stateCapital":false,"nationalCapital":false,"pk":null,"quiz":"europe","code":null,"archived":false,"percentageOfSessions":null}, {"name":"Áno Kalón Nerón","state":"Peloponnese","territory":"","country":"Greece","latitude":37.30786053,"longitude":21.70932546,"population":49,"stateCapital":false,"nationalCapital":false,"pk":null,"quiz":"europe","code":null,"archived":false,"percentageOfSessions":null}, {"name":"Áno Karié","state":"Peloponnese","territory":"","country":"Greece","latitude":37.43563494,"longitude":22.001845,"population":32,"stateCapital":false,"nationalCapital":false,"pk":null,"quiz":"europe","code":null,"archived":false,"percentageOfSessions":null}, {"name":"Áno Karnezéika","state":"Peloponnese","territory":"","country":"Greece","latitude":37.50442757,"longitude":23.05960333,"population":26,"stateCapital":false,"nationalCapital":false,"pk":null,"quiz":"europe","code":null,"archived":false,"percentageOfSessions":null}, {"name":"Áno Kastanéa","state":"Peloponnese","territory":"","country":"Greece","latitude":36.53848722,"longitude":23.1015137,"population":98,"stateCapital":false,"nationalCapital":false,"pk":null,"quiz":"europe","code":null,"archived":false,"percentageOfSessions":null}, {"name":"Áno Lutrón","state":"Peloponnese","territory":"","country":"Greece","latitude":38.09252192,"longitude":22.53952945,"population":47,"stateCapital":false,"nationalCapital":false,"pk":null,"quiz":"europe","code":null,"archived":false,"percentageOfSessions":null}, {"name":"Áno Mélpia","state":"Peloponnese","territory":"","country":"Greece","latitude":37.34811453,"longitude":21.94340111,"population":63,"stateCapital":false,"nationalCapital":false,"pk":null,"quiz":"europe","code":null,"archived":false,"percentageOfSessions":null}, {"name":"Áno Pitsá","state":"Peloponnese","territory":"","country":"Greece","latitude":38.0820514,"longitude":22.47978628,"population":11,"stateCapital":false,"nationalCapital":false,"pk":null,"quiz":"europe","code":null,"archived":false,"percentageOfSessions":null}, {"name":"Áno Rínġlia","state":"Peloponnese","territory":"","country":"Greece","latitude":36.82372544,"longitude":22.3042401,"population":32,"stateCapital":false,"nationalCapital":false,"pk":null,"quiz":"europe","code":null,"archived":false,"percentageOfSessions":null}, {"name":"Áno Tarsós","state":"Peloponnese","territory":"","country":"Greece","latitude":37.99409867,"longitude":22.35962941,"population":16,"stateCapital":false,"nationalCapital":false,"pk":null,"quiz":"europe","code":null,"archived":false,"percentageOfSessions":null}, {"name":"Áno Tríkala","state":"Peloponnese","territory":"","country":"Greece","latitude":37.98539017,"longitude":22.46387129,"population":102,"stateCapital":false,"nationalCapital":false,"pk":null,"quiz":"europe","code":null,"archived":false,"percentageOfSessions":null}, {"name":"Áno Vérga","state":"Peloponnese","territory":"","country":"Greece","latitude":36.9970281,"longitude":22.17917473,"population":16,"stateCapital":false,"nationalCapital":false,"pk":null,"quiz":"europe","code":null,"archived":false,"percentageOfSessions":null}, {"name":"Áno Vromóvrisi","state":"Peloponnese","territory":"","country":"Greece","latitude":37.22376988,"longitude":22.08936959,"population":24,"stateCapital":false,"nationalCapital":false,"pk":null,"quiz":"europe","code":null,"archived":false,"percentageOfSessions":null}, {"name":"Áno Vútena","state":"Peloponnese","territory":"","country":"Greece","latitude":37.13705537,"longitude":21.77004684,"population":49,"stateCapital":false,"nationalCapital":false,"pk":null,"quiz":"europe","code":null,"archived":false,"percentageOfSessions":null}, {"name":"Anógia","state":"Peloponnese","territory":"","country":"Greece","latitude":36.98836575,"longitude":22.43281833,"population":464,"stateCapital":false,"nationalCapital":false,"pk":null,"quiz":"europe","code":null,"archived":false,"percentageOfSessions":null}, {"name":"Ánthia","state":"Peloponnese","territory":"","country":"Greece","latitude":37.10717798,"longitude":22.04267093,"population":248,"stateCapital":false,"nationalCapital":false,"pk":null,"quiz":"europe","code":null,"archived":false,"percentageOfSessions":null}, {"name":"Anthohórion","state":"Peloponnese","territory":"","country":"Greece","latitude":37.37446878,"longitude":22.12720134,"population":44,"stateCapital":false,"nationalCapital":false,"pk":null,"quiz":"europe","code":null,"archived":false,"percentageOfSessions":null}, {"name":"Anthohórion","state":"Peloponnese","territory":"","country":"Greece","latitude":36.94845707,"longitude":22.45871711,"population":39,"stateCapital":false,"nationalCapital":false,"pk":null,"quiz":"europe","code":null,"archived":false,"percentageOfSessions":null}, {"name":"Anthúsa","state":"Peloponnese","territory":"","country":"Greece","latitude":37.20535828,"longitude":21.96463146,"population":135,"stateCapital":false,"nationalCapital":false,"pk":null,"quiz":"europe","code":null,"archived":false,"percentageOfSessions":null}, {"name":"Apidhéa","state":"Peloponnese","territory":"","country":"Greece","latitude":36.87877004,"longitude":22.79601191,"population":502,"stateCapital":false,"nationalCapital":false,"pk":null,"quiz":"europe","code":null,"archived":false,"percentageOfSessions":null}, {"name":"Apidhítsa","state":"Peloponnese","territory":"","country":"Greece","latitude":37.38557063,"longitude":22.07579169,"population":32,"stateCapital":false,"nationalCapital":false,"pk":null,"quiz":"europe","code":null,"archived":false,"percentageOfSessions":null}, {"name":"Apóskia","state":"Peloponnese","territory":"","country":"Greece","latitude":37.81931579,"longitude":21.87337263,"population":26,"stateCapital":false,"nationalCapital":false,"pk":null,"quiz":"europe","code":null,"archived":false,"percentageOfSessions":null}, {"name":"Arahamíte","state":"Peloponnese","territory":"","country":"Greece","latitude":37.43967878,"longitude":22.2414479,"population":69,"stateCapital":false,"nationalCapital":false,"pk":null,"quiz":"europe","code":null,"archived":false,"percentageOfSessions":null}, {"name":"Arahnéon","state":"Peloponnese","territory":"","country":"Greece","latitude":37.67609684,"longitude":22.95590765,"population":640,"stateCapital":false,"nationalCapital":false,"pk":null,"quiz":"europe","code":null,"archived":false,"percentageOfSessions":null}, {"name":"Aráhova","state":"Peloponnese","territory":"","country":"Greece","latitude":37.60866641,"longitude":21.98696709,"population":207,"stateCapital":false,"nationalCapital":false,"pk":null,"quiz":"europe","code":null,"archived":false,"percentageOfSessions":null}, {"name":"Aráhova","state":"Peloponnese","territory":"","country":"Greece","latitude":37.03662504,"longitude":22.21924445,"population":10,"stateCapital":false,"nationalCapital":false,"pk":null,"quiz":"europe","code":null,"archived":false,"percentageOfSessions":null}, {"name":"Arakúkia","state":"Peloponnese","territory":"","country":"Greece","latitude":37.83619691,"longitude":23.06229171,"population":77,"stateCapital":false,"nationalCapital":false,"pk":null,"quiz":"europe","code":null,"archived":false,"percentageOfSessions":null}, {"name":"Arápidhes","state":"Peloponnese","territory":"","country":"Greece","latitude":37.65583479,"longitude":21.95157673,"population":7,"stateCapital":false,"nationalCapital":false,"pk":null,"quiz":"europe","code":null,"archived":false,"percentageOfSessions":null}, {"name":"Arapólakka","state":"Peloponnese","territory":"","country":"Greece","latitude":36.89636805,"longitude":21.77093999,"population":35,"stateCapital":false,"nationalCapital":false,"pk":null,"quiz":"europe","code":null,"archived":false,"percentageOfSessions":null}, {"name":"Areópolis","state":"Peloponnese","territory":"","country":"Greece","latitude":36.66251816,"longitude":22.37722648,"population":892,"stateCapital":false,"nationalCapital":false,"pk":null,"quiz":"europe","code":null,"archived":false,"percentageOfSessions":null}, {"name":"Arfará","state":"Peloponnese","territory":"","country":"Greece","latitude":37.15453376,"longitude":22.04279597,"population":1150,"stateCapital":false,"nationalCapital":false,"pk":null,"quiz":"europe","code":null,"archived":false,"percentageOfSessions":null}, {"name":"Argiliá","state":"Peloponnese","territory":"","country":"Greece","latitude":36.59213682,"longitude":22.46424854,"population":18,"stateCapital":false,"nationalCapital":false,"pk":null,"quiz":"europe","code":null,"archived":false,"percentageOfSessions":null}, {"name":"Argolikón","state":"Peloponnese","territory":"","country":"Greece","latitude":37.61757003,"longitude":22.79756006,"population":589,"stateCapital":false,"nationalCapital":false,"pk":null,"quiz":"europe","code":null,"archived":false,"percentageOfSessions":null}, {"name":"Árgos","state":"Peloponnese","territory":"","country":"Greece","latitude":37.63203433,"longitude":22.72776505,"population":22085,"stateCapital":false,"nationalCapital":false,"pk":null,"quiz":"europe","code":null,"archived":false,"percentageOfSessions":null}, {"name":"Arhánġelos","state":"Peloponnese","territory":"","country":"Greece","latitude":36.62525612,"longitude":22.87571895,"population":32,"stateCapital":false,"nationalCapital":false,"pk":null,"quiz":"europe","code":null,"archived":false,"percentageOfSessions":null}, {"name":"Arhéa Epídhavros","state":"Peloponnese","territory":"","country":"Greece","latitude":37.63533094,"longitude":23.15350285,"population":1668,"stateCapital":false,"nationalCapital":false,"pk":null,"quiz":"europe","code":null,"archived":false,"percentageOfSessions":null}, {"name":"Arhéa Feneós","state":"Peloponnese","territory":"","country":"Greece","latitude":37.91399494,"longitude":22.29443816,"population":228,"stateCapital":false,"nationalCapital":false,"pk":null,"quiz":"europe","code":null,"archived":false,"percentageOfSessions":null}, {"name":"Arhéa Kórinthos","state":"Peloponnese","territory":"","country":"Greece","latitude":37.90395544,"longitude":22.87902598,"population":1937,"stateCapital":false,"nationalCapital":false,"pk":null,"quiz":"europe","code":null,"archived":false,"percentageOfSessions":null}, {"name":"Arhéa Neméa","state":"Peloponnese","territory":"","country":"Greece","latitude":37.80488138,"longitude":22.70430113,"population":392,"stateCapital":false,"nationalCapital":false,"pk":null,"quiz":"europe","code":null,"archived":false,"percentageOfSessions":null}, {"name":"Arhée Kleoné","state":"Peloponnese","territory":"","country":"Greece","latitude":37.8205168,"longitude":22.74947905,"population":639,"stateCapital":false,"nationalCapital":false,"pk":null,"quiz":"europe","code":null,"archived":false,"percentageOfSessions":null}, {"name":"Arhéo Limáni","state":"Peloponnese","territory":"","country":"Greece","latitude":37.92867502,"longitude":22.89678611,"population":979,"stateCapital":false,"nationalCapital":false,"pk":null,"quiz":"europe","code":null,"archived":false,"percentageOfSessions":null}, {"name":"Arhiá","state":"Peloponnese","territory":"","country":"Greece","latitude":36.50060006,"longitude":22.39803912,"population":3,"stateCapital":false,"nationalCapital":false,"pk":null,"quiz":"europe","code":null,"archived":false,"percentageOfSessions":null}, {"name":"Arhondikón","state":"Peloponnese","territory":"","country":"Greece","latitude":36.8016973,"longitude":22.48671017,"population":72,"stateCapital":false,"nationalCapital":false,"pk":null,"quiz":"europe","code":null,"archived":false,"percentageOfSessions":null}, {"name":"Aría","state":"Peloponnese","territory":"","country":"Greece","latitude":37.61756162,"longitude":22.55045463,"population":14,"stateCapital":false,"nationalCapital":false,"pk":null,"quiz":"europe","code":null,"archived":false,"percentageOfSessions":null}, {"name":"Ária","state":"Peloponnese","territory":"","country":"Greece","latitude":37.5683989,"longitude":22.8281424,"population":3431,"stateCapital":false,"nationalCapital":false,"pk":null,"quiz":"europe","code":null,"archived":false,"percentageOfSessions":null}, {"name":"Ariána","state":"Peloponnese","territory":"","country":"Greece","latitude":36.76108354,"longitude":23.07573167,"population":10,"stateCapital":false,"nationalCapital":false,"pk":null,"quiz":"europe","code":null,"archived":false,"percentageOfSessions":null}, {"name":"Ariohórion","state":"Peloponnese","territory":"","country":"Greece","latitude":37.12822913,"longitude":22.02587059,"population":515,"stateCapital":false,"nationalCapital":false,"pk":null,"quiz":"europe","code":null,"archived":false,"percentageOfSessions":null}, {"name":"Áris","state":"Peloponnese","territory":"","country":"Greece","latitude":37.09837331,"longitude":22.00334235,"population":968,"stateCapital":false,"nationalCapital":false,"pk":null,"quiz":"europe","code":null,"archived":false,"percentageOfSessions":null}, {"name":"Aristodhímion","state":"Peloponnese","territory":"","country":"Greece","latitude":37.13094958,"longitude":21.97301684,"population":264,"stateCapital":false,"nationalCapital":false,"pk":null,"quiz":"europe","code":null,"archived":false,"percentageOfSessions":null}, {"name":"Aristoménis","state":"Peloponnese","territory":"","country":"Greece","latitude":37.08379888,"longitude":21.83878512,"population":355,"stateCapital":false,"nationalCapital":false,"pk":null,"quiz":"europe","code":null,"archived":false,"percentageOfSessions":null}, {"name":"Arkadhikó Horió","state":"Peloponnese","territory":"","country":"Greece","latitude":37.33356173,"longitude":22.80868768,"population":72,"stateCapital":false,"nationalCapital":false,"pk":null,"quiz":"europe","code":null,"archived":false,"percentageOfSessions":null}, {"name":"Arkadhikón","state":"Peloponnese","territory":"","country":"Greece","latitude":37.59503946,"longitude":22.95401326,"population":241,"stateCapital":false,"nationalCapital":false,"pk":null,"quiz":"europe","code":null,"archived":false,"percentageOfSessions":null}, {"name":"Armenií","state":"Peloponnese","territory":"","country":"Greece","latitude":37.21458649,"longitude":21.65675732,"population":320,"stateCapital":false,"nationalCapital":false,"pk":null,"quiz":"europe","code":null,"archived":false,"percentageOfSessions":null}, {"name":"Árna","state":"Peloponnese","territory":"","country":"Greece","latitude":36.87507567,"longitude":22.4132173,"population":120,"stateCapital":false,"nationalCapital":false,"pk":null,"quiz":"europe","code":null,"archived":false,"percentageOfSessions":null}, {"name":"Arsinéa","state":"Peloponnese","territory":"","country":"Greece","latitude":37.73817618,"longitude":21.85452456,"population":14,"stateCapital":false,"nationalCapital":false,"pk":null,"quiz":"europe","code":null,"archived":false,"percentageOfSessions":null}, {"name":"Arsinói","state":"Peloponnese","territory":"","country":"Greece","latitude":37.1647984,"longitude":21.92141467,"population":177,"stateCapital":false,"nationalCapital":false,"pk":null,"quiz":"europe","code":null,"archived":false,"percentageOfSessions":null}, {"name":"Artemisía","state":"Peloponnese","territory":"","country":"Greece","latitude":37.09725106,"longitude":22.22852419,"population":142,"stateCapital":false,"nationalCapital":false,"pk":null,"quiz":"europe","code":null,"archived":false,"percentageOfSessions":null}, {"name":"Artemísion","state":"Peloponnese","territory":"","country":"Greece","latitude":37.67274491,"longitude":22.37571562,"population":303,"stateCapital":false,"nationalCapital":false,"pk":null,"quiz":"europe","code":null,"archived":false,"percentageOfSessions":null}, {"name":"Artíkion","state":"Peloponnese","territory":"","country":"Greece","latitude":37.25273341,"longitude":21.78369967,"population":24,"stateCapital":false,"nationalCapital":false,"pk":null,"quiz":"europe","code":null,"archived":false,"percentageOfSessions":null}, {"name":"Arvanítis","state":"Peloponnese","territory":"","country":"Greece","latitude":36.79968415,"longitude":22.47320501,"population":16,"stateCapital":false,"nationalCapital":false,"pk":null,"quiz":"europe","code":null,"archived":false,"percentageOfSessions":null}, {"name":"Aséa","state":"Peloponnese","territory":"","country":"Greece","latitude":37.41837602,"longitude":22.25946982,"population":95,"stateCapital":false,"nationalCapital":false,"pk":null,"quiz":"europe","code":null,"archived":false,"percentageOfSessions":null}, {"name":"Asímion","state":"Peloponnese","territory":"","country":"Greece","latitude":36.87092473,"longitude":22.49887087,"population":7,"stateCapital":false,"nationalCapital":false,"pk":null,"quiz":"europe","code":null,"archived":false,"percentageOfSessions":null}, {"name":"Asíni","state":"Peloponnese","territory":"","country":"Greece","latitude":37.54304193,"longitude":22.8615381,"population":1059,"stateCapital":false,"nationalCapital":false,"pk":null,"quiz":"europe","code":null,"archived":false,"percentageOfSessions":null}, {"name":"Asklipiío Epidhávru","state":"Peloponnese","territory":"","country":"Greece","latitude":37.59465826,"longitude":23.07629034,"population":17,"stateCapital":false,"nationalCapital":false,"pk":null,"quiz":"europe","code":null,"archived":false,"percentageOfSessions":null}, {"name":"Asopós","state":"Peloponnese","territory":"","country":"Greece","latitude":36.72752211,"longitude":22.85315141,"population":1011,"stateCapital":false,"nationalCapital":false,"pk":null,"quiz":"europe","code":null,"archived":false,"percentageOfSessions":null}, {"name":"Aspróhoma","state":"Peloponnese","territory":"","country":"Greece","latitude":37.0457478,"longitude":22.07327221,"population":586,"stateCapital":false,"nationalCapital":false,"pk":null,"quiz":"europe","code":null,"archived":false,"percentageOfSessions":null}, {"name":"Asprohórti","state":"Peloponnese","territory":"","country":"Greece","latitude":36.81502984,"longitude":21.81968522,"population":10,"stateCapital":false,"nationalCapital":false,"pk":null,"quiz":"europe","code":null,"archived":false,"percentageOfSessions":null}, {"name":"Asprókambos","state":"Peloponnese","territory":"","country":"Greece","latitude":38.05797962,"longitude":22.9642478,"population":2,"stateCapital":false,"nationalCapital":false,"pk":null,"quiz":"europe","code":null,"archived":false,"percentageOfSessions":null}, {"name":"Asprókambos","state":"Peloponnese","territory":"","country":"Greece","latitude":38.05797962,"longitude":22.9642478,"population":186,"stateCapital":false,"nationalCapital":false,"pk":null,"quiz":"europe","code":null,"archived":false,"percentageOfSessions":null}, {"name":"Aspropuliá","state":"Peloponnese","territory":"","country":"Greece","latitude":37.11613872,"longitude":22.02537383,"population":141,"stateCapital":false,"nationalCapital":false,"pk":null,"quiz":"europe","code":null,"archived":false,"percentageOfSessions":null}, {"name":"Aspróvrisi","state":"Peloponnese","territory":"","country":"Greece","latitude":37.57741709,"longitude":22.88988364,"population":41,"stateCapital":false,"nationalCapital":false,"pk":null,"quiz":"europe","code":null,"archived":false,"percentageOfSessions":null}, {"name":"Ássos","state":"Peloponnese","territory":"","country":"Greece","latitude":37.93655877,"longitude":22.82195305,"population":1930,"stateCapital":false,"nationalCapital":false,"pk":null,"quiz":"europe","code":null,"archived":false,"percentageOfSessions":null}, {"name":"Astérion","state":"Peloponnese","territory":"","country":"Greece","latitude":36.79006109,"longitude":22.45391248,"population":3,"stateCapital":false,"nationalCapital":false,"pk":null,"quiz":"europe","code":null,"archived":false,"percentageOfSessions":null}, {"name":"Astérion","state":"Peloponnese","territory":"","country":"Greece","latitude":36.79006109,"longitude":22.45391248,"population":260,"stateCapital":false,"nationalCapital":false,"pk":null,"quiz":"europe","code":null,"archived":false,"percentageOfSessions":null}, {"name":"Ástros","state":"Peloponnese","territory":"","country":"Greece","latitude":37.40136601,"longitude":22.72082585,"population":2264,"stateCapital":false,"nationalCapital":false,"pk":null,"quiz":"europe","code":null,"archived":false,"percentageOfSessions":null}, {"name":"Athíkia","state":"Peloponnese","territory":"","country":"Greece","latitude":37.81695853,"longitude":22.92903468,"population":1828,"stateCapital":false,"nationalCapital":false,"pk":null,"quiz":"europe","code":null,"archived":false,"percentageOfSessions":null}, {"name":"Athíneon","state":"Peloponnese","territory":"","country":"Greece","latitude":37.40109974,"longitude":22.24536892,"population":104,"stateCapital":false,"nationalCapital":false,"pk":null,"quiz":"europe","code":null,"archived":false,"percentageOfSessions":null}, {"name":"Atsíholos","state":"Peloponnese","territory":"","country":"Greece","latitude":37.52523704,"longitude":22.02746585,"population":45,"stateCapital":false,"nationalCapital":false,"pk":null,"quiz":"europe","code":null,"archived":false,"percentageOfSessions":null}, {"name":"Avía","state":"Peloponnese","territory":"","country":"Greece","latitude":36.96423892,"longitude":22.14071151,"population":271,"stateCapital":false,"nationalCapital":false,"pk":null,"quiz":"europe","code":null,"archived":false,"percentageOfSessions":null}, {"name":"Avlón","state":"Peloponnese","territory":"","country":"Greece","latitude":37.36132886,"longitude":21.79919151,"population":122,"stateCapital":false,"nationalCapital":false,"pk":null,"quiz":"europe","code":null,"archived":false,"percentageOfSessions":null}, {"name":"Avlóna","state":"Peloponnese","territory":"","country":"Greece","latitude":37.39032445,"longitude":23.18493411,"population":78,"stateCapital":false,"nationalCapital":false,"pk":null,"quiz":"europe","code":null,"archived":false,"percentageOfSessions":null}, {"name":"Avramiánika","state":"Peloponnese","territory":"","country":"Greece","latitude":36.71050339,"longitude":22.42189774,"population":3,"stateCapital":false,"nationalCapital":false,"pk":null,"quiz":"europe","code":null,"archived":false,"percentageOfSessions":null}, {"name":"Avramión","state":"Peloponnese","territory":"","country":"Greece","latitude":37.03175421,"longitude":21.93905028,"population":367,"stateCapital":false,"nationalCapital":false,"pk":null,"quiz":"europe","code":null,"archived":false,"percentageOfSessions":null}, {"name":"Balodhiméika","state":"Peloponnese","territory":"","country":"Greece","latitude":36.94638502,"longitude":21.74586263,"population":27,"stateCapital":false,"nationalCapital":false,"pk":null,"quiz":"europe","code":null,"archived":false,"percentageOfSessions":null}, {"name":"Bardhákion","state":"Peloponnese","territory":"","country":"Greece","latitude":37.55680577,"longitude":21.92130481,"population":7,"stateCapital":false,"nationalCapital":false,"pk":null,"quiz":"europe","code":null,"archived":false,"percentageOfSessions":null}, {"name":"Bárla","state":"Peloponnese","territory":"","country":"Greece","latitude":37.03898811,"longitude":21.60872469,"population":50,"stateCapital":false,"nationalCapital":false,"pk":null,"quiz":"europe","code":null,"archived":false,"percentageOfSessions":null}, {"name":"Bazigéika","state":"Peloponnese","territory":"","country":"Greece","latitude":36.81576471,"longitude":22.30047558,"population":35,"stateCapital":false,"nationalCapital":false,"pk":null,"quiz":"europe","code":null,"archived":false,"percentageOfSessions":null}, {"name":"Bekiánika","state":"Peloponnese","territory":"","country":"Greece","latitude":37.87579227,"longitude":22.88030187,"population":74,"stateCapital":false,"nationalCapital":false,"pk":null,"quiz":"europe","code":null,"archived":false,"percentageOfSessions":null}, {"name":"Beleséika","state":"Peloponnese","territory":"","country":"Greece","latitude":36.83520602,"longitude":23.00631941,"population":113,"stateCapital":false,"nationalCapital":false,"pk":null,"quiz":"europe","code":null,"archived":false,"percentageOfSessions":null}, {"name":"Bertsiá","state":"Peloponnese","territory":"","country":"Greece","latitude":37.65693796,"longitude":21.83011469,"population":9,"stateCapital":false,"nationalCapital":false,"pk":null,"quiz":"europe","code":null,"archived":false,"percentageOfSessions":null}, {"name":"Bitsikólaka","state":"Peloponnese","territory":"","country":"Greece","latitude":36.89355607,"longitude":21.92270348,"population":11,"stateCapital":false,"nationalCapital":false,"pk":null,"quiz":"europe","code":null,"archived":false,"percentageOfSessions":null}, {"name":"Blemeniáni","state":"Peloponnese","territory":"","country":"Greece","latitude":37.24515722,"longitude":21.69713759,"population":29,"stateCapital":false,"nationalCapital":false,"pk":null,"quiz":"europe","code":null,"archived":false,"percentageOfSessions":null}, {"name":"Bolátion","state":"Peloponnese","territory":"","country":"Greece","latitude":37.95370977,"longitude":22.78746681,"population":765,"stateCapital":false,"nationalCapital":false,"pk":null,"quiz":"europe","code":null,"archived":false,"percentageOfSessions":null}, {"name":"Bórsas","state":"Peloponnese","territory":"","country":"Greece","latitude":37.72750015,"longitude":22.68237441,"population":186,"stateCapital":false,"nationalCapital":false,"pk":null,"quiz":"europe","code":null,"archived":false,"percentageOfSessions":null}, {"name":"Bostaniá","state":"Peloponnese","territory":"","country":"Greece","latitude":36.97010251,"longitude":21.9242425,"population":15,"stateCapital":false,"nationalCapital":false,"pk":null,"quiz":"europe","code":null,"archived":false,"percentageOfSessions":null}, {"name":"Bozikás","state":"Peloponnese","territory":"","country":"Greece","latitude":37.9120728,"longitude":22.60781651,"population":234,"stateCapital":false,"nationalCapital":false,"pk":null,"quiz":"europe","code":null,"archived":false,"percentageOfSessions":null}, {"name":"Bozioneléika","state":"Peloponnese","territory":"","country":"Greece","latitude":37.62268036,"longitude":22.62425101,"population":39,"stateCapital":false,"nationalCapital":false,"pk":null,"quiz":"europe","code":null,"archived":false,"percentageOfSessions":null}, {"name":"Bríkion","state":"Peloponnese","territory":"","country":"Greece","latitude":36.56256745,"longitude":22.40791896,"population":8,"stateCapital":false,"nationalCapital":false,"pk":null,"quiz":"europe","code":null,"archived":false,"percentageOfSessions":null}, {"name":"Buliáris","state":"Peloponnese","territory":"","country":"Greece","latitude":37.73364865,"longitude":22.01015236,"population":54,"stateCapital":false,"nationalCapital":false,"pk":null,"quiz":"europe","code":null,"archived":false,"percentageOfSessions":null}, {"name":"Burniás","state":"Peloponnese","territory":"","country":"Greece","latitude":37.04107634,"longitude":22.090024,"population":125,"stateCapital":false,"nationalCapital":false,"pk":null,"quiz":"europe","code":null,"archived":false,"percentageOfSessions":null}, {"name":"Butseliánika","state":"Peloponnese","territory":"","country":"Greece","latitude":36.72611572,"longitude":22.41297446,"population":8,"stateCapital":false,"nationalCapital":false,"pk":null,"quiz":"europe","code":null,"archived":false,"percentageOfSessions":null}, {"name":"Buzanéika","state":"Peloponnese","territory":"","country":"Greece","latitude":37.41807753,"longitude":22.45932833,"population":22,"stateCapital":false,"nationalCapital":false,"pk":null,"quiz":"europe","code":null,"archived":false,"percentageOfSessions":null}, {"name":"Dháfni","state":"Peloponnese","territory":"","country":"Greece","latitude":37.35726937,"longitude":22.2781877,"population":56,"stateCapital":false,"nationalCapital":false,"pk":null,"quiz":"europe","code":null,"archived":false,"percentageOfSessions":null}, {"name":"Dháfni","state":"Peloponnese","territory":"","country":"Greece","latitude":37.90536469,"longitude":22.91764616,"population":51,"stateCapital":false,"nationalCapital":false,"pk":null,"quiz":"europe","code":null,"archived":false,"percentageOfSessions":null}, {"name":"Dháfni","state":"Peloponnese","territory":"","country":"Greece","latitude":37.90536469,"longitude":22.91764616,"population":253,"stateCapital":false,"nationalCapital":false,"pk":null,"quiz":"europe","code":null,"archived":false,"percentageOfSessions":null}, {"name":"Dháfni","state":"Peloponnese","territory":"","country":"Greece","latitude":37.01522157,"longitude":21.90783074,"population":115,"stateCapital":false,"nationalCapital":false,"pk":null,"quiz":"europe","code":null,"archived":false,"percentageOfSessions":null}, {"name":"Dháfnion","state":"Peloponnese","territory":"","country":"Greece","latitude":36.92471024,"longitude":22.53566518,"population":859,"stateCapital":false,"nationalCapital":false,"pk":null,"quiz":"europe","code":null,"archived":false,"percentageOfSessions":null}, {"name":"Dhalamanára","state":"Peloponnese","territory":"","country":"Greece","latitude":37.61588961,"longitude":22.76949924,"population":883,"stateCapital":false,"nationalCapital":false,"pk":null,"quiz":"europe","code":null,"archived":false,"percentageOfSessions":null}, {"name":"Dháras","state":"Peloponnese","territory":"","country":"Greece","latitude":37.80642343,"longitude":22.20058784,"population":382,"stateCapital":false,"nationalCapital":false,"pk":null,"quiz":"europe","code":null,"archived":false,"percentageOfSessions":null}, {"name":"Dháras","state":"Peloponnese","territory":"","country":"Greece","latitude":37.03319193,"longitude":21.88249096,"population":171,"stateCapital":false,"nationalCapital":false,"pk":null,"quiz":"europe","code":null,"archived":false,"percentageOfSessions":null}, {"name":"Dháras","state":"Peloponnese","territory":"","country":"Greece","latitude":37.03319193,"longitude":21.88249096,"population":20,"stateCapital":false,"nationalCapital":false,"pk":null,"quiz":"europe","code":null,"archived":false,"percentageOfSessions":null}, {"name":"Dhasohórion","state":"Peloponnese","territory":"","country":"Greece","latitude":37.33976457,"longitude":21.97676342,"population":44,"stateCapital":false,"nationalCapital":false,"pk":null,"quiz":"europe","code":null,"archived":false,"percentageOfSessions":null}, {"name":"Dhaviá","state":"Peloponnese","territory":"","country":"Greece","latitude":37.54610266,"longitude":22.27763457,"population":38,"stateCapital":false,"nationalCapital":false,"pk":null,"quiz":"europe","code":null,"archived":false,"percentageOfSessions":null}, {"name":"Dhemírion","state":"Peloponnese","territory":"","country":"Greece","latitude":37.45471874,"longitude":22.40105483,"population":86,"stateCapital":false,"nationalCapital":false,"pk":null,"quiz":"europe","code":null,"archived":false,"percentageOfSessions":null}, {"name":"Dhemonía","state":"Peloponnese","territory":"","country":"Greece","latitude":36.64794447,"longitude":22.8993644,"population":342,"stateCapital":false,"nationalCapital":false,"pk":null,"quiz":"europe","code":null,"archived":false,"percentageOfSessions":null}, {"name":"Dhendhrá","state":"Peloponnese","territory":"","country":"Greece","latitude":37.02838984,"longitude":22.21319766,"population":16,"stateCapital":false,"nationalCapital":false,"pk":null,"quiz":"europe","code":null,"archived":false,"percentageOfSessions":null}, {"name":"Dhéndhra","state":"Peloponnese","territory":"","country":"Greece","latitude":37.00867652,"longitude":22.23704554,"population":6,"stateCapital":false,"nationalCapital":false,"pk":null,"quiz":"europe","code":null,"archived":false,"percentageOfSessions":null}, {"name":"Dhéndhron","state":"Peloponnese","territory":"","country":"Greece","latitude":38.02755296,"longitude":22.52423985,"population":148,"stateCapital":false,"nationalCapital":false,"pk":null,"quiz":"europe","code":null,"archived":false,"percentageOfSessions":null}, {"name":"Dhermatiánika","state":"Peloponnese","territory":"","country":"Greece","latitude":36.54198986,"longitude":23.04344195,"population":496,"stateCapital":false,"nationalCapital":false,"pk":null,"quiz":"europe","code":null,"archived":false,"percentageOfSessions":null}, {"name":"Dhervenákia","state":"Peloponnese","territory":"","country":"Greece","latitude":37.78772979,"longitude":22.72161957,"population":66,"stateCapital":false,"nationalCapital":false,"pk":null,"quiz":"europe","code":null,"archived":false,"percentageOfSessions":null}, {"name":"Dhervéni","state":"Peloponnese","territory":"","country":"Greece","latitude":38.12910117,"longitude":22.41923606,"population":840,"stateCapital":false,"nationalCapital":false,"pk":null,"quiz":"europe","code":null,"archived":false,"percentageOfSessions":null}, {"name":"Dhervénion","state":"Peloponnese","territory":"","country":"Greece","latitude":37.28810008,"longitude":22.04225753,"population":29,"stateCapital":false,"nationalCapital":false,"pk":null,"quiz":"europe","code":null,"archived":false,"percentageOfSessions":null}, {"name":"Dhesíllas","state":"Peloponnese","territory":"","country":"Greece","latitude":37.2972695,"longitude":21.99605871,"population":255,"stateCapital":false,"nationalCapital":false,"pk":null,"quiz":"europe","code":null,"archived":false,"percentageOfSessions":null}, {"name":"Dhiakópion","state":"Peloponnese","territory":"","country":"Greece","latitude":37.78321428,"longitude":22.31562684,"population":21,"stateCapital":false,"nationalCapital":false,"pk":null,"quiz":"europe","code":null,"archived":false,"percentageOfSessions":null}, {"name":"Dhiásella","state":"Peloponnese","territory":"","country":"Greece","latitude":37.05303339,"longitude":22.16064438,"population":8,"stateCapital":false,"nationalCapital":false,"pk":null,"quiz":"europe","code":null,"archived":false,"percentageOfSessions":null}, {"name":"Dhiavolítsion","state":"Peloponnese","territory":"","country":"Greece","latitude":37.29720769,"longitude":21.96734061,"population":700,"stateCapital":false,"nationalCapital":false,"pk":null,"quiz":"europe","code":null,"archived":false,"percentageOfSessions":null}, {"name":"Dhídhima","state":"Peloponnese","territory":"","country":"Greece","latitude":37.46092623,"longitude":23.17107918,"population":1026,"stateCapital":false,"nationalCapital":false,"pk":null,"quiz":"europe","code":null,"archived":false,"percentageOfSessions":null}, {"name":"Dhihália","state":"Peloponnese","territory":"","country":"Greece","latitude":37.57345018,"longitude":22.69367911,"population":67,"stateCapital":false,"nationalCapital":false,"pk":null,"quiz":"europe","code":null,"archived":false,"percentageOfSessions":null}, {"name":"Dhíhova","state":"Peloponnese","territory":"","country":"Greece","latitude":36.6829672,"longitude":22.4990213,"population":36,"stateCapital":false,"nationalCapital":false,"pk":null,"quiz":"europe","code":null,"archived":false,"percentageOfSessions":null}, {"name":"Dhimándhra","state":"Peloponnese","territory":"","country":"Greece","latitude":37.35071906,"longitude":21.91454615,"population":43,"stateCapital":false,"nationalCapital":false,"pk":null,"quiz":"europe","code":null,"archived":false,"percentageOfSessions":null}, {"name":"Dhimarístika","state":"Peloponnese","territory":"","country":"Greece","latitude":36.49548466,"longitude":22.47186974,"population":12,"stateCapital":false,"nationalCapital":false,"pk":null,"quiz":"europe","code":null,"archived":false,"percentageOfSessions":null}, {"name":"Dhímena","state":"Peloponnese","territory":"","country":"Greece","latitude":37.68999795,"longitude":23.07048841,"population":441,"stateCapital":false,"nationalCapital":false,"pk":null,"quiz":"europe","code":null,"archived":false,"percentageOfSessions":null}, {"name":"Dhiminión","state":"Peloponnese","territory":"","country":"Greece","latitude":38.02867874,"longitude":22.70975075,"population":450,"stateCapital":false,"nationalCapital":false,"pk":null,"quiz":"europe","code":null,"archived":false,"percentageOfSessions":null}, {"name":"Dhímitra","state":"Peloponnese","territory":"","country":"Greece","latitude":37.78232578,"longitude":21.92383621,"population":151,"stateCapital":false,"nationalCapital":false,"pk":null,"quiz":"europe","code":null,"archived":false,"percentageOfSessions":null}, {"name":"Dhimitsána","state":"Peloponnese","territory":"","country":"Greece","latitude":37.59255511,"longitude":22.03833239,"population":403,"stateCapital":false,"nationalCapital":false,"pk":null,"quiz":"europe","code":null,"archived":false,"percentageOfSessions":null}, {"name":"Dhimosiá","state":"Peloponnese","territory":"","country":"Greece","latitude":37.58930774,"longitude":23.10544033,"population":30,"stateCapital":false,"nationalCapital":false,"pk":null,"quiz":"europe","code":null,"archived":false,"percentageOfSessions":null}, {"name":"Dhiódhia","state":"Peloponnese","territory":"","country":"Greece","latitude":37.07541026,"longitude":21.86356233,"population":311,"stateCapital":false,"nationalCapital":false,"pk":null,"quiz":"europe","code":null,"archived":false,"percentageOfSessions":null}, {"name":"Dhipótama","state":"Peloponnese","territory":"","country":"Greece","latitude":36.9698617,"longitude":22.39726442,"population":6,"stateCapital":false,"nationalCapital":false,"pk":null,"quiz":"europe","code":null,"archived":false,"percentageOfSessions":null}, {"name":"Dhirón","state":"Peloponnese","territory":"","country":"Greece","latitude":36.72589999,"longitude":22.49542235,"population":17,"stateCapital":false,"nationalCapital":false,"pk":null,"quiz":"europe","code":null,"archived":false,"percentageOfSessions":null}, {"name":"Dhirráhion","state":"Peloponnese","territory":"","country":"Greece","latitude":37.18572211,"longitude":22.2028864,"population":152,"stateCapital":false,"nationalCapital":false,"pk":null,"quiz":"europe","code":null,"archived":false,"percentageOfSessions":null}, {"name":"Dhiskúria","state":"Peloponnese","territory":"","country":"Greece","latitude":37.36315138,"longitude":23.19017473,"population":27,"stateCapital":false,"nationalCapital":false,"pk":null,"quiz":"europe","code":null,"archived":false,"percentageOfSessions":null}, {"name":"Dhodhekámetron","state":"Peloponnese","territory":"","country":"Greece","latitude":37.68535791,"longitude":21.85094621,"population":51,"stateCapital":false,"nationalCapital":false,"pk":null,"quiz":"europe","code":null,"archived":false,"percentageOfSessions":null}, {"name":"Dhóksa","state":"Peloponnese","territory":"","country":"Greece","latitude":37.70396441,"longitude":21.91851734,"population":222,"stateCapital":false,"nationalCapital":false,"pk":null,"quiz":"europe","code":null,"archived":false,"percentageOfSessions":null}, {"name":"Dhórion","state":"Peloponnese","territory":"","country":"Greece","latitude":37.28604986,"longitude":21.85498567,"population":884,"stateCapital":false,"nationalCapital":false,"pk":null,"quiz":"europe","code":null,"archived":false,"percentageOfSessions":null}, {"name":"Dhórizas","state":"Peloponnese","territory":"","country":"Greece","latitude":37.43596639,"longitude":22.29212045,"population":79,"stateCapital":false,"nationalCapital":false,"pk":null,"quiz":"europe","code":null,"archived":false,"percentageOfSessions":null}, {"name":"Dhorúfi (T.K.Kiládhos)","state":"Peloponnese","territory":"","country":"Greece","latitude":37.3933599,"longitude":23.10790641,"population":28,"stateCapital":false,"nationalCapital":false,"pk":null,"quiz":"europe","code":null,"archived":false,"percentageOfSessions":null}, {"name":"Dhragúmi","state":"Peloponnese","territory":"","country":"Greece","latitude":37.39334155,"longitude":22.5245615,"population":8,"stateCapital":false,"nationalCapital":false,"pk":null,"quiz":"europe","code":null,"archived":false,"percentageOfSessions":null}, {"name":"Dhraína","state":"Peloponnese","territory":"","country":"Greece","latitude":37.13110988,"longitude":21.8590391,"population":50,"stateCapital":false,"nationalCapital":false,"pk":null,"quiz":"europe","code":null,"archived":false,"percentageOfSessions":null}, {"name":"Dhrakonérion","state":"Peloponnese","territory":"","country":"Greece","latitude":37.01657309,"longitude":21.95285397,"population":86,"stateCapital":false,"nationalCapital":false,"pk":null,"quiz":"europe","code":null,"archived":false,"percentageOfSessions":null}, {"name":"Dhrakovúnion","state":"Peloponnese","territory":"","country":"Greece","latitude":37.77304566,"longitude":22.11401977,"population":80,"stateCapital":false,"nationalCapital":false,"pk":null,"quiz":"europe","code":null,"archived":false,"percentageOfSessions":null}, {"name":"Dhrekoléika","state":"Peloponnese","territory":"","country":"Greece","latitude":37.30889165,"longitude":21.69976964,"population":21,"stateCapital":false,"nationalCapital":false,"pk":null,"quiz":"europe","code":null,"archived":false,"percentageOfSessions":null},