{"cities":[{"name":"Agiá","state":"Thessaly","territory":"","country":"Greece","latitude":39.71679495,"longitude":22.75722184,"population":3162,"stateCapital":false,"nationalCapital":false,"pk":null,"quiz":"europe","code":null,"archived":false,"percentageOfSessions":null}, {"name":"Agía Agáthi","state":"Thessaly","territory":"","country":"Greece","latitude":39.18298269,"longitude":21.76312955,"population":29,"stateCapital":false,"nationalCapital":false,"pk":null,"quiz":"europe","code":null,"archived":false,"percentageOfSessions":null}, {"name":"Agía Kiriakí","state":"Thessaly","territory":"","country":"Greece","latitude":39.08912366,"longitude":23.0703787,"population":195,"stateCapital":false,"nationalCapital":false,"pk":null,"quiz":"europe","code":null,"archived":false,"percentageOfSessions":null}, {"name":"Agía Kiriakí","state":"Thessaly","territory":"","country":"Greece","latitude":39.51335297,"longitude":21.80134876,"population":438,"stateCapital":false,"nationalCapital":false,"pk":null,"quiz":"europe","code":null,"archived":false,"percentageOfSessions":null}, {"name":"Agía Marína","state":"Thessaly","territory":"","country":"Greece","latitude":39.25904469,"longitude":21.71037637,"population":100,"stateCapital":false,"nationalCapital":false,"pk":null,"quiz":"europe","code":null,"archived":false,"percentageOfSessions":null}, {"name":"Agía Marína","state":"Thessaly","territory":"","country":"Greece","latitude":39.04761071,"longitude":22.98527747,"population":47,"stateCapital":false,"nationalCapital":false,"pk":null,"quiz":"europe","code":null,"archived":false,"percentageOfSessions":null}, {"name":"Agía Paraskeví","state":"Thessaly","territory":"","country":"Greece","latitude":39.85932774,"longitude":22.74614213,"population":2,"stateCapital":false,"nationalCapital":false,"pk":null,"quiz":"europe","code":null,"archived":false,"percentageOfSessions":null}, {"name":"Agía Paraskeví","state":"Thessaly","territory":"","country":"Greece","latitude":39.85932774,"longitude":22.74614213,"population":37,"stateCapital":false,"nationalCapital":false,"pk":null,"quiz":"europe","code":null,"archived":false,"percentageOfSessions":null}, {"name":"Agía Paraskeví","state":"Thessaly","territory":"","country":"Greece","latitude":39.26424714,"longitude":21.70676446,"population":25,"stateCapital":false,"nationalCapital":false,"pk":null,"quiz":"europe","code":null,"archived":false,"percentageOfSessions":null}, {"name":"Agía Paraskeví","state":"Thessaly","territory":"","country":"Greece","latitude":39.26424714,"longitude":21.70676446,"population":341,"stateCapital":false,"nationalCapital":false,"pk":null,"quiz":"europe","code":null,"archived":false,"percentageOfSessions":null}, {"name":"Agía Paraskeví","state":"Thessaly","territory":"","country":"Greece","latitude":39.39541084,"longitude":22.99581705,"population":8,"stateCapital":false,"nationalCapital":false,"pk":null,"quiz":"europe","code":null,"archived":false,"percentageOfSessions":null}, {"name":"Agía Paraskeví","state":"Thessaly","territory":"","country":"Greece","latitude":39.56672245,"longitude":21.256379,"population":123,"stateCapital":false,"nationalCapital":false,"pk":null,"quiz":"europe","code":null,"archived":false,"percentageOfSessions":null}, {"name":"Agía Paraskeví","state":"Thessaly","territory":"","country":"Greece","latitude":39.56672245,"longitude":21.256379,"population":113,"stateCapital":false,"nationalCapital":false,"pk":null,"quiz":"europe","code":null,"archived":false,"percentageOfSessions":null}, {"name":"Agía Sofía","state":"Thessaly","territory":"","country":"Greece","latitude":39.68719778,"longitude":22.31501916,"population":104,"stateCapital":false,"nationalCapital":false,"pk":null,"quiz":"europe","code":null,"archived":false,"percentageOfSessions":null}, {"name":"Agía Sofía","state":"Thessaly","territory":"","country":"Greece","latitude":39.15414431,"longitude":23.06728539,"population":8,"stateCapital":false,"nationalCapital":false,"pk":null,"quiz":"europe","code":null,"archived":false,"percentageOfSessions":null}, {"name":"Agía Triás","state":"Thessaly","territory":"","country":"Greece","latitude":39.38564961,"longitude":22.55976863,"population":31,"stateCapital":false,"nationalCapital":false,"pk":null,"quiz":"europe","code":null,"archived":false,"percentageOfSessions":null}, {"name":"Agía Triás","state":"Thessaly","territory":"","country":"Greece","latitude":39.46100578,"longitude":21.89641957,"population":720,"stateCapital":false,"nationalCapital":false,"pk":null,"quiz":"europe","code":null,"archived":false,"percentageOfSessions":null}, {"name":"Agía Triás","state":"Thessaly","territory":"","country":"Greece","latitude":39.09963431,"longitude":22.87665572,"population":223,"stateCapital":false,"nationalCapital":false,"pk":null,"quiz":"europe","code":null,"archived":false,"percentageOfSessions":null}, {"name":"Agía Triás","state":"Thessaly","territory":"","country":"Greece","latitude":39.09963431,"longitude":22.87665572,"population":141,"stateCapital":false,"nationalCapital":false,"pk":null,"quiz":"europe","code":null,"archived":false,"percentageOfSessions":null}, {"name":"Agía Triás","state":"Thessaly","territory":"","country":"Greece","latitude":39.81738013,"longitude":21.72813911,"population":18,"stateCapital":false,"nationalCapital":false,"pk":null,"quiz":"europe","code":null,"archived":false,"percentageOfSessions":null}, {"name":"Ágii Anárgiri","state":"Thessaly","territory":"","country":"Greece","latitude":39.52204545,"longitude":22.36376989,"population":558,"stateCapital":false,"nationalCapital":false,"pk":null,"quiz":"europe","code":null,"archived":false,"percentageOfSessions":null}, {"name":"Ágii Anárgiri","state":"Thessaly","territory":"","country":"Greece","latitude":39.43226936,"longitude":21.83409505,"population":104,"stateCapital":false,"nationalCapital":false,"pk":null,"quiz":"europe","code":null,"archived":false,"percentageOfSessions":null}, {"name":"Ágii Apóstoli","state":"Thessaly","territory":"","country":"Greece","latitude":39.34906899,"longitude":21.46961517,"population":13,"stateCapital":false,"nationalCapital":false,"pk":null,"quiz":"europe","code":null,"archived":false,"percentageOfSessions":null}, {"name":"Ágii Apóstoli","state":"Thessaly","territory":"","country":"Greece","latitude":39.02671711,"longitude":22.95723785,"population":21,"stateCapital":false,"nationalCapital":false,"pk":null,"quiz":"europe","code":null,"archived":false,"percentageOfSessions":null}, {"name":"Ágii Theódhori","state":"Thessaly","territory":"","country":"Greece","latitude":38.99437524,"longitude":22.92258627,"population":303,"stateCapital":false,"nationalCapital":false,"pk":null,"quiz":"europe","code":null,"archived":false,"percentageOfSessions":null}, {"name":"Ágii Theódhori","state":"Thessaly","territory":"","country":"Greece","latitude":39.65753259,"longitude":21.68966433,"population":68,"stateCapital":false,"nationalCapital":false,"pk":null,"quiz":"europe","code":null,"archived":false,"percentageOfSessions":null}, {"name":"Ágii Saránda","state":"Thessaly","territory":"","country":"Greece","latitude":39.44142324,"longitude":23.13143584,"population":40,"stateCapital":false,"nationalCapital":false,"pk":null,"quiz":"europe","code":null,"archived":false,"percentageOfSessions":null}, {"name":"Agiókambos","state":"Thessaly","territory":"","country":"Greece","latitude":39.69751383,"longitude":22.87498631,"population":345,"stateCapital":false,"nationalCapital":false,"pk":null,"quiz":"europe","code":null,"archived":false,"percentageOfSessions":null}, {"name":"Agionérion","state":"Thessaly","territory":"","country":"Greece","latitude":39.86007864,"longitude":22.11972307,"population":31,"stateCapital":false,"nationalCapital":false,"pk":null,"quiz":"europe","code":null,"archived":false,"percentageOfSessions":null}, {"name":"Agiopigí","state":"Thessaly","territory":"","country":"Greece","latitude":39.31659459,"longitude":21.91743553,"population":331,"stateCapital":false,"nationalCapital":false,"pk":null,"quiz":"europe","code":null,"archived":false,"percentageOfSessions":null}, {"name":"Ágios Athanásios","state":"Thessaly","territory":"","country":"Greece","latitude":39.27807623,"longitude":21.78022386,"population":373,"stateCapital":false,"nationalCapital":false,"pk":null,"quiz":"europe","code":null,"archived":false,"percentageOfSessions":null}, {"name":"Ágios Athanásios","state":"Thessaly","territory":"","country":"Greece","latitude":39.31478118,"longitude":23.1215705,"population":111,"stateCapital":false,"nationalCapital":false,"pk":null,"quiz":"europe","code":null,"archived":false,"percentageOfSessions":null}, {"name":"Ágios Akákios","state":"Thessaly","territory":"","country":"Greece","latitude":39.37882058,"longitude":21.76928446,"population":238,"stateCapital":false,"nationalCapital":false,"pk":null,"quiz":"europe","code":null,"archived":false,"percentageOfSessions":null}, {"name":"Ágios Andhréas","state":"Thessaly","territory":"","country":"Greece","latitude":39.14432314,"longitude":23.20805758,"population":33,"stateCapital":false,"nationalCapital":false,"pk":null,"quiz":"europe","code":null,"archived":false,"percentageOfSessions":null}, {"name":"Ágios Andónios","state":"Thessaly","territory":"","country":"Greece","latitude":39.20159851,"longitude":22.47702968,"population":87,"stateCapital":false,"nationalCapital":false,"pk":null,"quiz":"europe","code":null,"archived":false,"percentageOfSessions":null}, {"name":"Ágios Apóstolos o Néos","state":"Thessaly","territory":"","country":"Greece","latitude":39.32721876,"longitude":23.01283261,"population":177,"stateCapital":false,"nationalCapital":false,"pk":null,"quiz":"europe","code":null,"archived":false,"percentageOfSessions":null}, {"name":"Ágios Vissários","state":"Thessaly","territory":"","country":"Greece","latitude":39.29578539,"longitude":22.12455719,"population":129,"stateCapital":false,"nationalCapital":false,"pk":null,"quiz":"europe","code":null,"archived":false,"percentageOfSessions":null}, {"name":"Ágios Vissaríon","state":"Thessaly","territory":"","country":"Greece","latitude":39.46888508,"longitude":21.61760081,"population":626,"stateCapital":false,"nationalCapital":false,"pk":null,"quiz":"europe","code":null,"archived":false,"percentageOfSessions":null}, {"name":"Ágios Vlásios","state":"Thessaly","territory":"","country":"Greece","latitude":39.33978188,"longitude":23.0652823,"population":320,"stateCapital":false,"nationalCapital":false,"pk":null,"quiz":"europe","code":null,"archived":false,"percentageOfSessions":null}, {"name":"Ágios Geórgios","state":"Thessaly","territory":"","country":"Greece","latitude":39.45120142,"longitude":22.3379016,"population":139,"stateCapital":false,"nationalCapital":false,"pk":null,"quiz":"europe","code":null,"archived":false,"percentageOfSessions":null}, {"name":"Ágios Geórgios","state":"Thessaly","territory":"","country":"Greece","latitude":39.45120142,"longitude":22.3379016,"population":171,"stateCapital":false,"nationalCapital":false,"pk":null,"quiz":"europe","code":null,"archived":false,"percentageOfSessions":null}, {"name":"Ágios Geórgios","state":"Thessaly","territory":"","country":"Greece","latitude":39.29460857,"longitude":21.83311357,"population":389,"stateCapital":false,"nationalCapital":false,"pk":null,"quiz":"europe","code":null,"archived":false,"percentageOfSessions":null}, {"name":"Ágios Geórgios","state":"Thessaly","territory":"","country":"Greece","latitude":39.2897564,"longitude":22.8796665,"population":41,"stateCapital":false,"nationalCapital":false,"pk":null,"quiz":"europe","code":null,"archived":false,"percentageOfSessions":null}, {"name":"Ágios Geórgios","state":"Thessaly","territory":"","country":"Greece","latitude":39.2897564,"longitude":22.8796665,"population":70,"stateCapital":false,"nationalCapital":false,"pk":null,"quiz":"europe","code":null,"archived":false,"percentageOfSessions":null}, {"name":"Ágios Geórgios","state":"Thessaly","territory":"","country":"Greece","latitude":39.2897564,"longitude":22.8796665,"population":13,"stateCapital":false,"nationalCapital":false,"pk":null,"quiz":"europe","code":null,"archived":false,"percentageOfSessions":null}, {"name":"Ágios Geórgios","state":"Thessaly","territory":"","country":"Greece","latitude":39.35918411,"longitude":21.32376236,"population":12,"stateCapital":false,"nationalCapital":false,"pk":null,"quiz":"europe","code":null,"archived":false,"percentageOfSessions":null}, {"name":"Ágios Geórgios","state":"Thessaly","territory":"","country":"Greece","latitude":39.35918411,"longitude":21.32376236,"population":48,"stateCapital":false,"nationalCapital":false,"pk":null,"quiz":"europe","code":null,"archived":false,"percentageOfSessions":null}, {"name":"Ágios Geórgios Nilías","state":"Thessaly","territory":"","country":"Greece","latitude":39.34148798,"longitude":23.08401101,"population":141,"stateCapital":false,"nationalCapital":false,"pk":null,"quiz":"europe","code":null,"archived":false,"percentageOfSessions":null}, {"name":"Ágios Geórgios Ferón","state":"Thessaly","territory":"","country":"Greece","latitude":39.36638914,"longitude":22.77626188,"population":688,"stateCapital":false,"nationalCapital":false,"pk":null,"quiz":"europe","code":null,"archived":false,"percentageOfSessions":null}, {"name":"Ágios Dhimítrios","state":"Thessaly","territory":"","country":"Greece","latitude":39.51254257,"longitude":22.11119685,"population":97,"stateCapital":false,"nationalCapital":false,"pk":null,"quiz":"europe","code":null,"archived":false,"percentageOfSessions":null}, {"name":"Ágios Dhimítrios","state":"Thessaly","territory":"","country":"Greece","latitude":39.0117085,"longitude":23.02329747,"population":27,"stateCapital":false,"nationalCapital":false,"pk":null,"quiz":"europe","code":null,"archived":false,"percentageOfSessions":null}, {"name":"Ágios Dhimítrios","state":"Thessaly","territory":"","country":"Greece","latitude":39.0117085,"longitude":23.02329747,"population":244,"stateCapital":false,"nationalCapital":false,"pk":null,"quiz":"europe","code":null,"archived":false,"percentageOfSessions":null}, {"name":"Ágios Dhimítrios","state":"Thessaly","territory":"","country":"Greece","latitude":39.0117085,"longitude":23.02329747,"population":8,"stateCapital":false,"nationalCapital":false,"pk":null,"quiz":"europe","code":null,"archived":false,"percentageOfSessions":null}, {"name":"Ágios Dhimítrios","state":"Thessaly","territory":"","country":"Greece","latitude":39.0117085,"longitude":23.02329747,"population":142,"stateCapital":false,"nationalCapital":false,"pk":null,"quiz":"europe","code":null,"archived":false,"percentageOfSessions":null}, {"name":"Ágios Dhimítrios","state":"Thessaly","territory":"","country":"Greece","latitude":39.77303277,"longitude":21.54797196,"population":111,"stateCapital":false,"nationalCapital":false,"pk":null,"quiz":"europe","code":null,"archived":false,"percentageOfSessions":null}, {"name":"Ágios Dhimítrios","state":"Thessaly","territory":"","country":"Greece","latitude":39.77303277,"longitude":21.54797196,"population":26,"stateCapital":false,"nationalCapital":false,"pk":null,"quiz":"europe","code":null,"archived":false,"percentageOfSessions":null}, {"name":"Ágios Theódhoros","state":"Thessaly","territory":"","country":"Greece","latitude":39.36653243,"longitude":22.0019973,"population":687,"stateCapital":false,"nationalCapital":false,"pk":null,"quiz":"europe","code":null,"archived":false,"percentageOfSessions":null}, {"name":"Ágios Ioánnis","state":"Thessaly","territory":"","country":"Greece","latitude":39.02376637,"longitude":22.8060313,"population":11,"stateCapital":false,"nationalCapital":false,"pk":null,"quiz":"europe","code":null,"archived":false,"percentageOfSessions":null}, {"name":"Ágios Ioánnis","state":"Thessaly","territory":"","country":"Greece","latitude":39.02376637,"longitude":22.8060313,"population":62,"stateCapital":false,"nationalCapital":false,"pk":null,"quiz":"europe","code":null,"archived":false,"percentageOfSessions":null}, {"name":"Ágios Ioánnis","state":"Thessaly","territory":"","country":"Greece","latitude":39.02376637,"longitude":22.8060313,"population":5,"stateCapital":false,"nationalCapital":false,"pk":null,"quiz":"europe","code":null,"archived":false,"percentageOfSessions":null}, {"name":"Ágios Ioánnis (T.K.Agíu Dhimitríu Pilíu)","state":"Thessaly","territory":"","country":"Greece","latitude":39.02376637,"longitude":22.8060313,"population":183,"stateCapital":false,"nationalCapital":false,"pk":null,"quiz":"europe","code":null,"archived":false,"percentageOfSessions":null}, {"name":"Ágios Ioánnis (T.K.Muresíu)","state":"Thessaly","territory":"","country":"Greece","latitude":39.02376637,"longitude":22.8060313,"population":39,"stateCapital":false,"nationalCapital":false,"pk":null,"quiz":"europe","code":null,"archived":false,"percentageOfSessions":null}, {"name":"Ágios Ioánnis","state":"Thessaly","territory":"","country":"Greece","latitude":39.43333634,"longitude":21.55594321,"population":77,"stateCapital":false,"nationalCapital":false,"pk":null,"quiz":"europe","code":null,"archived":false,"percentageOfSessions":null}, {"name":"Ágios Konstandínos","state":"Thessaly","territory":"","country":"Greece","latitude":39.89471784,"longitude":22.6069038,"population":13,"stateCapital":false,"nationalCapital":false,"pk":null,"quiz":"europe","code":null,"archived":false,"percentageOfSessions":null}, {"name":"Ágios Konstandínos","state":"Thessaly","territory":"","country":"Greece","latitude":39.89471784,"longitude":22.6069038,"population":143,"stateCapital":false,"nationalCapital":false,"pk":null,"quiz":"europe","code":null,"archived":false,"percentageOfSessions":null}, {"name":"Ágios Konstandínos","state":"Thessaly","territory":"","country":"Greece","latitude":39.44076103,"longitude":21.55307447,"population":24,"stateCapital":false,"nationalCapital":false,"pk":null,"quiz":"europe","code":null,"archived":false,"percentageOfSessions":null}, {"name":"Ágios Lavréndios","state":"Thessaly","territory":"","country":"Greece","latitude":39.35870054,"longitude":23.05782035,"population":267,"stateCapital":false,"nationalCapital":false,"pk":null,"quiz":"europe","code":null,"archived":false,"percentageOfSessions":null}, {"name":"Ágios Minás","state":"Thessaly","territory":"","country":"Greece","latitude":39.31421176,"longitude":23.02211592,"population":143,"stateCapital":false,"nationalCapital":false,"pk":null,"quiz":"europe","code":null,"archived":false,"percentageOfSessions":null}, {"name":"Ágios Nikólaos","state":"Thessaly","territory":"","country":"Greece","latitude":39.32570786,"longitude":21.80963495,"population":49,"stateCapital":false,"nationalCapital":false,"pk":null,"quiz":"europe","code":null,"archived":false,"percentageOfSessions":null}, {"name":"Ágios Nikólaos","state":"Thessaly","territory":"","country":"Greece","latitude":39.54696944,"longitude":21.35938764,"population":18,"stateCapital":false,"nationalCapital":false,"pk":null,"quiz":"europe","code":null,"archived":false,"percentageOfSessions":null}, {"name":"Ágios Nikólaos","state":"Thessaly","territory":"","country":"Greece","latitude":39.54696944,"longitude":21.35938764,"population":41,"stateCapital":false,"nationalCapital":false,"pk":null,"quiz":"europe","code":null,"archived":false,"percentageOfSessions":null}, {"name":"Ágios Onúfrios","state":"Thessaly","territory":"","country":"Greece","latitude":39.38168772,"longitude":22.97012396,"population":468,"stateCapital":false,"nationalCapital":false,"pk":null,"quiz":"europe","code":null,"archived":false,"percentageOfSessions":null}, {"name":"Ágios Pétros","state":"Thessaly","territory":"","country":"Greece","latitude":39.18622349,"longitude":23.9222293,"population":22,"stateCapital":false,"nationalCapital":false,"pk":null,"quiz":"europe","code":null,"archived":false,"percentageOfSessions":null}, {"name":"Ágios Prokópios","state":"Thessaly","territory":"","country":"Greece","latitude":39.46835,"longitude":21.53396133,"population":92,"stateCapital":false,"nationalCapital":false,"pk":null,"quiz":"europe","code":null,"archived":false,"percentageOfSessions":null}, {"name":"Ágios Harálambos","state":"Thessaly","territory":"","country":"Greece","latitude":39.28580888,"longitude":22.60797736,"population":27,"stateCapital":false,"nationalCapital":false,"pk":null,"quiz":"europe","code":null,"archived":false,"percentageOfSessions":null}, {"name":"Agiófillon","state":"Thessaly","territory":"","country":"Greece","latitude":39.86060973,"longitude":21.55990473,"population":540,"stateCapital":false,"nationalCapital":false,"pk":null,"quiz":"europe","code":null,"archived":false,"percentageOfSessions":null}, {"name":"Agnanderí","state":"Thessaly","territory":"","country":"Greece","latitude":39.41717385,"longitude":22.61547098,"population":177,"stateCapital":false,"nationalCapital":false,"pk":null,"quiz":"europe","code":null,"archived":false,"percentageOfSessions":null}, {"name":"Agnanderón","state":"Thessaly","territory":"","country":"Greece","latitude":39.48129188,"longitude":21.84671102,"population":1773,"stateCapital":false,"nationalCapital":false,"pk":null,"quiz":"europe","code":null,"archived":false,"percentageOfSessions":null}, {"name":"Agnandiá","state":"Thessaly","territory":"","country":"Greece","latitude":39.86490213,"longitude":21.46299968,"population":290,"stateCapital":false,"nationalCapital":false,"pk":null,"quiz":"europe","code":null,"archived":false,"percentageOfSessions":null}, {"name":"Agnóndas","state":"Thessaly","territory":"","country":"Greece","latitude":39.08018142,"longitude":23.71114107,"population":22,"stateCapital":false,"nationalCapital":false,"pk":null,"quiz":"europe","code":null,"archived":false,"percentageOfSessions":null}, {"name":"Agreliá","state":"Thessaly","territory":"","country":"Greece","latitude":39.71709692,"longitude":21.92952222,"population":195,"stateCapital":false,"nationalCapital":false,"pk":null,"quiz":"europe","code":null,"archived":false,"percentageOfSessions":null}, {"name":"Agriá","state":"Thessaly","territory":"","country":"Greece","latitude":39.33806658,"longitude":23.00644617,"population":5171,"stateCapital":false,"nationalCapital":false,"pk":null,"quiz":"europe","code":null,"archived":false,"percentageOfSessions":null}, {"name":"Agrokípion","state":"Thessaly","territory":"","country":"Greece","latitude":39.42189438,"longitude":22.68270837,"population":65,"stateCapital":false,"nationalCapital":false,"pk":null,"quiz":"europe","code":null,"archived":false,"percentageOfSessions":null}, {"name":"Aerinón","state":"Thessaly","territory":"","country":"Greece","latitude":39.33149272,"longitude":22.76107508,"population":499,"stateCapital":false,"nationalCapital":false,"pk":null,"quiz":"europe","code":null,"archived":false,"percentageOfSessions":null}, {"name":"Aetólofos","state":"Thessaly","territory":"","country":"Greece","latitude":39.68464459,"longitude":22.72323696,"population":317,"stateCapital":false,"nationalCapital":false,"pk":null,"quiz":"europe","code":null,"archived":false,"percentageOfSessions":null}, {"name":"Aetorráhi","state":"Thessaly","territory":"","country":"Greece","latitude":39.82963793,"longitude":22.19176071,"population":77,"stateCapital":false,"nationalCapital":false,"pk":null,"quiz":"europe","code":null,"archived":false,"percentageOfSessions":null}, {"name":"Aetós","state":"Thessaly","territory":"","country":"Greece","latitude":39.46008183,"longitude":21.28236814,"population":24,"stateCapital":false,"nationalCapital":false,"pk":null,"quiz":"europe","code":null,"archived":false,"percentageOfSessions":null}, {"name":"Aetohórion","state":"Thessaly","territory":"","country":"Greece","latitude":39.2835407,"longitude":21.46529768,"population":83,"stateCapital":false,"nationalCapital":false,"pk":null,"quiz":"europe","code":null,"archived":false,"percentageOfSessions":null}, {"name":"Ázoros","state":"Thessaly","territory":"","country":"Greece","latitude":39.99824298,"longitude":22.07724815,"population":379,"stateCapital":false,"nationalCapital":false,"pk":null,"quiz":"europe","code":null,"archived":false,"percentageOfSessions":null}, {"name":"Aidhonohórion","state":"Thessaly","territory":"","country":"Greece","latitude":39.09157078,"longitude":21.96861773,"population":234,"stateCapital":false,"nationalCapital":false,"pk":null,"quiz":"europe","code":null,"archived":false,"percentageOfSessions":null}, {"name":"Aidhón","state":"Thessaly","territory":"","country":"Greece","latitude":39.60267353,"longitude":21.46677824,"population":140,"stateCapital":false,"nationalCapital":false,"pk":null,"quiz":"europe","code":null,"archived":false,"percentageOfSessions":null}, {"name":"Athamanía","state":"Thessaly","territory":"","country":"Greece","latitude":39.52392637,"longitude":21.24841251,"population":31,"stateCapital":false,"nationalCapital":false,"pk":null,"quiz":"europe","code":null,"archived":false,"percentageOfSessions":null}, {"name":"Athéaton","state":"Thessaly","territory":"","country":"Greece","latitude":39.16934328,"longitude":23.61958968,"population":12,"stateCapital":false,"nationalCapital":false,"pk":null,"quiz":"europe","code":null,"archived":false,"percentageOfSessions":null}, {"name":"Egáni","state":"Thessaly","territory":"","country":"Greece","latitude":39.95047336,"longitude":22.60850318,"population":526,"stateCapital":false,"nationalCapital":false,"pk":null,"quiz":"europe","code":null,"archived":false,"percentageOfSessions":null}, {"name":"Aidhínion","state":"Thessaly","territory":"","country":"Greece","latitude":39.24420757,"longitude":22.74335078,"population":307,"stateCapital":false,"nationalCapital":false,"pk":null,"quiz":"europe","code":null,"archived":false,"percentageOfSessions":null}, {"name":"Ákri","state":"Thessaly","territory":"","country":"Greece","latitude":39.99509007,"longitude":21.96358006,"population":189,"stateCapital":false,"nationalCapital":false,"pk":null,"quiz":"europe","code":null,"archived":false,"percentageOfSessions":null}, {"name":"Alatás (nisís)","state":"Thessaly","territory":"","country":"Greece","latitude":39.15090686,"longitude":23.1974796,"population":6,"stateCapital":false,"nationalCapital":false,"pk":null,"quiz":"europe","code":null,"archived":false,"percentageOfSessions":null}, {"name":"Aleksandhriní","state":"Thessaly","territory":"","country":"Greece","latitude":39.92398772,"longitude":22.71009611,"population":85,"stateCapital":false,"nationalCapital":false,"pk":null,"quiz":"europe","code":null,"archived":false,"percentageOfSessions":null}, {"name":"Álli Meriá","state":"Thessaly","territory":"","country":"Greece","latitude":39.36853239,"longitude":22.9831431,"population":759,"stateCapital":false,"nationalCapital":false,"pk":null,"quiz":"europe","code":null,"archived":false,"percentageOfSessions":null}, {"name":"Almirós","state":"Thessaly","territory":"","country":"Greece","latitude":39.17869158,"longitude":22.75679424,"population":7826,"stateCapital":false,"nationalCapital":false,"pk":null,"quiz":"europe","code":null,"archived":false,"percentageOfSessions":null}, {"name":"Alónnisos","state":"Thessaly","territory":"","country":"Greece","latitude":39.14667312,"longitude":23.84260788,"population":203,"stateCapital":false,"nationalCapital":false,"pk":null,"quiz":"europe","code":null,"archived":false,"percentageOfSessions":null}, {"name":"Amaliápolis","state":"Thessaly","territory":"","country":"Greece","latitude":39.16537923,"longitude":22.88690263,"population":514,"stateCapital":false,"nationalCapital":false,"pk":null,"quiz":"europe","code":null,"archived":false,"percentageOfSessions":null}, {"name":"Amárandon","state":"Thessaly","territory":"","country":"Greece","latitude":39.69787205,"longitude":21.38608171,"population":82,"stateCapital":false,"nationalCapital":false,"pk":null,"quiz":"europe","code":null,"archived":false,"percentageOfSessions":null}, {"name":"Amárandos","state":"Thessaly","territory":"","country":"Greece","latitude":39.20870863,"longitude":21.85761392,"population":171,"stateCapital":false,"nationalCapital":false,"pk":null,"quiz":"europe","code":null,"archived":false,"percentageOfSessions":null}, {"name":"Ammudhiá","state":"Thessaly","territory":"","country":"Greece","latitude":39.52859387,"longitude":21.68584088,"population":75,"stateCapital":false,"nationalCapital":false,"pk":null,"quiz":"europe","code":null,"archived":false,"percentageOfSessions":null}, {"name":"Amúrion","state":"Thessaly","territory":"","country":"Greece","latitude":39.78042574,"longitude":22.08881365,"population":308,"stateCapital":false,"nationalCapital":false,"pk":null,"quiz":"europe","code":null,"archived":false,"percentageOfSessions":null}, {"name":"Ambelákia","state":"Thessaly","territory":"","country":"Greece","latitude":39.85081687,"longitude":22.55510866,"population":384,"stateCapital":false,"nationalCapital":false,"pk":null,"quiz":"europe","code":null,"archived":false,"percentageOfSessions":null}, {"name":"Ambelákia","state":"Thessaly","territory":"","country":"Greece","latitude":39.21230174,"longitude":21.92641551,"population":14,"stateCapital":false,"nationalCapital":false,"pk":null,"quiz":"europe","code":null,"archived":false,"percentageOfSessions":null}, {"name":"Ambelía","state":"Thessaly","territory":"","country":"Greece","latitude":39.30763245,"longitude":22.49020436,"population":231,"stateCapital":false,"nationalCapital":false,"pk":null,"quiz":"europe","code":null,"archived":false,"percentageOfSessions":null}, {"name":"Ambélia","state":"Thessaly","territory":"","country":"Greece","latitude":39.76800367,"longitude":22.03353557,"population":255,"stateCapital":false,"nationalCapital":false,"pk":null,"quiz":"europe","code":null,"archived":false,"percentageOfSessions":null}, {"name":"Ambélia","state":"Thessaly","territory":"","country":"Greece","latitude":39.69123959,"longitude":21.51489151,"population":159,"stateCapital":false,"nationalCapital":false,"pk":null,"quiz":"europe","code":null,"archived":false,"percentageOfSessions":null}, {"name":"Ambelikón","state":"Thessaly","territory":"","country":"Greece","latitude":39.27513161,"longitude":21.85559969,"population":358,"stateCapital":false,"nationalCapital":false,"pk":null,"quiz":"europe","code":null,"archived":false,"percentageOfSessions":null}, {"name":"Ámbelos","state":"Thessaly","territory":"","country":"Greece","latitude":39.28531226,"longitude":22.04128975,"population":433,"stateCapital":false,"nationalCapital":false,"pk":null,"quiz":"europe","code":null,"archived":false,"percentageOfSessions":null}, {"name":"Ambelohórion","state":"Thessaly","territory":"","country":"Greece","latitude":39.75421431,"longitude":21.33280497,"population":90,"stateCapital":false,"nationalCapital":false,"pk":null,"quiz":"europe","code":null,"archived":false,"percentageOfSessions":null}, {"name":"Ambelón","state":"Thessaly","territory":"","country":"Greece","latitude":39.74255742,"longitude":22.35888687,"population":6042,"stateCapital":false,"nationalCapital":false,"pk":null,"quiz":"europe","code":null,"archived":false,"percentageOfSessions":null}, {"name":"Ambelón","state":"Thessaly","territory":"","country":"Greece","latitude":39.41585874,"longitude":22.16682577,"population":123,"stateCapital":false,"nationalCapital":false,"pk":null,"quiz":"europe","code":null,"archived":false,"percentageOfSessions":null}, {"name":"Amigdhaléa","state":"Thessaly","territory":"","country":"Greece","latitude":39.65242392,"longitude":22.26054453,"population":216,"stateCapital":false,"nationalCapital":false,"pk":null,"quiz":"europe","code":null,"archived":false,"percentageOfSessions":null}, {"name":"Amigdhalí","state":"Thessaly","territory":"","country":"Greece","latitude":39.60229771,"longitude":22.72313574,"population":14,"stateCapital":false,"nationalCapital":false,"pk":null,"quiz":"europe","code":null,"archived":false,"percentageOfSessions":null}, {"name":"Amigdhalí","state":"Thessaly","territory":"","country":"Greece","latitude":39.38456488,"longitude":21.7059315,"population":69,"stateCapital":false,"nationalCapital":false,"pk":null,"quiz":"europe","code":null,"archived":false,"percentageOfSessions":null}, {"name":"Amfithéa","state":"Thessaly","territory":"","country":"Greece","latitude":39.71770435,"longitude":22.48719353,"population":29,"stateCapital":false,"nationalCapital":false,"pk":null,"quiz":"europe","code":null,"archived":false,"percentageOfSessions":null}, {"name":"Anávra","state":"Thessaly","territory":"","country":"Greece","latitude":39.67607327,"longitude":22.70007961,"population":594,"stateCapital":false,"nationalCapital":false,"pk":null,"quiz":"europe","code":null,"archived":false,"percentageOfSessions":null}, {"name":"Anávra","state":"Thessaly","territory":"","country":"Greece","latitude":39.18802336,"longitude":22.09124533,"population":803,"stateCapital":false,"nationalCapital":false,"pk":null,"quiz":"europe","code":null,"archived":false,"percentageOfSessions":null}, {"name":"Anávra","state":"Thessaly","territory":"","country":"Greece","latitude":39.07091033,"longitude":22.55009931,"population":755,"stateCapital":false,"nationalCapital":false,"pk":null,"quiz":"europe","code":null,"archived":false,"percentageOfSessions":null}, {"name":"Anagénnisis","state":"Thessaly","territory":"","country":"Greece","latitude":39.55357337,"longitude":22.61877656,"population":64,"stateCapital":false,"nationalCapital":false,"pk":null,"quiz":"europe","code":null,"archived":false,"percentageOfSessions":null}, {"name":"Anakasiá","state":"Thessaly","territory":"","country":"Greece","latitude":39.37903466,"longitude":22.97400202,"population":1020,"stateCapital":false,"nationalCapital":false,"pk":null,"quiz":"europe","code":null,"archived":false,"percentageOfSessions":null}, {"name":"Análipsi","state":"Thessaly","territory":"","country":"Greece","latitude":39.46968921,"longitude":23.1082024,"population":36,"stateCapital":false,"nationalCapital":false,"pk":null,"quiz":"europe","code":null,"archived":false,"percentageOfSessions":null}, {"name":"Análipsi","state":"Thessaly","territory":"","country":"Greece","latitude":39.78223435,"longitude":21.39266411,"population":2,"stateCapital":false,"nationalCapital":false,"pk":null,"quiz":"europe","code":null,"archived":false,"percentageOfSessions":null}, {"name":"Anatolí","state":"Thessaly","territory":"","country":"Greece","latitude":39.74427573,"longitude":22.69183993,"population":276,"stateCapital":false,"nationalCapital":false,"pk":null,"quiz":"europe","code":null,"archived":false,"percentageOfSessions":null}, {"name":"Anemútsa","state":"Thessaly","territory":"","country":"Greece","latitude":39.35473386,"longitude":23.01530314,"population":3,"stateCapital":false,"nationalCapital":false,"pk":null,"quiz":"europe","code":null,"archived":false,"percentageOfSessions":null}, {"name":"Anílion","state":"Thessaly","territory":"","country":"Greece","latitude":39.41644962,"longitude":23.13157281,"population":353,"stateCapital":false,"nationalCapital":false,"pk":null,"quiz":"europe","code":null,"archived":false,"percentageOfSessions":null}, {"name":"Anthirón","state":"Thessaly","territory":"","country":"Greece","latitude":39.34479344,"longitude":21.45760661,"population":356,"stateCapital":false,"nationalCapital":false,"pk":null,"quiz":"europe","code":null,"archived":false,"percentageOfSessions":null}, {"name":"Anthirón","state":"Thessaly","territory":"","country":"Greece","latitude":39.34479344,"longitude":21.45760661,"population":70,"stateCapital":false,"nationalCapital":false,"pk":null,"quiz":"europe","code":null,"archived":false,"percentageOfSessions":null}, {"name":"Anthótopos","state":"Thessaly","territory":"","country":"Greece","latitude":39.18119085,"longitude":22.59915882,"population":87,"stateCapital":false,"nationalCapital":false,"pk":null,"quiz":"europe","code":null,"archived":false,"percentageOfSessions":null}, {"name":"Anthúsa","state":"Thessaly","territory":"","country":"Greece","latitude":39.65938738,"longitude":21.21652641,"population":97,"stateCapital":false,"nationalCapital":false,"pk":null,"quiz":"europe","code":null,"archived":false,"percentageOfSessions":null}, {"name":"Anthohórion","state":"Thessaly","territory":"","country":"Greece","latitude":39.35177116,"longitude":21.66238568,"population":209,"stateCapital":false,"nationalCapital":false,"pk":null,"quiz":"europe","code":null,"archived":false,"percentageOfSessions":null}, {"name":"Aniksiátiko","state":"Thessaly","territory":"","country":"Greece","latitude":39.3392013,"longitude":21.65136046,"population":5,"stateCapital":false,"nationalCapital":false,"pk":null,"quiz":"europe","code":null,"archived":false,"percentageOfSessions":null}, {"name":"Andalláksima","state":"Thessaly","territory":"","country":"Greece","latitude":39.60268942,"longitude":21.60641173,"population":114,"stateCapital":false,"nationalCapital":false,"pk":null,"quiz":"europe","code":null,"archived":false,"percentageOfSessions":null}, {"name":"Áno Argiropúlion","state":"Thessaly","territory":"","country":"Greece","latitude":39.86901687,"longitude":22.33879577,"population":1,"stateCapital":false,"nationalCapital":false,"pk":null,"quiz":"europe","code":null,"archived":false,"percentageOfSessions":null}, {"name":"Áno Vasiliká","state":"Thessaly","territory":"","country":"Greece","latitude":39.33409217,"longitude":22.55548044,"population":134,"stateCapital":false,"nationalCapital":false,"pk":null,"quiz":"europe","code":null,"archived":false,"percentageOfSessions":null}, {"name":"Áno Vólos","state":"Thessaly","territory":"","country":"Greece","latitude":39.37703656,"longitude":22.97930044,"population":535,"stateCapital":false,"nationalCapital":false,"pk":null,"quiz":"europe","code":null,"archived":false,"percentageOfSessions":null}, {"name":"Áno Vúnena","state":"Thessaly","territory":"","country":"Greece","latitude":39.48254066,"longitude":22.26597624,"population":53,"stateCapital":false,"nationalCapital":false,"pk":null,"quiz":"europe","code":null,"archived":false,"percentageOfSessions":null}, {"name":"Áno Gadzéa","state":"Thessaly","territory":"","country":"Greece","latitude":39.31704781,"longitude":23.10386582,"population":302,"stateCapital":false,"nationalCapital":false,"pk":null,"quiz":"europe","code":null,"archived":false,"percentageOfSessions":null}, {"name":"Áno Lehónia","state":"Thessaly","territory":"","country":"Greece","latitude":39.32409542,"longitude":23.05283181,"population":1058,"stateCapital":false,"nationalCapital":false,"pk":null,"quiz":"europe","code":null,"archived":false,"percentageOfSessions":null}, {"name":"Áno Mavrólofos","state":"Thessaly","territory":"","country":"Greece","latitude":39.22217776,"longitude":22.65843135,"population":26,"stateCapital":false,"nationalCapital":false,"pk":null,"quiz":"europe","code":null,"archived":false,"percentageOfSessions":null}, {"name":"Áno Paleokariá","state":"Thessaly","territory":"","country":"Greece","latitude":39.41285618,"longitude":21.48644339,"population":29,"stateCapital":false,"nationalCapital":false,"pk":null,"quiz":"europe","code":null,"archived":false,"percentageOfSessions":null}, {"name":"Anógion","state":"Thessaly","territory":"","country":"Greece","latitude":39.28912432,"longitude":22.05850244,"population":163,"stateCapital":false,"nationalCapital":false,"pk":null,"quiz":"europe","code":null,"archived":false,"percentageOfSessions":null}, {"name":"Anohórion","state":"Thessaly","territory":"","country":"Greece","latitude":39.31586008,"longitude":22.31991182,"population":166,"stateCapital":false,"nationalCapital":false,"pk":null,"quiz":"europe","code":null,"archived":false,"percentageOfSessions":null}, {"name":"Apidhéa","state":"Thessaly","territory":"","country":"Greece","latitude":39.19523549,"longitude":21.93814501,"population":339,"stateCapital":false,"nationalCapital":false,"pk":null,"quiz":"europe","code":null,"archived":false,"percentageOfSessions":null}, {"name":"Apóstoli","state":"Thessaly","territory":"","country":"Greece","latitude":39.57593744,"longitude":21.72904788,"population":406,"stateCapital":false,"nationalCapital":false,"pk":null,"quiz":"europe","code":null,"archived":false,"percentageOfSessions":null}, {"name":"Argalastí","state":"Thessaly","territory":"","country":"Greece","latitude":39.22332896,"longitude":23.21587192,"population":1304,"stateCapital":false,"nationalCapital":false,"pk":null,"quiz":"europe","code":null,"archived":false,"percentageOfSessions":null}, {"name":"Argithéa","state":"Thessaly","territory":"","country":"Greece","latitude":39.29545349,"longitude":22.64117552,"population":77,"stateCapital":false,"nationalCapital":false,"pk":null,"quiz":"europe","code":null,"archived":false,"percentageOfSessions":null}, {"name":"Argithéa","state":"Thessaly","territory":"","country":"Greece","latitude":39.3534114,"longitude":21.53684792,"population":204,"stateCapital":false,"nationalCapital":false,"pk":null,"quiz":"europe","code":null,"archived":false,"percentageOfSessions":null}, {"name":"Argilohórion","state":"Thessaly","territory":"","country":"Greece","latitude":39.21743539,"longitude":22.64470311,"population":65,"stateCapital":false,"nationalCapital":false,"pk":null,"quiz":"europe","code":null,"archived":false,"percentageOfSessions":null}, {"name":"Argiréika","state":"Thessaly","territory":"","country":"Greece","latitude":39.27116003,"longitude":21.58928937,"population":84,"stateCapital":false,"nationalCapital":false,"pk":null,"quiz":"europe","code":null,"archived":false,"percentageOfSessions":null}, {"name":"Argiréika","state":"Thessaly","territory":"","country":"Greece","latitude":39.31062752,"longitude":23.12699134,"population":52,"stateCapital":false,"nationalCapital":false,"pk":null,"quiz":"europe","code":null,"archived":false,"percentageOfSessions":null}, {"name":"Argírion","state":"Thessaly","territory":"","country":"Greece","latitude":39.18974193,"longitude":21.41582081,"population":152,"stateCapital":false,"nationalCapital":false,"pk":null,"quiz":"europe","code":null,"archived":false,"percentageOfSessions":null}, {"name":"Argirómilos","state":"Thessaly","territory":"","country":"Greece","latitude":39.53011933,"longitude":22.22690409,"population":80,"stateCapital":false,"nationalCapital":false,"pk":null,"quiz":"europe","code":null,"archived":false,"percentageOfSessions":null}, {"name":"Argiropúlion","state":"Thessaly","territory":"","country":"Greece","latitude":39.82409493,"longitude":22.30600748,"population":1631,"stateCapital":false,"nationalCapital":false,"pk":null,"quiz":"europe","code":null,"archived":false,"percentageOfSessions":null}, {"name":"Ardhánion","state":"Thessaly","territory":"","country":"Greece","latitude":39.62844078,"longitude":21.78580741,"population":374,"stateCapital":false,"nationalCapital":false,"pk":null,"quiz":"europe","code":null,"archived":false,"percentageOfSessions":null}, {"name":"Ardhánovon","state":"Thessaly","territory":"","country":"Greece","latitude":39.16902206,"longitude":21.38046569,"population":46,"stateCapital":false,"nationalCapital":false,"pk":null,"quiz":"europe","code":null,"archived":false,"percentageOfSessions":null}, {"name":"Armatolikón","state":"Thessaly","territory":"","country":"Greece","latitude":39.4843567,"longitude":21.3079367,"population":86,"stateCapital":false,"nationalCapital":false,"pk":null,"quiz":"europe","code":null,"archived":false,"percentageOfSessions":null}, {"name":"Arménion","state":"Thessaly","territory":"","country":"Greece","latitude":39.48659603,"longitude":22.69535221,"population":784,"stateCapital":false,"nationalCapital":false,"pk":null,"quiz":"europe","code":null,"archived":false,"percentageOfSessions":null}, {"name":"Arpakiá","state":"Thessaly","territory":"","country":"Greece","latitude":39.37980674,"longitude":21.61939416,"population":24,"stateCapital":false,"nationalCapital":false,"pk":null,"quiz":"europe","code":null,"archived":false,"percentageOfSessions":null}, {"name":"Artesianón","state":"Thessaly","territory":"","country":"Greece","latitude":39.40089492,"longitude":21.89278671,"population":1326,"stateCapital":false,"nationalCapital":false,"pk":null,"quiz":"europe","code":null,"archived":false,"percentageOfSessions":null}, {"name":"Asimohórion","state":"Thessaly","territory":"","country":"Greece","latitude":39.17068696,"longitude":22.16209549,"population":311,"stateCapital":false,"nationalCapital":false,"pk":null,"quiz":"europe","code":null,"archived":false,"percentageOfSessions":null}, {"name":"Asprógia","state":"Thessaly","territory":"","country":"Greece","latitude":39.31640711,"longitude":22.63674414,"population":178,"stateCapital":false,"nationalCapital":false,"pk":null,"quiz":"europe","code":null,"archived":false,"percentageOfSessions":null}, {"name":"Asprokklisiá","state":"Thessaly","territory":"","country":"Greece","latitude":39.84857994,"longitude":21.66291238,"population":511,"stateCapital":false,"nationalCapital":false,"pk":null,"quiz":"europe","code":null,"archived":false,"percentageOfSessions":null}, {"name":"Aspróhoma","state":"Thessaly","territory":"","country":"Greece","latitude":40.01502073,"longitude":22.19936523,"population":103,"stateCapital":false,"nationalCapital":false,"pk":null,"quiz":"europe","code":null,"archived":false,"percentageOfSessions":null}, {"name":"Astrítsa","state":"Thessaly","territory":"","country":"Greece","latitude":39.44508728,"longitude":22.14317212,"population":119,"stateCapital":false,"nationalCapital":false,"pk":null,"quiz":"europe","code":null,"archived":false,"percentageOfSessions":null}, {"name":"Ávra","state":"Thessaly","territory":"","country":"Greece","latitude":39.38536994,"longitude":22.32494369,"population":29,"stateCapital":false,"nationalCapital":false,"pk":null,"quiz":"europe","code":null,"archived":false,"percentageOfSessions":null}, {"name":"Ávra","state":"Thessaly","territory":"","country":"Greece","latitude":39.71061332,"longitude":21.68752857,"population":344,"stateCapital":false,"nationalCapital":false,"pk":null,"quiz":"europe","code":null,"archived":false,"percentageOfSessions":null}, {"name":"Aféte","state":"Thessaly","territory":"","country":"Greece","latitude":39.28015066,"longitude":23.17927469,"population":332,"stateCapital":false,"nationalCapital":false,"pk":null,"quiz":"europe","code":null,"archived":false,"percentageOfSessions":null}, {"name":"Áfissos","state":"Thessaly","territory":"","country":"Greece","latitude":39.26947974,"longitude":23.16373571,"population":305,"stateCapital":false,"nationalCapital":false,"pk":null,"quiz":"europe","code":null,"archived":false,"percentageOfSessions":null}, {"name":"Ahelinádha","state":"Thessaly","territory":"","country":"Greece","latitude":39.82424117,"longitude":21.87576373,"population":98,"stateCapital":false,"nationalCapital":false,"pk":null,"quiz":"europe","code":null,"archived":false,"percentageOfSessions":null}, {"name":"Ahíllion","state":"Thessaly","territory":"","country":"Greece","latitude":39.53270127,"longitude":22.67148343,"population":199,"stateCapital":false,"nationalCapital":false,"pk":null,"quiz":"europe","code":null,"archived":false,"percentageOfSessions":null}, {"name":"Ahíllion","state":"Thessaly","territory":"","country":"Greece","latitude":39.53270127,"longitude":22.67148343,"population":200,"stateCapital":false,"nationalCapital":false,"pk":null,"quiz":"europe","code":null,"archived":false,"percentageOfSessions":null}, {"name":"Ahíllion","state":"Thessaly","territory":"","country":"Greece","latitude":39.00169637,"longitude":22.96094273,"population":610,"stateCapital":false,"nationalCapital":false,"pk":null,"quiz":"europe","code":null,"archived":false,"percentageOfSessions":null}, {"name":"Ahladhéa","state":"Thessaly","territory":"","country":"Greece","latitude":39.18967544,"longitude":22.11372456,"population":377,"stateCapital":false,"nationalCapital":false,"pk":null,"quiz":"europe","code":null,"archived":false,"percentageOfSessions":null}, {"name":"Ahladhéa","state":"Thessaly","territory":"","country":"Greece","latitude":39.83674436,"longitude":21.61666158,"population":92,"stateCapital":false,"nationalCapital":false,"pk":null,"quiz":"europe","code":null,"archived":false,"percentageOfSessions":null}, {"name":"Ahladhiás","state":"Thessaly","territory":"","country":"Greece","latitude":39.14433017,"longitude":23.46161662,"population":206,"stateCapital":false,"nationalCapital":false,"pk":null,"quiz":"europe","code":null,"archived":false,"percentageOfSessions":null}, {"name":"Ahladhohórion","state":"Thessaly","territory":"","country":"Greece","latitude":39.63518915,"longitude":22.01963493,"population":103,"stateCapital":false,"nationalCapital":false,"pk":null,"quiz":"europe","code":null,"archived":false,"percentageOfSessions":null}, {"name":"Vagénia","state":"Thessaly","territory":"","country":"Greece","latitude":39.37120849,"longitude":21.60924365,"population":23,"stateCapital":false,"nationalCapital":false,"pk":null,"quiz":"europe","code":null,"archived":false,"percentageOfSessions":null}, {"name":"Vathílakkos","state":"Thessaly","territory":"","country":"Greece","latitude":39.1265767,"longitude":21.9506749,"population":154,"stateCapital":false,"nationalCapital":false,"pk":null,"quiz":"europe","code":null,"archived":false,"percentageOfSessions":null}, {"name":"Vathírrevma","state":"Thessaly","territory":"","country":"Greece","latitude":39.44057329,"longitude":21.41071416,"population":35,"stateCapital":false,"nationalCapital":false,"pk":null,"quiz":"europe","code":null,"archived":false,"percentageOfSessions":null}, {"name":"Vakárion","state":"Thessaly","territory":"","country":"Greece","latitude":39.49321121,"longitude":21.35575323,"population":2,"stateCapital":false,"nationalCapital":false,"pk":null,"quiz":"europe","code":null,"archived":false,"percentageOfSessions":null}, {"name":"Valamándhrion","state":"Thessaly","territory":"","country":"Greece","latitude":39.54538044,"longitude":21.69747533,"population":116,"stateCapital":false,"nationalCapital":false,"pk":null,"quiz":"europe","code":null,"archived":false,"percentageOfSessions":null}, {"name":"Valanídha","state":"Thessaly","territory":"","country":"Greece","latitude":39.92437965,"longitude":22.04476277,"population":441,"stateCapital":false,"nationalCapital":false,"pk":null,"quiz":"europe","code":null,"archived":false,"percentageOfSessions":null}, {"name":"Valkánon","state":"Thessaly","territory":"","country":"Greece","latitude":39.40470507,"longitude":21.38689857,"population":32,"stateCapital":false,"nationalCapital":false,"pk":null,"quiz":"europe","code":null,"archived":false,"percentageOfSessions":null}, {"name":"Valtinón","state":"Thessaly","territory":"","country":"Greece","latitude":39.54640862,"longitude":21.65905541,"population":681,"stateCapital":false,"nationalCapital":false,"pk":null,"quiz":"europe","code":null,"archived":false,"percentageOfSessions":null}, {"name":"Vamvakú","state":"Thessaly","territory":"","country":"Greece","latitude":39.33439541,"longitude":22.41720364,"population":933,"stateCapital":false,"nationalCapital":false,"pk":null,"quiz":"europe","code":null,"archived":false,"percentageOfSessions":null}, {"name":"Varká","state":"Thessaly","territory":"","country":"Greece","latitude":39.37062985,"longitude":21.38741214,"population":44,"stateCapital":false,"nationalCapital":false,"pk":null,"quiz":"europe","code":null,"archived":false,"percentageOfSessions":null}, {"name":"Várkos","state":"Thessaly","territory":"","country":"Greece","latitude":39.76590966,"longitude":22.07416464,"population":47,"stateCapital":false,"nationalCapital":false,"pk":null,"quiz":"europe","code":null,"archived":false,"percentageOfSessions":null}, {"name":"Vasiládhes","state":"Thessaly","territory":"","country":"Greece","latitude":39.26285303,"longitude":21.58393479,"population":155,"stateCapital":false,"nationalCapital":false,"pk":null,"quiz":"europe","code":null,"archived":false,"percentageOfSessions":null}, {"name":"Vasilís","state":"Thessaly","territory":"","country":"Greece","latitude":39.32905451,"longitude":22.37187811,"population":312,"stateCapital":false,"nationalCapital":false,"pk":null,"quiz":"europe","code":null,"archived":false,"percentageOfSessions":null}, {"name":"Vasilikí","state":"Thessaly","territory":"","country":"Greece","latitude":39.6373176,"longitude":21.70485828,"population":1373,"stateCapital":false,"nationalCapital":false,"pk":null,"quiz":"europe","code":null,"archived":false,"percentageOfSessions":null}, {"name":"Vatsuniá","state":"Thessaly","territory":"","country":"Greece","latitude":39.40541344,"longitude":21.58499083,"population":453,"stateCapital":false,"nationalCapital":false,"pk":null,"quiz":"europe","code":null,"archived":false,"percentageOfSessions":null}, {"name":"Velanidhiá","state":"Thessaly","territory":"","country":"Greece","latitude":39.28845858,"longitude":22.86928573,"population":242,"stateCapital":false,"nationalCapital":false,"pk":null,"quiz":"europe","code":null,"archived":false,"percentageOfSessions":null}, {"name":"Velestínon","state":"Thessaly","territory":"","country":"Greece","latitude":39.37966483,"longitude":22.74198023,"population":2884,"stateCapital":false,"nationalCapital":false,"pk":null,"quiz":"europe","code":null,"archived":false,"percentageOfSessions":null}, {"name":"Velíka","state":"Thessaly","territory":"","country":"Greece","latitude":39.7436941,"longitude":22.85954396,"population":326,"stateCapital":false,"nationalCapital":false,"pk":null,"quiz":"europe","code":null,"archived":false,"percentageOfSessions":null}, {"name":"Venéton","state":"Thessaly","territory":"","country":"Greece","latitude":39.54119426,"longitude":22.9822084,"population":67,"stateCapital":false,"nationalCapital":false,"pk":null,"quiz":"europe","code":null,"archived":false,"percentageOfSessions":null}, {"name":"Verdhikússa","state":"Thessaly","territory":"","country":"Greece","latitude":39.77893152,"longitude":21.97575255,"population":1810,"stateCapital":false,"nationalCapital":false,"pk":null,"quiz":"europe","code":null,"archived":false,"percentageOfSessions":null}, {"name":"Vitumás","state":"Thessaly","territory":"","country":"Greece","latitude":39.64410932,"longitude":21.61315301,"population":175,"stateCapital":false,"nationalCapital":false,"pk":null,"quiz":"europe","code":null,"archived":false,"percentageOfSessions":null}, {"name":"Vlásion","state":"Thessaly","territory":"","country":"Greece","latitude":39.28682585,"longitude":21.57899404,"population":174,"stateCapital":false,"nationalCapital":false,"pk":null,"quiz":"europe","code":null,"archived":false,"percentageOfSessions":null}, {"name":"Vlaháva","state":"Thessaly","territory":"","country":"Greece","latitude":39.77189578,"longitude":21.65795638,"population":220,"stateCapital":false,"nationalCapital":false,"pk":null,"quiz":"europe","code":null,"archived":false,"percentageOfSessions":null}, {"name":"Vlahogiánnion","state":"Thessaly","territory":"","country":"Greece","latitude":39.73878766,"longitude":22.08593225,"population":849,"stateCapital":false,"nationalCapital":false,"pk":null,"quiz":"europe","code":null,"archived":false,"percentageOfSessions":null}, {"name":"Vlohós","state":"Thessaly","territory":"","country":"Greece","latitude":39.51551572,"longitude":22.09037459,"population":560,"stateCapital":false,"nationalCapital":false,"pk":null,"quiz":"europe","code":null,"archived":false,"percentageOfSessions":null}, {"name":"Vodhíni","state":"Thessaly","territory":"","country":"Greece","latitude":39.16081607,"longitude":23.27269884,"population":20,"stateCapital":false,"nationalCapital":false,"pk":null,"quiz":"europe","code":null,"archived":false,"percentageOfSessions":null}, {"name":"Vólos","state":"Thessaly","territory":"","country":"Greece","latitude":39.35689795,"longitude":22.94561474,"population":85149,"stateCapital":false,"nationalCapital":false,"pk":null,"quiz":"europe","code":null,"archived":false,"percentageOfSessions":null}, {"name":"Votanohórion","state":"Thessaly","territory":"","country":"Greece","latitude":39.81411289,"longitude":22.23604674,"population":2,"stateCapital":false,"nationalCapital":false,"pk":null,"quiz":"europe","code":null,"archived":false,"percentageOfSessions":null}, {"name":"Vótsi","state":"Thessaly","territory":"","country":"Greece","latitude":39.14655317,"longitude":23.8679828,"population":486,"stateCapital":false,"nationalCapital":false,"pk":null,"quiz":"europe","code":null,"archived":false,"percentageOfSessions":null}, {"name":"Vúnena","state":"Thessaly","territory":"","country":"Greece","latitude":39.49880999,"longitude":22.24336266,"population":250,"stateCapital":false,"nationalCapital":false,"pk":null,"quiz":"europe","code":null,"archived":false,"percentageOfSessions":null}, {"name":"Vranġianá","state":"Thessaly","territory":"","country":"Greece","latitude":39.23728391,"longitude":21.43319741,"population":130,"stateCapital":false,"nationalCapital":false,"pk":null,"quiz":"europe","code":null,"archived":false,"percentageOfSessions":null}, {"name":"Vronderón","state":"Thessaly","territory":"","country":"Greece","latitude":39.49785762,"longitude":21.51490206,"population":85,"stateCapital":false,"nationalCapital":false,"pk":null,"quiz":"europe","code":null,"archived":false,"percentageOfSessions":null}, {"name":"Vrohiá","state":"Thessaly","territory":"","country":"Greece","latitude":39.33410656,"longitude":23.03578194,"population":101,"stateCapital":false,"nationalCapital":false,"pk":null,"quiz":"europe","code":null,"archived":false,"percentageOfSessions":null}, {"name":"Vrínena","state":"Thessaly","territory":"","country":"Greece","latitude":39.06485693,"longitude":22.80740803,"population":303,"stateCapital":false,"nationalCapital":false,"pk":null,"quiz":"europe","code":null,"archived":false,"percentageOfSessions":null}, {"name":"Vriótopos","state":"Thessaly","territory":"","country":"Greece","latitude":39.75623935,"longitude":22.37372411,"population":556,"stateCapital":false,"nationalCapital":false,"pk":null,"quiz":"europe","code":null,"archived":false,"percentageOfSessions":null}, {"name":"Vrisiá","state":"Thessaly","territory":"","country":"Greece","latitude":39.258278,"longitude":22.31917527,"population":430,"stateCapital":false,"nationalCapital":false,"pk":null,"quiz":"europe","code":null,"archived":false,"percentageOfSessions":null}, {"name":"Vizítsa","state":"Thessaly","territory":"","country":"Greece","latitude":39.3307339,"longitude":23.13029711,"population":261,"stateCapital":false,"nationalCapital":false,"pk":null,"quiz":"europe","code":null,"archived":false,"percentageOfSessions":null}, {"name":"Gavrianí","state":"Thessaly","territory":"","country":"Greece","latitude":38.99889847,"longitude":22.87366592,"population":147,"stateCapital":false,"nationalCapital":false,"pk":null,"quiz":"europe","code":null,"archived":false,"percentageOfSessions":null}, {"name":"Gávros","state":"Thessaly","territory":"","country":"Greece","latitude":39.79610374,"longitude":21.59502945,"population":202,"stateCapital":false,"nationalCapital":false,"pk":null,"quiz":"europe","code":null,"archived":false,"percentageOfSessions":null}, {"name":"Galanóvrisi","state":"Thessaly","territory":"","country":"Greece","latitude":39.84466702,"longitude":22.17144994,"population":426,"stateCapital":false,"nationalCapital":false,"pk":null,"quiz":"europe","code":null,"archived":false,"percentageOfSessions":null}, {"name":"Galíni","state":"Thessaly","territory":"","country":"Greece","latitude":39.6232594,"longitude":22.51438698,"population":1021,"stateCapital":false,"nationalCapital":false,"pk":null,"quiz":"europe","code":null,"archived":false,"percentageOfSessions":null}, {"name":"Gardhíkion","state":"Thessaly","territory":"","country":"Greece","latitude":39.53826364,"longitude":21.25587447,"population":81,"stateCapital":false,"nationalCapital":false,"pk":null,"quiz":"europe","code":null,"archived":false,"percentageOfSessions":null}, {"name":"Gelánthi","state":"Thessaly","territory":"","country":"Greece","latitude":39.43673262,"longitude":21.70619774,"population":471,"stateCapital":false,"nationalCapital":false,"pk":null,"quiz":"europe","code":null,"archived":false,"percentageOfSessions":null}, {"name":"Genésion","state":"Thessaly","territory":"","country":"Greece","latitude":39.57541368,"longitude":21.58354218,"population":315,"stateCapital":false,"nationalCapital":false,"pk":null,"quiz":"europe","code":null,"archived":false,"percentageOfSessions":null}, {"name":"Gerakárion","state":"Thessaly","territory":"","country":"Greece","latitude":39.68914009,"longitude":22.69189808,"population":262,"stateCapital":false,"nationalCapital":false,"pk":null,"quiz":"europe","code":null,"archived":false,"percentageOfSessions":null}, {"name":"Gerakárion","state":"Thessaly","territory":"","country":"Greece","latitude":39.80452591,"longitude":21.85035258,"population":136,"stateCapital":false,"nationalCapital":false,"pk":null,"quiz":"europe","code":null,"archived":false,"percentageOfSessions":null}, {"name":"Gérakas","state":"Thessaly","territory":"","country":"Greece","latitude":39.28757202,"longitude":23.95003253,"population":68,"stateCapital":false,"nationalCapital":false,"pk":null,"quiz":"europe","code":null,"archived":false,"percentageOfSessions":null}, {"name":"Geránia","state":"Thessaly","territory":"","country":"Greece","latitude":40.00928882,"longitude":22.13501629,"population":269,"stateCapital":false,"nationalCapital":false,"pk":null,"quiz":"europe","code":null,"archived":false,"percentageOfSessions":null}, {"name":"Geroplína","state":"Thessaly","territory":"","country":"Greece","latitude":39.09364804,"longitude":23.05679846,"population":16,"stateCapital":false,"nationalCapital":false,"pk":null,"quiz":"europe","code":null,"archived":false,"percentageOfSessions":null}, {"name":"Gefíria","state":"Thessaly","territory":"","country":"Greece","latitude":39.28930112,"longitude":22.19199248,"population":378,"stateCapital":false,"nationalCapital":false,"pk":null,"quiz":"europe","code":null,"archived":false,"percentageOfSessions":null}, {"name":"Georganádhes","state":"Thessaly","territory":"","country":"Greece","latitude":39.56565026,"longitude":21.99174606,"population":339,"stateCapital":false,"nationalCapital":false,"pk":null,"quiz":"europe","code":null,"archived":false,"percentageOfSessions":null}, {"name":"Georgikón","state":"Thessaly","territory":"","country":"Greece","latitude":39.33008906,"longitude":21.86205012,"population":431,"stateCapital":false,"nationalCapital":false,"pk":null,"quiz":"europe","code":null,"archived":false,"percentageOfSessions":null}, {"name":"Geórgios Karaiskákis","state":"Thessaly","territory":"","country":"Greece","latitude":39.42298359,"longitude":21.66817563,"population":374,"stateCapital":false,"nationalCapital":false,"pk":null,"quiz":"europe","code":null,"archived":false,"percentageOfSessions":null}, {"name":"Giánnuli","state":"Thessaly","territory":"","country":"Greece","latitude":39.66302989,"longitude":22.39188646,"population":7701,"stateCapital":false,"nationalCapital":false,"pk":null,"quiz":"europe","code":null,"archived":false,"percentageOfSessions":null}, {"name":"Giannuséika","state":"Thessaly","territory":"","country":"Greece","latitude":39.17867661,"longitude":21.79207634,"population":44,"stateCapital":false,"nationalCapital":false,"pk":null,"quiz":"europe","code":null,"archived":false,"percentageOfSessions":null}, {"name":"Giannotá","state":"Thessaly","territory":"","country":"Greece","latitude":39.97728715,"longitude":22.04135986,"population":282,"stateCapital":false,"nationalCapital":false,"pk":null,"quiz":"europe","code":null,"archived":false,"percentageOfSessions":null}, {"name":"Ġolfárion","state":"Thessaly","territory":"","country":"Greece","latitude":39.37385271,"longitude":21.28400129,"population":75,"stateCapital":false,"nationalCapital":false,"pk":null,"quiz":"europe","code":null,"archived":false,"percentageOfSessions":null}, {"name":"Gláfki","state":"Thessaly","territory":"","country":"Greece","latitude":39.61102977,"longitude":22.5744852,"population":691,"stateCapital":false,"nationalCapital":false,"pk":null,"quiz":"europe","code":null,"archived":false,"percentageOfSessions":null}, {"name":"Glafirá","state":"Thessaly","territory":"","country":"Greece","latitude":39.43749759,"longitude":22.88643127,"population":232,"stateCapital":false,"nationalCapital":false,"pk":null,"quiz":"europe","code":null,"archived":false,"percentageOfSessions":null}, {"name":"Glínos","state":"Thessaly","territory":"","country":"Greece","latitude":39.50954148,"longitude":21.86403172,"population":519,"stateCapital":false,"nationalCapital":false,"pk":null,"quiz":"europe","code":null,"archived":false,"percentageOfSessions":null}, {"name":"Glístra","state":"Thessaly","territory":"","country":"Greece","latitude":39.39027132,"longitude":21.2866172,"population":50,"stateCapital":false,"nationalCapital":false,"pk":null,"quiz":"europe","code":null,"archived":false,"percentageOfSessions":null}, {"name":"Glikomiléa","state":"Thessaly","territory":"","country":"Greece","latitude":39.6202963,"longitude":21.52744528,"population":215,"stateCapital":false,"nationalCapital":false,"pk":null,"quiz":"europe","code":null,"archived":false,"percentageOfSessions":null}, {"name":"Glóssa","state":"Thessaly","territory":"","country":"Greece","latitude":39.17268918,"longitude":23.61320698,"population":1030,"stateCapital":false,"nationalCapital":false,"pk":null,"quiz":"europe","code":null,"archived":false,"percentageOfSessions":null}, {"name":"Gómfi","state":"Thessaly","territory":"","country":"Greece","latitude":39.46160162,"longitude":21.69121501,"population":1016,"stateCapital":false,"nationalCapital":false,"pk":null,"quiz":"europe","code":null,"archived":false,"percentageOfSessions":null}, {"name":"Gónni","state":"Thessaly","territory":"","country":"Greece","latitude":39.85773987,"longitude":22.47393733,"population":1872,"stateCapital":false,"nationalCapital":false,"pk":null,"quiz":"europe","code":null,"archived":false,"percentageOfSessions":null}, {"name":"Gorgovíte","state":"Thessaly","territory":"","country":"Greece","latitude":39.39912218,"longitude":22.01202244,"population":512,"stateCapital":false,"nationalCapital":false,"pk":null,"quiz":"europe","code":null,"archived":false,"percentageOfSessions":null}, {"name":"Gorgogírion","state":"Thessaly","territory":"","country":"Greece","latitude":39.54572377,"longitude":21.58715271,"population":489,"stateCapital":false,"nationalCapital":false,"pk":null,"quiz":"europe","code":null,"archived":false,"percentageOfSessions":null}, {"name":"Gorítsa","state":"Thessaly","territory":"","country":"Greece","latitude":39.34755097,"longitude":22.96589369,"population":91,"stateCapital":false,"nationalCapital":false,"pk":null,"quiz":"europe","code":null,"archived":false,"percentageOfSessions":null}, {"name":"Graviá","state":"Thessaly","territory":"","country":"Greece","latitude":39.3681434,"longitude":21.39417341,"population":66,"stateCapital":false,"nationalCapital":false,"pk":null,"quiz":"europe","code":null,"archived":false,"percentageOfSessions":null}, {"name":"Grávia","state":"Thessaly","territory":"","country":"Greece","latitude":39.39812637,"longitude":21.68419509,"population":20,"stateCapital":false,"nationalCapital":false,"pk":null,"quiz":"europe","code":null,"archived":false,"percentageOfSessions":null}, {"name":"Grávos","state":"Thessaly","territory":"","country":"Greece","latitude":39.49152743,"longitude":21.31965565,"population":18,"stateCapital":false,"nationalCapital":false,"pk":null,"quiz":"europe","code":null,"archived":false,"percentageOfSessions":null}, {"name":"Grammatikón","state":"Thessaly","territory":"","country":"Greece","latitude":39.24216025,"longitude":22.21191947,"population":240,"stateCapital":false,"nationalCapital":false,"pk":null,"quiz":"europe","code":null,"archived":false,"percentageOfSessions":null}, {"name":"Grizánon","state":"Thessaly","territory":"","country":"Greece","latitude":39.62935295,"longitude":22.05138607,"population":1341,"stateCapital":false,"nationalCapital":false,"pk":null,"quiz":"europe","code":null,"archived":false,"percentageOfSessions":null}, {"name":"Grimbianá","state":"Thessaly","territory":"","country":"Greece","latitude":39.22603739,"longitude":21.37198042,"population":89,"stateCapital":false,"nationalCapital":false,"pk":null,"quiz":"europe","code":null,"archived":false,"percentageOfSessions":null}, {"name":"Girtóni","state":"Thessaly","territory":"","country":"Greece","latitude":39.74901651,"longitude":22.43566741,"population":76,"stateCapital":false,"nationalCapital":false,"pk":null,"quiz":"europe","code":null,"archived":false,"percentageOfSessions":null}, {"name":"Dhamásion","state":"Thessaly","territory":"","country":"Greece","latitude":39.71053113,"longitude":22.18544726,"population":1380,"stateCapital":false,"nationalCapital":false,"pk":null,"quiz":"europe","code":null,"archived":false,"percentageOfSessions":null}, {"name":"Dhamasúlion","state":"Thessaly","territory":"","country":"Greece","latitude":39.71199002,"longitude":22.16860322,"population":51,"stateCapital":false,"nationalCapital":false,"pk":null,"quiz":"europe","code":null,"archived":false,"percentageOfSessions":null}, {"name":"Dhasólofos","state":"Thessaly","territory":"","country":"Greece","latitude":39.34390533,"longitude":22.49089356,"population":273,"stateCapital":false,"nationalCapital":false,"pk":null,"quiz":"europe","code":null,"archived":false,"percentageOfSessions":null}, {"name":"Dhasohórion","state":"Thessaly","territory":"","country":"Greece","latitude":39.69029822,"longitude":22.41677214,"population":612,"stateCapital":false,"nationalCapital":false,"pk":null,"quiz":"europe","code":null,"archived":false,"percentageOfSessions":null}, {"name":"Dhasohórion","state":"Thessaly","territory":"","country":"Greece","latitude":39.26560693,"longitude":22.03247116,"population":371,"stateCapital":false,"nationalCapital":false,"pk":null,"quiz":"europe","code":null,"archived":false,"percentageOfSessions":null}, {"name":"Dháfni","state":"Thessaly","territory":"","country":"Greece","latitude":39.28752602,"longitude":21.49924066,"population":47,"stateCapital":false,"nationalCapital":false,"pk":null,"quiz":"europe","code":null,"archived":false,"percentageOfSessions":null}, {"name":"Dhafnospiliá","state":"Thessaly","territory":"","country":"Greece","latitude":39.22561348,"longitude":21.94577847,"population":250,"stateCapital":false,"nationalCapital":false,"pk":null,"quiz":"europe","code":null,"archived":false,"percentageOfSessions":null}, {"name":"Dheléria","state":"Thessaly","territory":"","country":"Greece","latitude":39.79952355,"longitude":22.34013725,"population":664,"stateCapital":false,"nationalCapital":false,"pk":null,"quiz":"europe","code":null,"archived":false,"percentageOfSessions":null}, {"name":"Dhéndhra","state":"Thessaly","territory":"","country":"Greece","latitude":39.68684441,"longitude":22.33385649,"population":611,"stateCapital":false,"nationalCapital":false,"pk":null,"quiz":"europe","code":null,"archived":false,"percentageOfSessions":null}, {"name":"Dhéndhra","state":"Thessaly","territory":"","country":"Greece","latitude":39.68684441,"longitude":22.33385649,"population":51,"stateCapital":false,"nationalCapital":false,"pk":null,"quiz":"europe","code":null,"archived":false,"percentageOfSessions":null}, {"name":"Dhendhrákion","state":"Thessaly","territory":"","country":"Greece","latitude":39.33659001,"longitude":22.3837006,"population":36,"stateCapital":false,"nationalCapital":false,"pk":null,"quiz":"europe","code":null,"archived":false,"percentageOfSessions":null}, {"name":"Dhéndhros","state":"Thessaly","territory":"","country":"Greece","latitude":39.24384896,"longitude":21.3978836,"population":50,"stateCapital":false,"nationalCapital":false,"pk":null,"quiz":"europe","code":null,"archived":false,"percentageOfSessions":null}, {"name":"Dhendhrohórion","state":"Thessaly","territory":"","country":"Greece","latitude":39.18987751,"longitude":22.451618,"population":37,"stateCapital":false,"nationalCapital":false,"pk":null,"quiz":"europe","code":null,"archived":false,"percentageOfSessions":null}, {"name":"Dhendhrohórion","state":"Thessaly","territory":"","country":"Greece","latitude":39.5509443,"longitude":21.63602411,"population":534,"stateCapital":false,"nationalCapital":false,"pk":null,"quiz":"europe","code":null,"archived":false,"percentageOfSessions":null}, {"name":"Dhési","state":"Thessaly","territory":"","country":"Greece","latitude":39.55807467,"longitude":21.36612525,"population":9,"stateCapital":false,"nationalCapital":false,"pk":null,"quiz":"europe","code":null,"archived":false,"percentageOfSessions":null}, {"name":"Dhímitra","state":"Thessaly","territory":"","country":"Greece","latitude":39.68643574,"longitude":22.62967314,"population":318,"stateCapital":false,"nationalCapital":false,"pk":null,"quiz":"europe","code":null,"archived":false,"percentageOfSessions":null}, {"name":"Dhimitriádha","state":"Thessaly","territory":"","country":"Greece","latitude":39.24910552,"longitude":22.81168895,"population":57,"stateCapital":false,"nationalCapital":false,"pk":null,"quiz":"europe","code":null,"archived":false,"percentageOfSessions":null}, {"name":"Dhiáva","state":"Thessaly","territory":"","country":"Greece","latitude":39.68927474,"longitude":21.5786755,"population":734,"stateCapital":false,"nationalCapital":false,"pk":null,"quiz":"europe","code":null,"archived":false,"percentageOfSessions":null}, {"name":"Dhialektón","state":"Thessaly","territory":"","country":"Greece","latitude":39.59197478,"longitude":21.6495845,"population":677,"stateCapital":false,"nationalCapital":false,"pk":null,"quiz":"europe","code":null,"archived":false,"percentageOfSessions":null}, {"name":"Dhiásellon","state":"Thessaly","territory":"","country":"Greece","latitude":39.70121494,"longitude":22.01438523,"population":284,"stateCapital":false,"nationalCapital":false,"pk":null,"quiz":"europe","code":null,"archived":false,"percentageOfSessions":null}, {"name":"Dhílofon","state":"Thessaly","territory":"","country":"Greece","latitude":39.44081929,"longitude":22.48163644,"population":165,"stateCapital":false,"nationalCapital":false,"pk":null,"quiz":"europe","code":null,"archived":false,"percentageOfSessions":null}, {"name":"Dhílofon","state":"Thessaly","territory":"","country":"Greece","latitude":39.44081929,"longitude":22.48163644,"population":253,"stateCapital":false,"nationalCapital":false,"pk":null,"quiz":"europe","code":null,"archived":false,"percentageOfSessions":null}, {"name":"Dhílofon","state":"Thessaly","territory":"","country":"Greece","latitude":39.54072083,"longitude":21.61140107,"population":45,"stateCapital":false,"nationalCapital":false,"pk":null,"quiz":"europe","code":null,"archived":false,"percentageOfSessions":null}, {"name":"Dhimíni","state":"Thessaly","territory":"","country":"Greece","latitude":39.35557546,"longitude":22.89278437,"population":2238,"stateCapital":false,"nationalCapital":false,"pk":null,"quiz":"europe","code":null,"archived":false,"percentageOfSessions":null}, {"name":"Dhipótamos","state":"Thessaly","territory":"","country":"Greece","latitude":39.56686193,"longitude":21.69605459,"population":182,"stateCapital":false,"nationalCapital":false,"pk":null,"quiz":"europe","code":null,"archived":false,"percentageOfSessions":null}, {"name":"Dholianá","state":"Thessaly","territory":"","country":"Greece","latitude":39.63099665,"longitude":21.34817203,"population":25,"stateCapital":false,"nationalCapital":false,"pk":null,"quiz":"europe","code":null,"archived":false,"percentageOfSessions":null}, {"name":"Dholíhi","state":"Thessaly","territory":"","country":"Greece","latitude":40.06071825,"longitude":22.16752375,"population":440,"stateCapital":false,"nationalCapital":false,"pk":null,"quiz":"europe","code":null,"archived":false,"percentageOfSessions":null}, {"name":"Dhoménikon","state":"Thessaly","territory":"","country":"Greece","latitude":39.78780422,"longitude":22.11996561,"population":631,"stateCapital":false,"nationalCapital":false,"pk":null,"quiz":"europe","code":null,"archived":false,"percentageOfSessions":null}, {"name":"Dhoksarás","state":"Thessaly","territory":"","country":"Greece","latitude":39.4538264,"longitude":22.27672611,"population":150,"stateCapital":false,"nationalCapital":false,"pk":null,"quiz":"europe","code":null,"archived":false,"percentageOfSessions":null}, {"name":"Dhrákia","state":"Thessaly","territory":"","country":"Greece","latitude":39.37304369,"longitude":23.0477641,"population":376,"stateCapital":false,"nationalCapital":false,"pk":null,"quiz":"europe","code":null,"archived":false,"percentageOfSessions":null}, {"name":"Dhrakótripa","state":"Thessaly","territory":"","country":"Greece","latitude":39.39471485,"longitude":21.59829026,"population":377,"stateCapital":false,"nationalCapital":false,"pk":null,"quiz":"europe","code":null,"archived":false,"percentageOfSessions":null}, {"name":"Dhrosáton","state":"Thessaly","territory":"","country":"Greece","latitude":39.27903463,"longitude":21.56012815,"population":60,"stateCapital":false,"nationalCapital":false,"pk":null,"quiz":"europe","code":null,"archived":false,"percentageOfSessions":null}, {"name":"Dhroserón","state":"Thessaly","territory":"","country":"Greece","latitude":39.50774278,"longitude":21.74148252,"population":416,"stateCapital":false,"nationalCapital":false,"pk":null,"quiz":"europe","code":null,"archived":false,"percentageOfSessions":null}, {"name":"Dhrosohórion","state":"Thessaly","territory":"","country":"Greece","latitude":39.53614861,"longitude":21.35617027,"population":8,"stateCapital":false,"nationalCapital":false,"pk":null,"quiz":"europe","code":null,"archived":false,"percentageOfSessions":null}, {"name":"Dhrimós","state":"Thessaly","territory":"","country":"Greece","latitude":39.91317507,"longitude":22.14468575,"population":588,"stateCapital":false,"nationalCapital":false,"pk":null,"quiz":"europe","code":null,"archived":false,"percentageOfSessions":null}, {"name":"Dhrimón","state":"Thessaly","territory":"","country":"Greece","latitude":39.07288898,"longitude":22.86285682,"population":257,"stateCapital":false,"nationalCapital":false,"pk":null,"quiz":"europe","code":null,"archived":false,"percentageOfSessions":null}, {"name":"Dhío Révmata","state":"Thessaly","territory":"","country":"Greece","latitude":39.32436525,"longitude":23.0718573,"population":23,"stateCapital":false,"nationalCapital":false,"pk":null,"quiz":"europe","code":null,"archived":false,"percentageOfSessions":null}, {"name":"Eléa","state":"Thessaly","territory":"","country":"Greece","latitude":39.85447545,"longitude":22.43972138,"population":74,"stateCapital":false,"nationalCapital":false,"pk":null,"quiz":"europe","code":null,"archived":false,"percentageOfSessions":null}, {"name":"Elassón","state":"Thessaly","territory":"","country":"Greece","latitude":39.89288838,"longitude":22.18792447,"population":7234,"stateCapital":false,"nationalCapital":false,"pk":null,"quiz":"europe","code":null,"archived":false,"percentageOfSessions":null}, {"name":"Elátia","state":"Thessaly","territory":"","country":"Greece","latitude":39.81019867,"longitude":22.53512489,"population":493,"stateCapital":false,"nationalCapital":false,"pk":null,"quiz":"europe","code":null,"archived":false,"percentageOfSessions":null}, {"name":"Eláti","state":"Thessaly","territory":"","country":"Greece","latitude":39.50161613,"longitude":21.5306635,"population":421,"stateCapital":false,"nationalCapital":false,"pk":null,"quiz":"europe","code":null,"archived":false,"percentageOfSessions":null}, {"name":"Eláfion","state":"Thessaly","territory":"","country":"Greece","latitude":39.71320658,"longitude":21.4679236,"population":190,"stateCapital":false,"nationalCapital":false,"pk":null,"quiz":"europe","code":null,"archived":false,"percentageOfSessions":null}, {"name":"Élafos","state":"Thessaly","territory":"","country":"Greece","latitude":39.57560987,"longitude":22.7825163,"population":206,"stateCapital":false,"nationalCapital":false,"pk":null,"quiz":"europe","code":null,"archived":false,"percentageOfSessions":null}, {"name":"Eleftheré","state":"Thessaly","territory":"","country":"Greece","latitude":39.57428682,"longitude":22.33492091,"population":527,"stateCapital":false,"nationalCapital":false,"pk":null,"quiz":"europe","code":null,"archived":false,"percentageOfSessions":null}, {"name":"Elefthérion","state":"Thessaly","territory":"","country":"Greece","latitude":39.6745008,"longitude":22.57765986,"population":340,"stateCapital":false,"nationalCapital":false,"pk":null,"quiz":"europe","code":null,"archived":false,"percentageOfSessions":null}, {"name":"Eleftherohório","state":"Thessaly","territory":"","country":"Greece","latitude":39.28202085,"longitude":22.64152507,"population":103,"stateCapital":false,"nationalCapital":false,"pk":null,"quiz":"europe","code":null,"archived":false,"percentageOfSessions":null}, {"name":"Eleftherohórion","state":"Thessaly","territory":"","country":"Greece","latitude":39.52565255,"longitude":21.63212482,"population":435,"stateCapital":false,"nationalCapital":false,"pk":null,"quiz":"europe","code":null,"archived":false,"percentageOfSessions":null}, {"name":"Elítsa","state":"Thessaly","territory":"","country":"Greece","latitude":39.47750761,"longitude":23.09908864,"population":4,"stateCapital":false,"nationalCapital":false,"pk":null,"quiz":"europe","code":null,"archived":false,"percentageOfSessions":null}, {"name":"Elliniká","state":"Thessaly","territory":"","country":"Greece","latitude":39.37676014,"longitude":21.39009563,"population":198,"stateCapital":false,"nationalCapital":false,"pk":null,"quiz":"europe","code":null,"archived":false,"percentageOfSessions":null}, {"name":"Ellinikón","state":"Thessaly","territory":"","country":"Greece","latitude":39.34933224,"longitude":22.29662151,"population":124,"stateCapital":false,"nationalCapital":false,"pk":null,"quiz":"europe","code":null,"archived":false,"percentageOfSessions":null}, {"name":"Ellinókastron","state":"Thessaly","territory":"","country":"Greece","latitude":39.39415784,"longitude":21.69135766,"population":80,"stateCapital":false,"nationalCapital":false,"pk":null,"quiz":"europe","code":null,"archived":false,"percentageOfSessions":null}, {"name":"Ellinókastron","state":"Thessaly","territory":"","country":"Greece","latitude":39.68756798,"longitude":21.79513374,"population":151,"stateCapital":false,"nationalCapital":false,"pk":null,"quiz":"europe","code":null,"archived":false,"percentageOfSessions":null}, {"name":"Ellinópirgos","state":"Thessaly","territory":"","country":"Greece","latitude":39.39870774,"longitude":21.7331626,"population":497,"stateCapital":false,"nationalCapital":false,"pk":null,"quiz":"europe","code":null,"archived":false,"percentageOfSessions":null}, {"name":"Eksálofos","state":"Thessaly","territory":"","country":"Greece","latitude":39.53182152,"longitude":21.62424184,"population":145,"stateCapital":false,"nationalCapital":false,"pk":null,"quiz":"europe","code":null,"archived":false,"percentageOfSessions":null}, {"name":"Erétria","state":"Thessaly","territory":"","country":"Greece","latitude":39.29415118,"longitude":22.61375102,"population":147,"stateCapital":false,"nationalCapital":false,"pk":null,"quiz":"europe","code":null,"archived":false,"percentageOfSessions":null}, {"name":"Ermítsion","state":"Thessaly","territory":"","country":"Greece","latitude":39.41658433,"longitude":22.10120414,"population":259,"stateCapital":false,"nationalCapital":false,"pk":null,"quiz":"europe","code":null,"archived":false,"percentageOfSessions":null}, {"name":"Evanġelismós","state":"Thessaly","territory":"","country":"Greece","latitude":39.83655154,"longitude":22.10155455,"population":716,"stateCapital":false,"nationalCapital":false,"pk":null,"quiz":"europe","code":null,"archived":false,"percentageOfSessions":null}, {"name":"Evanġelismós","state":"Thessaly","territory":"","country":"Greece","latitude":39.83655154,"longitude":22.10155455,"population":124,"stateCapital":false,"nationalCapital":false,"pk":null,"quiz":"europe","code":null,"archived":false,"percentageOfSessions":null}, {"name":"Efksinúpolis","state":"Thessaly","territory":"","country":"Greece","latitude":39.18239421,"longitude":22.73690385,"population":2270,"stateCapital":false,"nationalCapital":false,"pk":null,"quiz":"europe","code":null,"archived":false,"percentageOfSessions":null}, {"name":"Zagorá","state":"Thessaly","territory":"","country":"Greece","latitude":39.44259999,"longitude":23.09861937,"population":2065,"stateCapital":false,"nationalCapital":false,"pk":null,"quiz":"europe","code":null,"archived":false,"percentageOfSessions":null}, {"name":"Zaímion","state":"Thessaly","territory":"","country":"Greece","latitude":39.29729276,"longitude":21.9369483,"population":325,"stateCapital":false,"nationalCapital":false,"pk":null,"quiz":"europe","code":null,"archived":false,"percentageOfSessions":null}, {"name":"Zamanátiko","state":"Thessaly","territory":"","country":"Greece","latitude":39.34204193,"longitude":21.58663819,"population":13,"stateCapital":false,"nationalCapital":false,"pk":null,"quiz":"europe","code":null,"archived":false,"percentageOfSessions":null}, {"name":"Záppion","state":"Thessaly","territory":"","country":"Greece","latitude":39.46060576,"longitude":22.44217354,"population":545,"stateCapital":false,"nationalCapital":false,"pk":null,"quiz":"europe","code":null,"archived":false,"percentageOfSessions":null}, {"name":"Zarkadhohórion","state":"Thessaly","territory":"","country":"Greece","latitude":39.19376952,"longitude":22.57612505,"population":8,"stateCapital":false,"nationalCapital":false,"pk":null,"quiz":"europe","code":null,"archived":false,"percentageOfSessions":null}, {"name":"Zárkos","state":"Thessaly","territory":"","country":"Greece","latitude":39.60649067,"longitude":22.12337089,"population":1156,"stateCapital":false,"nationalCapital":false,"pk":null,"quiz":"europe","code":null,"archived":false,"percentageOfSessions":null}, {"name":"Zervó","state":"Thessaly","territory":"","country":"Greece","latitude":39.33529207,"longitude":21.51511757,"population":31,"stateCapital":false,"nationalCapital":false,"pk":null,"quiz":"europe","code":null,"archived":false,"percentageOfSessions":null}, {"name":"Zervóhia","state":"Thessaly","territory":"","country":"Greece","latitude":39.29088451,"longitude":23.16463655,"population":89,"stateCapital":false,"nationalCapital":false,"pk":null,"quiz":"europe","code":null,"archived":false,"percentageOfSessions":null}, {"name":"Zileftí","state":"Thessaly","territory":"","country":"Greece","latitude":39.58422426,"longitude":21.8173986,"population":484,"stateCapital":false,"nationalCapital":false,"pk":null,"quiz":"europe","code":null,"archived":false,"percentageOfSessions":null}, {"name":"Zormbádhes","state":"Thessaly","territory":"","country":"Greece","latitude":39.15752474,"longitude":23.43160422,"population":37,"stateCapital":false,"nationalCapital":false,"pk":null,"quiz":"europe","code":null,"archived":false,"percentageOfSessions":null}, {"name":"Zograféika","state":"Thessaly","territory":"","country":"Greece","latitude":39.41710468,"longitude":21.37721383,"population":20,"stateCapital":false,"nationalCapital":false,"pk":null,"quiz":"europe","code":null,"archived":false,"percentageOfSessions":null}, {"name":"Zografía","state":"Thessaly","territory":"","country":"Greece","latitude":39.42983937,"longitude":21.73916162,"population":10,"stateCapital":false,"nationalCapital":false,"pk":null,"quiz":"europe","code":null,"archived":false,"percentageOfSessions":null}, {"name":"Zogrí","state":"Thessaly","territory":"","country":"Greece","latitude":39.23079884,"longitude":21.88132016,"population":39,"stateCapital":false,"nationalCapital":false,"pk":null,"quiz":"europe","code":null,"archived":false,"percentageOfSessions":null}, {"name":"Zoodhóhos Pigí","state":"Thessaly","territory":"","country":"Greece","latitude":39.3620953,"longitude":22.39936499,"population":186,"stateCapital":false,"nationalCapital":false,"pk":null,"quiz":"europe","code":null,"archived":false,"percentageOfSessions":null}, {"name":"Ilías","state":"Thessaly","territory":"","country":"Greece","latitude":39.45677465,"longitude":22.21178309,"population":55,"stateCapital":false,"nationalCapital":false,"pk":null,"quiz":"europe","code":null,"archived":false,"percentageOfSessions":null}, {"name":"Theópetra","state":"Thessaly","territory":"","country":"Greece","latitude":39.67212627,"longitude":21.68237505,"population":625,"stateCapital":false,"nationalCapital":false,"pk":null,"quiz":"europe","code":null,"archived":false,"percentageOfSessions":null}, {"name":"Theotókos","state":"Thessaly","territory":"","country":"Greece","latitude":39.8468007,"longitude":21.60309791,"population":113,"stateCapital":false,"nationalCapital":false,"pk":null,"quiz":"europe","code":null,"archived":false,"percentageOfSessions":null}, {"name":"Therapeftikí Kinótita Éksodhos","state":"Thessaly","territory":"","country":"Greece","latitude":39.65937317,"longitude":22.41359487,"population":38,"stateCapital":false,"nationalCapital":false,"pk":null,"quiz":"europe","code":null,"archived":false,"percentageOfSessions":null}, {"name":"Therinón","state":"Thessaly","territory":"","country":"Greece","latitude":39.35342957,"longitude":21.5027011,"population":96,"stateCapital":false,"nationalCapital":false,"pk":null,"quiz":"europe","code":null,"archived":false,"percentageOfSessions":null}, {"name":"Thérma","state":"Thessaly","territory":"","country":"Greece","latitude":39.12630185,"longitude":22.00798393,"population":3,"stateCapital":false,"nationalCapital":false,"pk":null,"quiz":"europe","code":null,"archived":false,"percentageOfSessions":null}, {"name":"Thetídhion","state":"Thessaly","territory":"","country":"Greece","latitude":39.36932841,"longitude":22.51474927,"population":74,"stateCapital":false,"nationalCapital":false,"pk":null,"quiz":"europe","code":null,"archived":false,"percentageOfSessions":null}, {"name":"Thrapsímion","state":"Thessaly","territory":"","country":"Greece","latitude":39.17008734,"longitude":22.00446629,"population":233,"stateCapital":false,"nationalCapital":false,"pk":null,"quiz":"europe","code":null,"archived":false,"percentageOfSessions":null}, {"name":"Ierá Moní Sparmú","state":"Thessaly","territory":"","country":"Greece","latitude":40.00204617,"longitude":22.29086141,"population":1,"stateCapital":false,"nationalCapital":false,"pk":null,"quiz":"europe","code":null,"archived":false,"percentageOfSessions":null}, {"name":"Isiómata","state":"Thessaly","territory":"","country":"Greece","latitude":39.61009799,"longitude":22.90754696,"population":1,"stateCapital":false,"nationalCapital":false,"pk":null,"quiz":"europe","code":null,"archived":false,"percentageOfSessions":null}, {"name":"Isiómata","state":"Thessaly","territory":"","country":"Greece","latitude":39.17803354,"longitude":23.90659698,"population":61,"stateCapital":false,"nationalCapital":false,"pk":null,"quiz":"europe","code":null,"archived":false,"percentageOfSessions":null}, {"name":"Isiómata","state":"Thessaly","territory":"","country":"Greece","latitude":39.43821543,"longitude":21.47719345,"population":44,"stateCapital":false,"nationalCapital":false,"pk":null,"quiz":"europe","code":null,"archived":false,"percentageOfSessions":null}, {"name":"Ítamos","state":"Thessaly","territory":"","country":"Greece","latitude":39.20989649,"longitude":21.80991173,"population":23,"stateCapital":false,"nationalCapital":false,"pk":null,"quiz":"europe","code":null,"archived":false,"percentageOfSessions":null}, {"name":"Itéa","state":"Thessaly","territory":"","country":"Greece","latitude":39.86088655,"longitude":22.51664621,"population":163,"stateCapital":false,"nationalCapital":false,"pk":null,"quiz":"europe","code":null,"archived":false,"percentageOfSessions":null}, {"name":"Itéa","state":"Thessaly","territory":"","country":"Greece","latitude":39.4563761,"longitude":22.16039998,"population":1211,"stateCapital":false,"nationalCapital":false,"pk":null,"quiz":"europe","code":null,"archived":false,"percentageOfSessions":null}, {"name":"Iolkós","state":"Thessaly","territory":"","country":"Greece","latitude":39.36373595,"longitude":22.96165759,"population":109,"stateCapital":false,"nationalCapital":false,"pk":null,"quiz":"europe","code":null,"archived":false,"percentageOfSessions":null}, {"name":"Kákkavos","state":"Thessaly","territory":"","country":"Greece","latitude":39.3853211,"longitude":22.88720199,"population":8,"stateCapital":false,"nationalCapital":false,"pk":null,"quiz":"europe","code":null,"archived":false,"percentageOfSessions":null}, {"name":"Kakoplévrion","state":"Thessaly","territory":"","country":"Greece","latitude":39.82551961,"longitude":21.43247515,"population":155,"stateCapital":false,"nationalCapital":false,"pk":null,"quiz":"europe","code":null,"archived":false,"percentageOfSessions":null}, {"name":"Kalá Nerá","state":"Thessaly","territory":"","country":"Greece","latitude":39.30355902,"longitude":23.11800097,"population":606,"stateCapital":false,"nationalCapital":false,"pk":null,"quiz":"europe","code":null,"archived":false,"percentageOfSessions":null}, {"name":"Kalamákia","state":"Thessaly","territory":"","country":"Greece","latitude":39.20444119,"longitude":23.92955836,"population":60,"stateCapital":false,"nationalCapital":false,"pk":null,"quiz":"europe","code":null,"archived":false,"percentageOfSessions":null}, {"name":"Kalamákion","state":"Thessaly","territory":"","country":"Greece","latitude":39.56777678,"longitude":22.74487679,"population":484,"stateCapital":false,"nationalCapital":false,"pk":null,"quiz":"europe","code":null,"archived":false,"percentageOfSessions":null}, {"name":"Kalamákion","state":"Thessaly","territory":"","country":"Greece","latitude":39.33673304,"longitude":23.21166598,"population":164,"stateCapital":false,"nationalCapital":false,"pk":null,"quiz":"europe","code":null,"archived":false,"percentageOfSessions":null}, {"name":"Kálamos","state":"Thessaly","territory":"","country":"Greece","latitude":39.21929582,"longitude":23.18599957,"population":56,"stateCapital":false,"nationalCapital":false,"pk":null,"quiz":"europe","code":null,"archived":false,"percentageOfSessions":null}, {"name":"Kalambáka","state":"Thessaly","territory":"","country":"Greece","latitude":39.70699019,"longitude":21.62457001,"population":8889,"stateCapital":false,"nationalCapital":false,"pk":null,"quiz":"europe","code":null,"archived":false,"percentageOfSessions":null}, {"name":"Kalí Kómi","state":"Thessaly","territory":"","country":"Greece","latitude":39.35825141,"longitude":21.4051885,"population":106,"stateCapital":false,"nationalCapital":false,"pk":null,"quiz":"europe","code":null,"archived":false,"percentageOfSessions":null}, {"name":"Kallithéa","state":"Thessaly","territory":"","country":"Greece","latitude":39.97969609,"longitude":22.18995483,"population":641,"stateCapital":false,"nationalCapital":false,"pk":null,"quiz":"europe","code":null,"archived":false,"percentageOfSessions":null}, {"name":"Kallithéa","state":"Thessaly","territory":"","country":"Greece","latitude":39.97969609,"longitude":22.18995483,"population":60,"stateCapital":false,"nationalCapital":false,"pk":null,"quiz":"europe","code":null,"archived":false,"percentageOfSessions":null}, {"name":"Kallithéa","state":"Thessaly","territory":"","country":"Greece","latitude":39.23691015,"longitude":23.24876434,"population":8,"stateCapital":false,"nationalCapital":false,"pk":null,"quiz":"europe","code":null,"archived":false,"percentageOfSessions":null}, {"name":"Kallithéa","state":"Thessaly","territory":"","country":"Greece","latitude":39.7665994,"longitude":21.72816885,"population":50,"stateCapital":false,"nationalCapital":false,"pk":null,"quiz":"europe","code":null,"archived":false,"percentageOfSessions":null}, {"name":"Kallithéa","state":"Thessaly","territory":"","country":"Greece","latitude":39.7665994,"longitude":21.72816885,"population":64,"stateCapital":false,"nationalCapital":false,"pk":null,"quiz":"europe","code":null,"archived":false,"percentageOfSessions":null}, {"name":"Kallíthiron","state":"Thessaly","territory":"","country":"Greece","latitude":39.28017983,"longitude":21.90181388,"population":928,"stateCapital":false,"nationalCapital":false,"pk":null,"quiz":"europe","code":null,"archived":false,"percentageOfSessions":null}, {"name":"Kallipéfki","state":"Thessaly","territory":"","country":"Greece","latitude":39.96370187,"longitude":22.45801729,"population":316,"stateCapital":false,"nationalCapital":false,"pk":null,"quiz":"europe","code":null,"archived":false,"percentageOfSessions":null}, {"name":"Kallirrói","state":"Thessaly","territory":"","country":"Greece","latitude":39.62550795,"longitude":21.29133876,"population":73,"stateCapital":false,"nationalCapital":false,"pk":null,"quiz":"europe","code":null,"archived":false,"percentageOfSessions":null}, {"name":"Kallifónion","state":"Thessaly","territory":"","country":"Greece","latitude":39.27352142,"longitude":21.9595579,"population":1070,"stateCapital":false,"nationalCapital":false,"pk":null,"quiz":"europe","code":null,"archived":false,"percentageOfSessions":null}, {"name":"Kalógiri","state":"Thessaly","territory":"","country":"Greece","latitude":39.48026068,"longitude":21.52480818,"population":118,"stateCapital":false,"nationalCapital":false,"pk":null,"quiz":"europe","code":null,"archived":false,"percentageOfSessions":null}, {"name":"Kalógiros","state":"Thessaly","territory":"","country":"Greece","latitude":39.15281056,"longitude":23.68545509,"population":6,"stateCapital":false,"nationalCapital":false,"pk":null,"quiz":"europe","code":null,"archived":false,"percentageOfSessions":null}, {"name":"Kalogrianá","state":"Thessaly","territory":"","country":"Greece","latitude":39.46303038,"longitude":21.87142498,"population":652,"stateCapital":false,"nationalCapital":false,"pk":null,"quiz":"europe","code":null,"archived":false,"percentageOfSessions":null}, {"name":"Kalogrianí","state":"Thessaly","territory":"","country":"Greece","latitude":39.64586643,"longitude":21.48604681,"population":107,"stateCapital":false,"nationalCapital":false,"pk":null,"quiz":"europe","code":null,"archived":false,"percentageOfSessions":null}, {"name":"Kalomíra","state":"Thessaly","territory":"","country":"Greece","latitude":39.74892918,"longitude":21.40929852,"population":272,"stateCapital":false,"nationalCapital":false,"pk":null,"quiz":"europe","code":null,"archived":false,"percentageOfSessions":null}, {"name":"Kalón Neró","state":"Thessaly","territory":"","country":"Greece","latitude":39.44630794,"longitude":22.53487688,"population":248,"stateCapital":false,"nationalCapital":false,"pk":null,"quiz":"europe","code":null,"archived":false,"percentageOfSessions":null}, {"name":"Kalonérion","state":"Thessaly","territory":"","country":"Greece","latitude":39.63371598,"longitude":21.58426457,"population":203,"stateCapital":false,"nationalCapital":false,"pk":null,"quiz":"europe","code":null,"archived":false,"percentageOfSessions":null}, {"name":"Kalohórion","state":"Thessaly","territory":"","country":"Greece","latitude":39.71858749,"longitude":22.5442017,"population":542,"stateCapital":false,"nationalCapital":false,"pk":null,"quiz":"europe","code":null,"archived":false,"percentageOfSessions":null}, {"name":"Kalohórion","state":"Thessaly","territory":"","country":"Greece","latitude":39.74275185,"longitude":21.74885543,"population":99,"stateCapital":false,"nationalCapital":false,"pk":null,"quiz":"europe","code":null,"archived":false,"percentageOfSessions":null}, {"name":"Kalivákia","state":"Thessaly","territory":"","country":"Greece","latitude":39.44390512,"longitude":22.07388318,"population":150,"stateCapital":false,"nationalCapital":false,"pk":null,"quiz":"europe","code":null,"archived":false,"percentageOfSessions":null}, {"name":"Kalívia","state":"Thessaly","territory":"","country":"Greece","latitude":40.02304147,"longitude":22.24063401,"population":467,"stateCapital":false,"nationalCapital":false,"pk":null,"quiz":"europe","code":null,"archived":false,"percentageOfSessions":null},